{"sido":"인천광역시","sigungu":"연수구","totalCount":73,"validCount":73,"items":[{"name":"청학동 안골마을 주변 주차장","type":"공영","category":"노상","address":"인천광역시 연수구 비류대로 239번길 55","lat":37.429322,"lng":126.661941,"totalSpaces":586,"isFree":true,"operatingDays":"평일+토요일+공휴일","weekdayOpen":"00:00","weekdayClose":"23:59","weekendOpen":"00:00","weekendClose":"23:59","holidayOpen":"00:00","holidayClose":"23:59","feeInfo":"무료","phone":"032-749-8754","updatedAt":"2025-03-26","sido":"인천광역시","sigungu":"연수구","dong":"청학동"},{"name":"연수동 함박마을 주변 주차장","type":"공영","category":"노상","address":"인천광역시 연수구 함박안로62번길 84","lat":37.425836,"lng":126.683511,"totalSpaces":314,"isFree":true,"operatingDays":"평일+토요일+공휴일","weekdayOpen":"00:00","weekdayClose":"23:59","weekendOpen":"00:00","weekendClose":"23:59","holidayOpen":"00:00","holidayClose":"23:59","feeInfo":"무료","phone":"032-749-8754","updatedAt":"2025-03-26","sido":"인천광역시","sigungu":"연수구","dong":"연수동"},{"name":"제1공영주차장(송도)","type":"공영","category":"노외","address":"인천광역시 연수구 송도동 9-9","lat":37.37971682,"lng":126.6450403,"totalSpaces":278,"isFree":true,"operatingDays":"평일+토요일+공휴일","weekdayOpen":"00:00","weekdayClose":"23:59","weekendOpen":"00:00","weekendClose":"23:59","holidayOpen":"00:00","holidayClose":"23:59","feeInfo":"무료","phone":"032-579-2701","updatedAt":"2025-03-26","sido":"인천광역시","sigungu":"연수구","dong":"송도동"},{"name":"옥련동복개천주차장","type":"공영","category":"노상","address":"인천광역시 연수구 대암로 33","lat":37.418449,"lng":126.653199,"totalSpaces":125,"isFree":true,"operatingDays":"평일+토요일+공휴일","weekdayOpen":"00:00","weekdayClose":"23:59","weekendOpen":"00:00","weekendClose":"23:59","holidayOpen":"00:00","holidayClose":"23:59","feeInfo":"무료","phone":"032-749-8754","updatedAt":"2025-03-26","sido":"인천광역시","sigungu":"연수구","dong":"옥련동"},{"name":"문학장미공원주차장","type":"공영","category":"노외","address":"인천광역시 연수구 함박안로 27","lat":37.42663104,"lng":126.6778444,"totalSpaces":105,"isFree":true,"operatingDays":"평일+토요일+공휴일","weekdayOpen":"00:00","weekdayClose":"23:59","weekendOpen":"00:00","weekendClose":"23:59","holidayOpen":"00:00","holidayClose":"23:59","feeInfo":"무료","phone":"032-440-5953","updatedAt":"2025-03-26","sido":"인천광역시","sigungu":"연수구","dong":"연수동"},{"name":"함박로 주차장","type":"공영","category":"노상","address":"인천광역시 연수구 비류대로 461-2","lat":37.424135,"lng":126.685974,"totalSpaces":96,"isFree":true,"operatingDays":"평일+토요일+공휴일","weekdayOpen":"00:00","weekdayClose":"23:59","weekendOpen":"00:00","weekendClose":"23:59","holidayOpen":"00:00","holidayClose":"23:59","feeInfo":"무료","phone":"032-749-8754","updatedAt":"2025-03-26","sido":"인천광역시","sigungu":"연수구","dong":"연수동"},{"name":"청학로 일원 노상주차장","type":"공영","category":"노상","address":"인천광역시 연수구 청학로","lat":37.4290651,"lng":126.663555,"totalSpaces":84,"isFree":true,"operatingDays":"평일+토요일+공휴일","weekdayOpen":"00:00","weekdayClose":"23:59","weekendOpen":"00:00","weekendClose":"23:59","holidayOpen":"00:00","holidayClose":"23:59","feeInfo":"무료","phone":"032-749-8754","updatedAt":"2025-03-26","sido":"인천광역시","sigungu":"연수구","dong":"청학동"},{"name":"제9공영주차장(송도)","type":"공영","category":"노외","address":"인천광역시 연수구 송도동 10-111","lat":37.379901,"lng":126.637623,"totalSpaces":82,"isFree":true,"operatingDays":"평일+토요일+공휴일","weekdayOpen":"00:00","weekdayClose":"23:59","weekendOpen":"00:00","weekendClose":"23:59","holidayOpen":"00:00","holidayClose":"23:59","feeInfo":"무료","phone":"032-579-2701","updatedAt":"2025-03-26","sido":"인천광역시","sigungu":"연수구","dong":"송도동"},{"name":"제5공영주차장(송도)","type":"공영","category":"노외","address":"인천광역시 연수구 송도동 8-5","lat":37.385323,"lng":126.643226,"totalSpaces":72,"isFree":true,"operatingDays":"평일+토요일+공휴일","weekdayOpen":"00:00","weekdayClose":"23:59","weekendOpen":"00:00","weekendClose":"23:59","holidayOpen":"00:00","holidayClose":"23:59","feeInfo":"무료","phone":"032-579-2701","updatedAt":"2025-03-26","sido":"인천광역시","sigungu":"연수구","dong":"송도동"},{"name":"제7공영주차장(송도)","type":"공영","category":"노외","address":"인천광역시 연수구 송도동 11-98","lat":37.378758,"lng":126.643067,"totalSpaces":70,"isFree":true,"operatingDays":"평일+토요일+공휴일","weekdayOpen":"00:00","weekdayClose":"23:59","weekendOpen":"00:00","weekendClose":"23:59","holidayOpen":"00:00","holidayClose":"23:59","feeInfo":"무료","phone":"032-579-2701","updatedAt":"2025-03-26","sido":"인천광역시","sigungu":"연수구","dong":"송도동"},{"name":"제8공영주차장(송도)","type":"공영","category":"노외","address":"인천광역시 연수구 송도동 11-106","lat":37.375934,"lng":126.645094,"totalSpaces":69,"isFree":true,"operatingDays":"평일+토요일+공휴일","weekdayOpen":"00:00","weekdayClose":"23:59","weekendOpen":"00:00","weekendClose":"23:59","holidayOpen":"00:00","holidayClose":"23:59","feeInfo":"무료","phone":"032-579-2701","updatedAt":"2025-03-26","sido":"인천광역시","sigungu":"연수구","dong":"송도동"},{"name":"제19공영주차장(송도)","type":"공영","category":"노외","address":"인천광역시 연수구 송도동 22-10","lat":37.393805,"lng":126.645404,"totalSpaces":68,"isFree":true,"operatingDays":"평일+토요일+공휴일","weekdayOpen":"00:00","weekdayClose":"23:59","weekendOpen":"00:00","weekendClose":"23:59","holidayOpen":"00:00","holidayClose":"23:59","feeInfo":"무료","phone":"032-579-2701","updatedAt":"2025-03-26","sido":"인천광역시","sigungu":"연수구","dong":"송도동"},{"name":"함박뫼로 50번길 일원 주차장","type":"공영","category":"노상","address":"인천광역시 연수구 함박뫼로 50번길 81-2","lat":37.41932876,"lng":126.677347,"totalSpaces":60,"isFree":true,"operatingDays":"평일+토요일+공휴일","weekdayOpen":"00:00","weekdayClose":"23:59","weekendOpen":"00:00","weekendClose":"23:59","holidayOpen":"00:00","holidayClose":"23:59","feeInfo":"무료","phone":"032-749-8754","updatedAt":"2025-03-26","sido":"인천광역시","sigungu":"연수구","dong":"연수동"},{"name":"제14공영주차장(송도)","type":"공영","category":"노외","address":"인천광역시 연수구 송도동 20-19","lat":37.398059,"lng":126.650078,"totalSpaces":60,"isFree":true,"operatingDays":"평일+토요일+공휴일","weekdayOpen":"00:00","weekdayClose":"23:59","weekendOpen":"00:00","weekendClose":"23:59","holidayOpen":"00:00","holidayClose":"23:59","feeInfo":"무료","phone":"032-579-2701","updatedAt":"2025-03-26","sido":"인천광역시","sigungu":"연수구","dong":"송도동"},{"name":"제4공영주차장(송도)","type":"공영","category":"노외","address":"인천광역시 연수구 송도동 7-31","lat":37.385129,"lng":126.649749,"totalSpaces":50,"isFree":true,"operatingDays":"평일+토요일+공휴일","weekdayOpen":"00:00","weekdayClose":"23:59","weekendOpen":"00:00","weekendClose":"23:59","holidayOpen":"00:00","holidayClose":"23:59","feeInfo":"무료","phone":"032-579-2701","updatedAt":"2025-03-26","sido":"인천광역시","sigungu":"연수구","dong":"송도동"},{"name":"그린타워주차장","type":"공영","category":"노상","address":"인천광역시 연수구 용담로125번길 26","lat":37.415099,"lng":126.679605,"totalSpaces":49,"isFree":true,"operatingDays":"평일+토요일+공휴일","weekdayOpen":"00:00","weekdayClose":"23:59","weekendOpen":"00:00","weekendClose":"23:59","holidayOpen":"00:00","holidayClose":"23:59","feeInfo":"무료","phone":"032-749-8754","updatedAt":"2025-03-26","sido":"인천광역시","sigungu":"연수구","dong":"연수동"},{"name":"컨벤시아교 하부 공영주차장","type":"공영","category":"노외","address":"인천광역시 연수구 동춘동 719-51","lat":37.40574848,"lng":126.6586397,"totalSpaces":48,"isFree":true,"operatingDays":"평일+토요일+공휴일","weekdayOpen":"00:00","weekdayClose":"23:59","weekendOpen":"00:00","weekendClose":"23:59","holidayOpen":"00:00","holidayClose":"23:59","feeInfo":"무료","phone":"032-749-8754","updatedAt":"2025-03-26","sido":"인천광역시","sigungu":"연수구","dong":"동춘동"},{"name":"봉재산로36번길 일원 노상주차장","type":"공영","category":"노상","address":"인천광역시 연수구 동춘동 1150-5","lat":37.408772,"lng":126.6649537355,"totalSpaces":47,"isFree":true,"operatingDays":"평일+토요일+공휴일","weekdayOpen":"00:00","weekdayClose":"23:59","weekendOpen":"00:00","weekendClose":"23:59","holidayOpen":"00:00","holidayClose":"23:59","feeInfo":"무료","phone":"032-749-8754","updatedAt":"2025-03-26","sido":"인천광역시","sigungu":"연수구","dong":"동춘동"},{"name":"박물관길 주차장","type":"공영","category":"노상","address":"인천광역시 연수구 청량로160번길","lat":37.420646,"lng":126.653922,"totalSpaces":44,"isFree":true,"operatingDays":"평일+토요일+공휴일","weekdayOpen":"00:00","weekdayClose":"23:59","weekendOpen":"00:00","weekendClose":"23:59","holidayOpen":"00:00","holidayClose":"23:59","feeInfo":"무료","phone":"032-749-8754","updatedAt":"2025-03-26","sido":"인천광역시","sigungu":"연수구","dong":"옥련동"},{"name":"제2공영주차장(송도)","type":"공영","category":"노외","address":"인천광역시 연수구 송도동 7-19","lat":37.386388,"lng":126.651064,"totalSpaces":41,"isFree":true,"operatingDays":"평일+토요일+공휴일","weekdayOpen":"00:00","weekdayClose":"23:59","weekendOpen":"00:00","weekendClose":"23:59","holidayOpen":"00:00","holidayClose":"23:59","feeInfo":"무료","phone":"032-579-2701","updatedAt":"2025-03-26","sido":"인천광역시","sigungu":"연수구","dong":"송도동"},{"name":"흥륜사 주차장","type":"공영","category":"노외","address":"인천광역시 연수구 청량로 70번길 40-17","lat":37.41679033,"lng":126.6593583,"totalSpaces":40,"isFree":true,"operatingDays":"평일+토요일+공휴일","weekdayOpen":"00:00","weekdayClose":"23:59","weekendOpen":"00:00","weekendClose":"23:59","holidayOpen":"00:00","holidayClose":"23:59","feeInfo":"무료","phone":"032-830-8073","updatedAt":"2025-03-26","sido":"인천광역시","sigungu":"연수구","dong":"옥련동"},{"name":"상륙작전기념관주차장","type":"공영","category":"노상","address":"인천광역시 연수구 인권로","lat":37.41803897,"lng":126.6509022,"totalSpaces":39,"isFree":true,"operatingDays":"평일+토요일+공휴일","weekdayOpen":"00:00","weekdayClose":"23:59","weekendOpen":"00:00","weekendClose":"23:59","holidayOpen":"00:00","holidayClose":"23:59","feeInfo":"무료","phone":"032-749-8754","updatedAt":"2025-03-26","sido":"인천광역시","sigungu":"연수구","dong":"옥련동"},{"name":"제15공영주차장(송도)","type":"공영","category":"노외","address":"인천광역시 연수구 송도동 21-61","lat":37.395726,"lng":126.648553,"totalSpaces":34,"isFree":true,"operatingDays":"평일+토요일+공휴일","weekdayOpen":"00:00","weekdayClose":"23:59","weekendOpen":"00:00","weekendClose":"23:59","holidayOpen":"00:00","holidayClose":"23:59","feeInfo":"무료","phone":"032-579-2701","updatedAt":"2025-03-26","sido":"인천광역시","sigungu":"연수구","dong":"송도동"},{"name":"제16공영주차장(송도)","type":"공영","category":"노외","address":"인천광역시 연수구 송도동 21-63","lat":37.395373,"lng":126.648183,"totalSpaces":34,"isFree":true,"operatingDays":"평일+토요일+공휴일","weekdayOpen":"00:00","weekdayClose":"23:59","weekendOpen":"00:00","weekendClose":"23:59","holidayOpen":"00:00","holidayClose":"23:59","feeInfo":"무료","phone":"032-579-2701","updatedAt":"2025-03-26","sido":"인천광역시","sigungu":"연수구","dong":"송도동"},{"name":"옥련동 송학둥지아파트 주변 주차장","type":"공영","category":"노상","address":"인천광역시 연수구 비류대로144번길 14","lat":37.4292493757,"lng":126.6490593133,"totalSpaces":32,"isFree":true,"operatingDays":"평일+토요일+공휴일","weekdayOpen":"00:00","weekdayClose":"23:59","weekendOpen":"00:00","weekendClose":"23:59","holidayOpen":"00:00","holidayClose":"23:59","feeInfo":"무료","phone":"032-749-8754","updatedAt":"2025-03-26","sido":"인천광역시","sigungu":"연수구","dong":"옥련동"},{"name":"제18공영주차장(송도)","type":"공영","category":"노외","address":"인천광역시 연수구 송도동 21-8","lat":37.396523,"lng":126.646455,"totalSpaces":29,"isFree":true,"operatingDays":"평일+토요일+공휴일","weekdayOpen":"00:00","weekdayClose":"23:59","weekendOpen":"00:00","weekendClose":"23:59","holidayOpen":"00:00","holidayClose":"23:59","feeInfo":"무료","phone":"032-579-2701","updatedAt":"2025-03-26","sido":"인천광역시","sigungu":"연수구","dong":"송도동"},{"name":"옥련동 호불사 주변 주차장","type":"공영","category":"노상","address":"인천광역시 연수구 청룡로 29번길 2","lat":37.424114,"lng":126.657879,"totalSpaces":26,"isFree":true,"operatingDays":"평일+토요일+공휴일","weekdayOpen":"00:00","weekdayClose":"23:59","weekendOpen":"00:00","weekendClose":"23:59","holidayOpen":"00:00","holidayClose":"23:59","feeInfo":"무료","phone":"032-749-8754","updatedAt":"2025-03-26","sido":"인천광역시","sigungu":"연수구","dong":"옥련동"},{"name":"제17공영주차장(송도)","type":"공영","category":"노외","address":"인천광역시 연수구 송도동 21-6","lat":37.396918,"lng":126.646865,"totalSpaces":25,"isFree":true,"operatingDays":"평일+토요일+공휴일","weekdayOpen":"00:00","weekdayClose":"23:59","weekendOpen":"00:00","weekendClose":"23:59","holidayOpen":"00:00","holidayClose":"23:59","feeInfo":"무료","phone":"032-579-2701","updatedAt":"2025-03-26","sido":"인천광역시","sigungu":"연수구","dong":"송도동"},{"name":"시립박물관주변주차장","type":"공영","category":"노외","address":"인천광역시 연수구 옥련동 418-9","lat":37.421309,"lng":126.652171,"totalSpaces":24,"isFree":true,"operatingDays":"평일+토요일+공휴일","weekdayOpen":"00:00","weekdayClose":"23:59","weekendOpen":"00:00","weekendClose":"23:59","holidayOpen":"00:00","holidayClose":"23:59","feeInfo":"무료","phone":"032-579-2701","updatedAt":"2025-03-26","sido":"인천광역시","sigungu":"연수구","dong":"옥련동"},{"name":"시립박물관주변","type":"공영","category":"노외","address":"인천광역시 연수구 청량로 165","lat":37.4218346,"lng":126.6524034,"totalSpaces":24,"isFree":true,"operatingDays":"평일+토요일+공휴일","weekdayOpen":"00:00","weekdayClose":"23:59","weekendOpen":"00:00","weekendClose":"23:59","holidayOpen":"00:00","holidayClose":"23:59","feeInfo":"무료","phone":"032-579-2701","updatedAt":"2025-06-26","sido":"인천광역시","sigungu":"연수구","dong":"옥련동"},{"name":"시립박물관주변","type":"공영","category":"노외","address":"인천광역시 연수구 청량로 165","lat":37.4218346,"lng":126.6524034,"totalSpaces":24,"isFree":true,"operatingDays":"평일+토요일+공휴일","weekdayOpen":"00:01","weekdayClose":"12:00","weekendOpen":"00:01","weekendClose":"12:00","holidayOpen":"00:01","holidayClose":"12:00","feeInfo":"무료","phone":"032-579-2701","updatedAt":"2025-06-25","sido":"인천광역시","sigungu":"연수구","dong":"옥련동"},{"name":"옥련동 호불사 입구 주변 주차장","type":"공영","category":"노상","address":"인천광역시 연수구 청룡로 46","lat":37.423259,"lng":126.6573906,"totalSpaces":23,"isFree":true,"operatingDays":"평일+토요일+공휴일","weekdayOpen":"00:00","weekdayClose":"23:59","weekendOpen":"00:00","weekendClose":"23:59","holidayOpen":"00:00","holidayClose":"23:59","feeInfo":"무료","phone":"032-749-8754","updatedAt":"2025-03-26","sido":"인천광역시","sigungu":"연수구","dong":""},{"name":"능허리주차장","type":"공영","category":"노외","address":"인천광역시 연수구 동곡재로 49번길","lat":37.414148,"lng":126.671955,"totalSpaces":22,"isFree":true,"operatingDays":"평일+토요일+공휴일","weekdayOpen":"00:00","weekdayClose":"23:59","weekendOpen":"00:00","weekendClose":"23:59","holidayOpen":"00:00","holidayClose":"23:59","feeInfo":"무료","phone":"032-830-8073","updatedAt":"2025-03-26","sido":"인천광역시","sigungu":"연수구","dong":"동춘동"},{"name":"옥련동공영주차장(1)","type":"공영","category":"노외","address":"인천광역시 연수구 옥련동 340-9","lat":37.425263,"lng":126.655194,"totalSpaces":20,"isFree":true,"operatingDays":"평일+토요일+공휴일","weekdayOpen":"00:00","weekdayClose":"23:59","weekendOpen":"00:00","weekendClose":"23:59","holidayOpen":"00:00","holidayClose":"23:59","feeInfo":"무료","phone":"032-830-8073","updatedAt":"2025-03-26","sido":"인천광역시","sigungu":"연수구","dong":"옥련동"},{"name":"동춘교하부공간주차장","type":"공영","category":"노외","address":"인천광역시 연수구 앵고개로 동춘교","lat":37.413007,"lng":126.663995,"totalSpaces":17,"isFree":true,"operatingDays":"평일+토요일+공휴일","weekdayOpen":"00:00","weekdayClose":"23:59","weekendOpen":"00:00","weekendClose":"23:59","holidayOpen":"00:00","holidayClose":"23:59","feeInfo":"무료","phone":"032-830-8073","updatedAt":"2025-03-26","sido":"인천광역시","sigungu":"연수구","dong":"동춘동"},{"name":"문남공원 일원 주차장","type":"공영","category":"노상","address":"인천광역시 연수구 연수동 643-2","lat":37.42215122,"lng":126.676739,"totalSpaces":16,"isFree":true,"operatingDays":"평일+토요일+공휴일","weekdayOpen":"00:00","weekdayClose":"23:59","weekendOpen":"00:00","weekendClose":"23:59","holidayOpen":"00:00","holidayClose":"23:59","feeInfo":"무료","phone":"032-749-8754","updatedAt":"2025-03-26","sido":"인천광역시","sigungu":"연수구","dong":"연수동"},{"name":"송도로타리주차장","type":"공영","category":"노상","address":"인천광역시 연수구 능허대로 199","lat":37.418305,"lng":126.650527,"totalSpaces":15,"isFree":true,"operatingDays":"평일+토요일+공휴일","weekdayOpen":"00:00","weekdayClose":"23:59","weekendOpen":"00:00","weekendClose":"23:59","holidayOpen":"00:00","holidayClose":"23:59","feeInfo":"무료","phone":"032-749-8754","updatedAt":"2025-03-26","sido":"인천광역시","sigungu":"연수구","dong":"옥련동"},{"name":"옥련동공영주차장(2)","type":"공영","category":"노외","address":"인천광역시 연수구 옥련동 163-5","lat":37.42743378,"lng":126.6477781,"totalSpaces":13,"isFree":true,"operatingDays":"평일+토요일+공휴일","weekdayOpen":"00:00","weekdayClose":"23:59","weekendOpen":"00:00","weekendClose":"23:59","holidayOpen":"00:00","holidayClose":"23:59","feeInfo":"무료","phone":"032-830-8073","updatedAt":"2025-03-26","sido":"인천광역시","sigungu":"연수구","dong":"옥련동"},{"name":"옥련동 백산1차아파트 주변 주차장","type":"공영","category":"노상","address":"인천광역시 연수구 독배로40번길 18","lat":37.424224,"lng":126.646247,"totalSpaces":11,"isFree":true,"operatingDays":"평일+토요일+공휴일","weekdayOpen":"00:00","weekdayClose":"23:59","weekendOpen":"00:00","weekendClose":"23:59","holidayOpen":"00:00","holidayClose":"23:59","feeInfo":"무료","phone":"032-749-8754","updatedAt":"2025-03-26","sido":"인천광역시","sigungu":"연수구","dong":"옥련동"},{"name":"송도1동 행정복지센터 일원 노상주차장","type":"공영","category":"노상","address":"인천광역시 연수구 송도동 3-33번지","lat":37.391226,"lng":126.652211,"totalSpaces":10,"isFree":true,"operatingDays":"평일+토요일+공휴일","weekdayOpen":"00:00","weekdayClose":"23:59","weekendOpen":"00:00","weekendClose":"23:59","holidayOpen":"00:00","holidayClose":"23:59","feeInfo":"무료","phone":"032-749-8754","updatedAt":"2025-03-26","sido":"인천광역시","sigungu":"연수구","dong":"송도동"},{"name":"동춘동 820-59번지 쌈지공영주차장","type":"공영","category":"노외","address":"인천광역시 연수구 동춘동 820-59","lat":37.416413,"lng":126.655851,"totalSpaces":5,"isFree":true,"operatingDays":"평일+토요일+공휴일","weekdayOpen":"00:00","weekdayClose":"23:59","weekendOpen":"00:00","weekendClose":"23:59","holidayOpen":"00:00","holidayClose":"23:59","feeInfo":"무료","phone":"032-749-8753","updatedAt":"2025-03-26","sido":"인천광역시","sigungu":"연수구","dong":"동춘동"},{"name":"청학동 쌈지(임시)주차장","type":"공영","category":"노외","address":"인천광역시 연수구 청학동 521-13","lat":37.429168,"lng":126.663171,"totalSpaces":3,"isFree":true,"operatingDays":"평일+토요일+공휴일","weekdayOpen":"00:00","weekdayClose":"23:59","weekendOpen":"00:00","weekendClose":"23:59","holidayOpen":"00:00","holidayClose":"23:59","feeInfo":"무료","phone":"032-749-8753","updatedAt":"2025-03-26","sido":"인천광역시","sigungu":"연수구","dong":"청학동"},{"name":"송도컨벤시아 주차장","type":"공영","category":"부설","address":"인천광역시 연수구 센트럴로 123","lat":37.3881431,"lng":126.6455531,"totalSpaces":1157,"isFree":false,"operatingDays":"평일+토요일+공휴일","weekdayOpen":"00:00","weekdayClose":"23:59","weekendOpen":"00:00","weekendClose":"23:59","holidayOpen":"00:00","holidayClose":"23:59","feeInfo":"기본 30분 1,200원 / 추가 15분당 300원","phone":"032-210-1114","updatedAt":"2025-09-16","sido":"인천광역시","sigungu":"연수구","dong":""},{"name":"동춘동 공영주차장","type":"공영","category":"노외","address":"인천광역시 연수구 앵고개로246번길 7-14","lat":37.407783,"lng":126.671544,"totalSpaces":225,"isFree":false,"operatingDays":"평일+토요일+공휴일","weekdayOpen":"00:00","weekdayClose":"23:59","weekendOpen":"00:00","weekendClose":"23:59","holidayOpen":"00:00","holidayClose":"23:59","feeInfo":"기본 30분 600원 / 추가 15분당 300원","phone":"032-579-2701","updatedAt":"2025-03-26","sido":"인천광역시","sigungu":"연수구","dong":"동춘동"},{"name":"동춘동","type":"공영","category":"노외","address":"인천광역시 연수구 앵고개로 246번길 7-14","lat":37.407747,"lng":126.6715439,"totalSpaces":225,"isFree":false,"operatingDays":"평일+토요일+공휴일","weekdayOpen":"00:00","weekdayClose":"23:59","weekendOpen":"00:00","weekendClose":"23:59","holidayOpen":"00:00","holidayClose":"23:59","feeInfo":"기본 30분 600원 / 추가 15분당 300원","phone":"032-579-2701","updatedAt":"2025-06-26","sido":"인천광역시","sigungu":"연수구","dong":"동춘동"},{"name":"동 춘 동","type":"공영","category":"노외","address":"인천광역시 연수구 앵고개로 246번길 7-14","lat":37.407747,"lng":126.6715439,"totalSpaces":225,"isFree":false,"operatingDays":"평일+토요일+공휴일","weekdayOpen":"00:01","weekdayClose":"12:00","weekendOpen":"00:01","weekendClose":"12:00","holidayOpen":"00:01","holidayClose":"12:00","feeInfo":"기본 30분 600원 / 추가 15분당 300원","phone":"032-579-2701","updatedAt":"2025-06-25","sido":"인천광역시","sigungu":"연수구","dong":"동춘동"},{"name":"연수역남부공영주차장","type":"공영","category":"노외","address":"인천광역시 연수구 청학동 466","lat":37.419359,"lng":126.675835,"totalSpaces":170,"isFree":false,"operatingDays":"평일+토요일+공휴일","weekdayOpen":"00:00","weekdayClose":"23:59","weekendOpen":"00:00","weekendClose":"23:59","holidayOpen":"00:00","holidayClose":"23:59","feeInfo":"기본 30분 400원 / 추가 15분당 200원","phone":"032-830-8073","updatedAt":"2025-03-26","sido":"인천광역시","sigungu":"연수구","dong":"청학동"},{"name":"연수3동 공영주차장","type":"공영","category":"노외","address":"인천광역시 연수구 연수동 532-2","lat":37.422757,"lng":126.697429,"totalSpaces":167,"isFree":false,"operatingDays":"평일+토요일+공휴일","weekdayOpen":"00:00","weekdayClose":"23:59","weekendOpen":"00:00","weekendClose":"23:59","holidayOpen":"00:00","holidayClose":"23:59","feeInfo":"기본 30분 400원 / 추가 15분당 200원","phone":"032-830-8073","updatedAt":"2025-03-26","sido":"인천광역시","sigungu":"연수구","dong":"연수동"},{"name":"송도역 주차장(환승주차장)","type":"공영","category":"노외","address":"인천광역시 연수구 옥련동 293-1","lat":37.429218,"lng":126.654847,"totalSpaces":158,"isFree":false,"operatingDays":"평일+토요일+공휴일","weekdayOpen":"00:00","weekdayClose":"23:59","weekendOpen":"00:00","weekendClose":"23:59","holidayOpen":"00:00","holidayClose":"23:59","feeInfo":"기본 30분 600원 / 추가 15분당 300원","phone":"02-788-5097","updatedAt":"2025-03-26","sido":"인천광역시","sigungu":"연수구","dong":"옥련동"},{"name":"함박마을공영주차장","type":"공영","category":"노외","address":"인천광역시 연수구 함박안로62번길 73","lat":37.426079,"lng":126.682999,"totalSpaces":128,"isFree":false,"operatingDays":"평일+토요일+공휴일","weekdayOpen":"00:00","weekdayClose":"23:59","weekendOpen":"00:00","weekendClose":"23:59","holidayOpen":"00:00","holidayClose":"23:59","feeInfo":"기본 30분 400원 / 추가 15분당 200원","phone":"032-579-2701","updatedAt":"2025-03-26","sido":"인천광역시","sigungu":"연수구","dong":"연수동"},{"name":"함박마을","type":"공영","category":"노외","address":"인천광역시 연수구 함박안로 62번길 73","lat":37.42604049,"lng":126.6829999,"totalSpaces":128,"isFree":false,"operatingDays":"평일+토요일+공휴일","weekdayOpen":"00:00","weekdayClose":"23:59","weekendOpen":"00:00","weekendClose":"23:59","holidayOpen":"00:00","holidayClose":"23:59","feeInfo":"기본 30분 400원 / 추가 15분당 200원","phone":"032-579-2701","updatedAt":"2025-06-26","sido":"인천광역시","sigungu":"연수구","dong":"연수동"},{"name":"함박마을","type":"공영","category":"노외","address":"인천광역시 연수구 함박안로 62번길 73","lat":37.42604049,"lng":126.6829999,"totalSpaces":128,"isFree":false,"operatingDays":"평일+토요일+공휴일","weekdayOpen":"00:01","weekdayClose":"12:00","weekendOpen":"00:01","weekendClose":"12:00","holidayOpen":"00:01","holidayClose":"12:00","feeInfo":"기본 30분 400원 / 추가 15분당 200원","phone":"032-579-2701","updatedAt":"2025-06-25","sido":"인천광역시","sigungu":"연수구","dong":"연수동"},{"name":"동춘동 노상 공영주차장","type":"공영","category":"노상","address":"인천광역시 연수구 동춘동 959-2","lat":37.40721336,"lng":126.6718422,"totalSpaces":124,"isFree":false,"operatingDays":"평일+토요일+공휴일","weekdayOpen":"00:00","weekdayClose":"19:00","weekendOpen":"00:00","weekendClose":"19:00","holidayOpen":"00:00","holidayClose":"19:00","feeInfo":"기본 30분 600원 / 추가 15분당 300원","phone":"032-830-8073","updatedAt":"2025-03-26","sido":"인천광역시","sigungu":"연수구","dong":"동춘동"},{"name":"연수역 주차장(환승주차장)","type":"공영","category":"노외","address":"인천광역시 연수구 연수동 587-1","lat":37.418616,"lng":126.678183,"totalSpaces":121,"isFree":false,"operatingDays":"평일+토요일+공휴일","weekdayOpen":"00:00","weekdayClose":"23:59","weekendOpen":"00:00","weekendClose":"23:59","holidayOpen":"00:00","holidayClose":"23:59","feeInfo":"기본 30분 600원 / 추가 15분당 300원","phone":"02-788-5097","updatedAt":"2025-03-26","sido":"인천광역시","sigungu":"연수구","dong":"연수동"},{"name":"연수 벚꽃로 공영주차장","type":"공영","category":"노외","address":"인천광역시 연수구 벚꽃로 123","lat":37.417025,"lng":126.679501,"totalSpaces":117,"isFree":false,"operatingDays":"평일+토요일+공휴일","weekdayOpen":"00:00","weekdayClose":"23:59","weekendOpen":"00:00","weekendClose":"23:59","holidayOpen":"00:00","holidayClose":"23:59","feeInfo":"기본 30분 400원 / 추가 15분당 200원","phone":"032-830-8073","updatedAt":"2025-03-26","sido":"인천광역시","sigungu":"연수구","dong":"연수동"},{"name":"청학공영주차장(2)","type":"공영","category":"노외","address":"인천광역시 연수구 청학동 90-5","lat":37.427204,"lng":126.662712,"totalSpaces":108,"isFree":false,"operatingDays":"평일+토요일+공휴일","weekdayOpen":"00:00","weekdayClose":"23:59","weekendOpen":"00:00","weekendClose":"23:59","holidayOpen":"00:00","holidayClose":"23:59","feeInfo":"기본 30분 400원 / 추가 15분당 200원","phone":"032-830-8073","updatedAt":"2025-03-26","sido":"인천광역시","sigungu":"연수구","dong":"청학동"},{"name":"송도동 공영주차장","type":"공영","category":"노외","address":"인천광역시 연수구 송도동 16-2","lat":37.40389303,"lng":126.6423119,"totalSpaces":107,"isFree":false,"operatingDays":"평일+토요일+공휴일","weekdayOpen":"00:00","weekdayClose":"23:59","weekendOpen":"00:00","weekendClose":"23:59","holidayOpen":"00:00","holidayClose":"23:59","feeInfo":"기본 120분 0원 / 추가 15분당 200원","phone":"032-830-8073","updatedAt":"2025-03-26","sido":"인천광역시","sigungu":"연수구","dong":"송도동"},{"name":"청학동공영주차장(4)","type":"공영","category":"노외","address":"인천광역시 연수구 청학동 79-2","lat":37.427141,"lng":126.664411,"totalSpaces":95,"isFree":false,"operatingDays":"평일+토요일+공휴일","weekdayOpen":"00:00","weekdayClose":"23:59","weekendOpen":"00:00","weekendClose":"23:59","holidayOpen":"00:00","holidayClose":"23:59","feeInfo":"기본 30분 400원 / 추가 15분당 200원","phone":"032-830-8073","updatedAt":"2025-03-26","sido":"인천광역시","sigungu":"연수구","dong":"청학동"},{"name":"연수역북부공영주차장","type":"공영","category":"노외","address":"인천광역시 연수구 연수동 587","lat":37.419094,"lng":126.677368,"totalSpaces":94,"isFree":false,"operatingDays":"평일+토요일+공휴일","weekdayOpen":"00:00","weekdayClose":"23:59","weekendOpen":"00:00","weekendClose":"23:59","holidayOpen":"00:00","holidayClose":"23:59","feeInfo":"기본 30분 400원 / 추가 15분당 200원","phone":"032-830-8073","updatedAt":"2025-03-26","sido":"인천광역시","sigungu":"연수구","dong":"연수동"},{"name":"샘말공원지하주차장","type":"공영","category":"노외","address":"인천광역시 연수구 샘말로 68-5","lat":37.414036,"lng":126.680404,"totalSpaces":72,"isFree":false,"operatingDays":"평일+토요일+공휴일","weekdayOpen":"00:00","weekdayClose":"23:59","weekendOpen":"00:00","weekendClose":"23:59","holidayOpen":"00:00","holidayClose":"23:59","feeInfo":"기본 30분 600원 / 추가 15분당 300원","phone":"032-579-2701","updatedAt":"2025-03-26","sido":"인천광역시","sigungu":"연수구","dong":"연수동"},{"name":"샘말공원","type":"공영","category":"노외","address":"인천광역시 연수구 샘말로 68-5","lat":37.41403558,"lng":126.6804043,"totalSpaces":72,"isFree":false,"operatingDays":"평일+토요일+공휴일","weekdayOpen":"00:00","weekdayClose":"23:59","weekendOpen":"00:00","weekendClose":"23:59","holidayOpen":"00:00","holidayClose":"23:59","feeInfo":"기본 30분 600원 / 추가 15분당 300원","phone":"032-579-2701","updatedAt":"2025-06-26","sido":"인천광역시","sigungu":"연수구","dong":"연수동"},{"name":"샘말공원","type":"공영","category":"노외","address":"인천광역시 연수구 샘말로 68-5","lat":37.41403558,"lng":126.6804043,"totalSpaces":72,"isFree":false,"operatingDays":"평일+토요일+공휴일","weekdayOpen":"00:01","weekdayClose":"12:00","weekendOpen":"00:01","weekendClose":"12:00","holidayOpen":"00:01","holidayClose":"12:00","feeInfo":"기본 30분 600원 / 추가 15분당 300원","phone":"032-579-2701","updatedAt":"2025-06-25","sido":"인천광역시","sigungu":"연수구","dong":"연수동"},{"name":"늘봄공원지하주차장","type":"공영","category":"노외","address":"인천광역시 연수구 샘말로 37-7","lat":37.413199,"lng":126.678537,"totalSpaces":65,"isFree":false,"operatingDays":"평일+토요일+공휴일","weekdayOpen":"00:00","weekdayClose":"23:59","weekendOpen":"00:00","weekendClose":"23:59","holidayOpen":"00:00","holidayClose":"23:59","feeInfo":"기본 30분 600원 / 추가 15분당 300원","phone":"032-579-2701","updatedAt":"2025-03-26","sido":"인천광역시","sigungu":"연수구","dong":"연수동"},{"name":"늘봄공원","type":"공영","category":"노외","address":"인천광역시 연수구 샘말로 37-7","lat":37.41319988,"lng":126.6785372,"totalSpaces":63,"isFree":false,"operatingDays":"평일+토요일+공휴일","weekdayOpen":"00:00","weekdayClose":"23:59","weekendOpen":"00:00","weekendClose":"23:59","holidayOpen":"00:00","holidayClose":"23:59","feeInfo":"기본 30분 600원 / 추가 15분당 300원","phone":"032-579-2701","updatedAt":"2025-06-26","sido":"인천광역시","sigungu":"연수구","dong":"연수동"},{"name":"늘봄공원","type":"공영","category":"노외","address":"인천광역시 연수구 샘말로 37-7","lat":37.41319988,"lng":126.6785372,"totalSpaces":63,"isFree":false,"operatingDays":"평일+토요일+공휴일","weekdayOpen":"00:01","weekdayClose":"12:00","weekendOpen":"00:01","weekendClose":"12:00","holidayOpen":"00:01","holidayClose":"12:00","feeInfo":"기본 30분 600원 / 추가 15분당 300원","phone":"032-579-2701","updatedAt":"2025-06-25","sido":"인천광역시","sigungu":"연수구","dong":"연수동"},{"name":"청학공영주차장","type":"공영","category":"노외","address":"인천광역시 연수구 청학동 170","lat":37.42668059,"lng":126.6669175,"totalSpaces":50,"isFree":false,"operatingDays":"평일+토요일+공휴일","weekdayOpen":"00:00","weekdayClose":"23:59","weekendOpen":"00:00","weekendClose":"23:59","holidayOpen":"00:00","holidayClose":"23:59","feeInfo":"기본 120분 0원 / 추가 15분당 200원","phone":"032-830-8073","updatedAt":"2025-03-26","sido":"인천광역시","sigungu":"연수구","dong":"청학동"},{"name":"원인재역 주차장(환승주차장)","type":"공영","category":"노외","address":"인천광역시 연수구 연수동 585","lat":37.413431,"lng":126.686533,"totalSpaces":46,"isFree":false,"operatingDays":"평일+토요일+공휴일","weekdayOpen":"00:00","weekdayClose":"23:59","weekendOpen":"00:00","weekendClose":"23:59","holidayOpen":"00:00","holidayClose":"23:59","feeInfo":"기본 30분 600원 / 추가 15분당 300원","phone":"02-788-5097","updatedAt":"2025-03-26","sido":"인천광역시","sigungu":"연수구","dong":"연수동"},{"name":"옥련동 재래시장주차장","type":"공영","category":"노상","address":"인천광역시 연수구 독배로 40번길","lat":37.424227,"lng":126.644869,"totalSpaces":39,"isFree":false,"operatingDays":"평일+토요일+공휴일","weekdayOpen":"00:00","weekdayClose":"19:00","weekendOpen":"00:00","weekendClose":"19:00","holidayOpen":"00:00","holidayClose":"19:00","feeInfo":"기본 30분 600원 / 추가 15분당 300원","phone":"032-830-8073","updatedAt":"2025-03-26","sido":"인천광역시","sigungu":"연수구","dong":"옥련동"},{"name":"두리공원주차장","type":"공영","category":"노외","address":"인천광역시 연수구 비류대로541번길 14-7","lat":37.424023,"lng":126.695464,"totalSpaces":37,"isFree":false,"operatingDays":"평일+토요일+공휴일","weekdayOpen":"00:00","weekdayClose":"23:59","weekendOpen":"00:00","weekendClose":"23:59","holidayOpen":"00:00","holidayClose":"23:59","feeInfo":"기본 30분 400원 / 추가 15분당 200원","phone":"032-579-2701","updatedAt":"2025-03-26","sido":"인천광역시","sigungu":"연수구","dong":"선학동"},{"name":"두리공원","type":"공영","category":"노외","address":"인천광역시 연수구 비류대로 541번길 14-7","lat":37.42402254,"lng":126.6954643,"totalSpaces":36,"isFree":false,"operatingDays":"평일+토요일+공휴일","weekdayOpen":"00:00","weekdayClose":"23:59","weekendOpen":"00:00","weekendClose":"23:59","holidayOpen":"00:00","holidayClose":"23:59","feeInfo":"기본 30분 400원 / 추가 15분당 200원","phone":"032-579-2701","updatedAt":"2025-06-26","sido":"인천광역시","sigungu":"연수구","dong":"선학동"},{"name":"선 학 동","type":"공영","category":"노외","address":"인천광역시 연수구 비류대로 541번길 14-7","lat":37.42402254,"lng":126.6954643,"totalSpaces":36,"isFree":false,"operatingDays":"평일+토요일+공휴일","weekdayOpen":"00:01","weekdayClose":"12:00","weekendOpen":"00:01","weekendClose":"12:00","holidayOpen":"00:01","holidayClose":"12:00","feeInfo":"기본 30분 400원 / 추가 15분당 200원","phone":"032-579-2701","updatedAt":"2025-06-25","sido":"인천광역시","sigungu":"연수구","dong":"선학동"},{"name":"선학동공영주차장","type":"공영","category":"노외","address":"인천광역시 연수구 비류대로541번길 14-7","lat":37.424089,"lng":126.695464,"totalSpaces":34,"isFree":false,"operatingDays":"평일+토요일+공휴일","weekdayOpen":"00:00","weekdayClose":"23:59","weekendOpen":"00:00","weekendClose":"23:59","holidayOpen":"00:00","holidayClose":"23:59","feeInfo":"기본 30분 400원 / 추가 15분당 200원","phone":"032-830-8073","updatedAt":"2025-03-26","sido":"인천광역시","sigungu":"연수구","dong":"선학동"},{"name":"청학공영주차장(3)","type":"공영","category":"노외","address":"인천광역시 연수구 청학동 571-2","lat":37.424116,"lng":126.665134,"totalSpaces":26,"isFree":false,"operatingDays":"평일+토요일+공휴일","weekdayOpen":"00:00","weekdayClose":"23:59","weekendOpen":"00:00","weekendClose":"23:59","holidayOpen":"00:00","holidayClose":"23:59","feeInfo":"기본 30분 400원 / 추가 15분당 200원","phone":"032-830-8073","updatedAt":"2025-03-26","sido":"인천광역시","sigungu":"연수구","dong":"청학동"}]}