{"sido":"인천광역시","sigungu":"옹진군","totalCount":45,"validCount":45,"items":[{"name":"진두항주차장","type":"공영","category":"노외","address":"인천광역시 옹진군 영흥면 영흥로 109-10","lat":37.25522135,"lng":126.4966115,"totalSpaces":310,"isFree":true,"operatingDays":"평일+토요일+공휴일","weekdayOpen":"00:00","weekdayClose":"23:59","weekendOpen":"00:00","weekendClose":"23:59","holidayOpen":"00:00","holidayClose":"23:59","feeInfo":"무료","phone":"032-899-2583","updatedAt":"2025-07-16","sido":"인천광역시","sigungu":"옹진군","dong":"영흥면"},{"name":"당섬 선착장 주차장","type":"공영","category":"노외","address":"인천광역시 옹진군 연평면 연평로 6","lat":37.65482617,"lng":125.7124629,"totalSpaces":208,"isFree":true,"operatingDays":"평일+토요일+공휴일","weekdayOpen":"00:00","weekdayClose":"23:59","weekendOpen":"00:00","weekendClose":"23:59","holidayOpen":"00:00","holidayClose":"23:59","feeInfo":"무료","phone":"032-899-2583","updatedAt":"2025-07-16","sido":"인천광역시","sigungu":"옹진군","dong":"연평면"},{"name":"잔두항공영주차장(건물식)","type":"공영","category":"노외","address":"인천광역시 옹진군 영흥면 영흥로 109-10","lat":37.25522135,"lng":126.4966115,"totalSpaces":177,"isFree":true,"operatingDays":"평일+토요일+공휴일","weekdayOpen":"00:00","weekdayClose":"23:59","weekendOpen":"00:00","weekendClose":"23:59","holidayOpen":"00:00","holidayClose":"23:59","feeInfo":"무료","phone":"032-899-2583","updatedAt":"2025-07-16","sido":"인천광역시","sigungu":"옹진군","dong":"영흥면"},{"name":"용기포 신항 주차장","type":"공영","category":"노외","address":"인천광역시 옹진군 백령면 백령로 68-85","lat":37.95578034,"lng":124.7349257,"totalSpaces":110,"isFree":true,"operatingDays":"평일+토요일+공휴일","weekdayOpen":"00:00","weekdayClose":"23:59","weekendOpen":"00:00","weekendClose":"23:59","holidayOpen":"00:00","holidayClose":"23:59","feeInfo":"무료","phone":"032-899-2583","updatedAt":"2025-07-16","sido":"인천광역시","sigungu":"옹진군","dong":"백령면"},{"name":"용기포 신항 주차장(건물식)","type":"공영","category":"노외","address":"인천광역시 옹진군 백령면 백령로 68-85","lat":37.95578034,"lng":124.7349257,"totalSpaces":91,"isFree":true,"operatingDays":"평일+토요일+공휴일","weekdayOpen":"00:00","weekdayClose":"23:59","weekendOpen":"00:00","weekendClose":"23:59","holidayOpen":"00:00","holidayClose":"23:59","feeInfo":"무료","phone":"032-899-2583","updatedAt":"2025-07-16","sido":"인천광역시","sigungu":"옹진군","dong":"백령면"},{"name":"서포리 해변 주차장","type":"공영","category":"노외","address":"인천광역시 옹진군 덕적면 서포리 136","lat":37.22237148,"lng":126.117697,"totalSpaces":80,"isFree":true,"operatingDays":"평일+토요일+공휴일","weekdayOpen":"00:00","weekdayClose":"23:59","weekendOpen":"00:00","weekendClose":"23:59","holidayOpen":"00:00","holidayClose":"23:59","feeInfo":"무료","phone":"032-899-2583","updatedAt":"2025-07-16","sido":"인천광역시","sigungu":"옹진군","dong":"덕적면"},{"name":"종합운동장 주차장","type":"공영","category":"노외","address":"인천광역시 옹진군 영흥면 내리 산416","lat":37.26503771,"lng":126.4465617,"totalSpaces":80,"isFree":true,"operatingDays":"평일+토요일+공휴일","weekdayOpen":"00:00","weekdayClose":"23:59","weekendOpen":"00:00","weekendClose":"23:59","holidayOpen":"00:00","holidayClose":"23:59","feeInfo":"무료","phone":"032-899-2583","updatedAt":"2025-07-16","sido":"인천광역시","sigungu":"옹진군","dong":"영흥면"},{"name":"밧지름주차장","type":"공영","category":"노외","address":"인천광역시 옹진군 덕적면 진리 568-1","lat":37.21493446,"lng":126.1394484,"totalSpaces":74,"isFree":true,"operatingDays":"평일+토요일+공휴일","weekdayOpen":"00:00","weekdayClose":"23:59","weekendOpen":"00:00","weekendClose":"23:59","holidayOpen":"00:00","holidayClose":"23:59","feeInfo":"무료","phone":"032-899-2583","updatedAt":"2025-07-16","sido":"인천광역시","sigungu":"옹진군","dong":"덕적면"},{"name":"외1리공영주차장","type":"공영","category":"노외","address":"인천광역시 옹진군 영흥면 영흥남로247번길77","lat":37.237823,"lng":126.4576924,"totalSpaces":70,"isFree":true,"operatingDays":"평일+토요일+공휴일","weekdayOpen":"00:00","weekdayClose":"23:59","weekendOpen":"00:00","weekendClose":"23:59","holidayOpen":"00:00","holidayClose":"23:59","feeInfo":"무료","phone":"032-899-2583","updatedAt":"2025-07-16","sido":"인천광역시","sigungu":"옹진군","dong":"영흥면"},{"name":"사곶해변 주차장","type":"공영","category":"노외","address":"인천광역시 옹진군 백령면 진촌리 산40-39","lat":37.95163121,"lng":124.7214044,"totalSpaces":62,"isFree":true,"operatingDays":"평일+토요일+공휴일","weekdayOpen":"00:00","weekdayClose":"23:59","weekendOpen":"00:00","weekendClose":"23:59","holidayOpen":"00:00","holidayClose":"23:59","feeInfo":"무료","phone":"032-899-2583","updatedAt":"2025-07-16","sido":"인천광역시","sigungu":"옹진군","dong":"백령면"},{"name":"백령공영주차장","type":"공영","category":"노외","address":"인천광역시 옹진군 백령면 백령로 285","lat":37.97139999,"lng":124.7170132,"totalSpaces":60,"isFree":true,"operatingDays":"평일+토요일+공휴일","weekdayOpen":"00:00","weekdayClose":"23:59","weekendOpen":"00:00","weekendClose":"23:59","holidayOpen":"00:00","holidayClose":"23:59","feeInfo":"무료","phone":"032-899-2583","updatedAt":"2025-07-16","sido":"인천광역시","sigungu":"옹진군","dong":"백령면"},{"name":"신도 선착장 주차장","type":"공영","category":"노외","address":"인천광역시 옹진군 북도면 신도로 5-1","lat":37.51467352,"lng":126.4385472,"totalSpaces":60,"isFree":true,"operatingDays":"평일+토요일+공휴일","weekdayOpen":"00:00","weekdayClose":"23:59","weekendOpen":"00:00","weekendClose":"23:59","holidayOpen":"00:00","holidayClose":"23:59","feeInfo":"무료","phone":"032-899-2583","updatedAt":"2025-07-16","sido":"인천광역시","sigungu":"옹진군","dong":"북도면"},{"name":"대청리 노상주차장","type":"공영","category":"노상","address":"인천광역시 옹진군 대청면 대청리 1437-1","lat":37.82528068,"lng":124.7177875,"totalSpaces":55,"isFree":true,"operatingDays":"평일+토요일+공휴일","weekdayOpen":"00:00","weekdayClose":"23:59","weekendOpen":"00:00","weekendClose":"23:59","holidayOpen":"00:00","holidayClose":"23:59","feeInfo":"무료","phone":"032-899-2583","updatedAt":"2025-07-16","sido":"인천광역시","sigungu":"옹진군","dong":"대청면"},{"name":"북포리 공영주차장","type":"공영","category":"노외","address":"인천광역시 옹진군 백령면 백령로 828","lat":37.95965383,"lng":124.6645798,"totalSpaces":55,"isFree":true,"operatingDays":"평일+토요일+공휴일","weekdayOpen":"00:00","weekdayClose":"23:59","weekendOpen":"00:00","weekendClose":"23:59","holidayOpen":"00:00","holidayClose":"23:59","feeInfo":"무료","phone":"032-899-2583","updatedAt":"2025-07-16","sido":"인천광역시","sigungu":"옹진군","dong":"백령면"},{"name":"영흥면사무소 주차장","type":"공영","category":"노외","address":"인천광역시 옹진군 영흥면 영흥로251번길 90(영흥면사무소)","lat":37.25609956,"lng":126.4833427,"totalSpaces":48,"isFree":true,"operatingDays":"평일+토요일+공휴일","weekdayOpen":"00:00","weekdayClose":"23:59","weekendOpen":"00:00","weekendClose":"23:59","holidayOpen":"00:00","holidayClose":"23:59","feeInfo":"무료","phone":"032-899-2583","updatedAt":"2025-07-16","sido":"인천광역시","sigungu":"옹진군","dong":"영흥면"},{"name":"내5리공영주차장","type":"공영","category":"노외","address":"인천광역시 옹진군 영흥면 영흥북로 55-17","lat":37.25817425,"lng":126.5003198,"totalSpaces":47,"isFree":true,"operatingDays":"평일+토요일+공휴일","weekdayOpen":"00:00","weekdayClose":"23:59","weekendOpen":"00:00","weekendClose":"23:59","holidayOpen":"00:00","holidayClose":"23:59","feeInfo":"무료","phone":"032-899-2583","updatedAt":"2025-07-16","sido":"인천광역시","sigungu":"옹진군","dong":"영흥면"},{"name":"두무진 주차장","type":"공영","category":"노외","address":"인천광역시 옹진군 백령면 두무진로 550","lat":37.97380699,"lng":124.6196413,"totalSpaces":40,"isFree":true,"operatingDays":"평일+토요일+공휴일","weekdayOpen":"00:00","weekdayClose":"23:59","weekendOpen":"00:00","weekendClose":"23:59","holidayOpen":"00:00","holidayClose":"23:59","feeInfo":"무료","phone":"032-899-2583","updatedAt":"2025-07-16","sido":"인천광역시","sigungu":"옹진군","dong":"백령면"},{"name":"달바위 선착장 주차장","type":"공영","category":"노외","address":"인천광역시 옹진군 자월면 자월리 306-9","lat":37.2447676,"lng":126.3177428,"totalSpaces":39,"isFree":true,"operatingDays":"평일+토요일+공휴일","weekdayOpen":"00:00","weekdayClose":"23:59","weekendOpen":"00:00","weekendClose":"23:59","holidayOpen":"00:00","holidayClose":"23:59","feeInfo":"무료","phone":"032-899-2583","updatedAt":"2025-07-16","sido":"인천광역시","sigungu":"옹진군","dong":"자월면"},{"name":"능동자갈마당 주차장","type":"공영","category":"노외","address":"인천광역시 옹진군 덕적면 덕적북로 725","lat":37.26392157,"lng":126.1026927,"totalSpaces":37,"isFree":true,"operatingDays":"평일+토요일+공휴일","weekdayOpen":"00:00","weekdayClose":"23:59","weekendOpen":"00:00","weekendClose":"23:59","holidayOpen":"00:00","holidayClose":"23:59","feeInfo":"무료","phone":"032-899-2583","updatedAt":"2025-07-16","sido":"인천광역시","sigungu":"옹진군","dong":"덕적면"},{"name":"바다역 주차장","type":"공영","category":"노외","address":"인천광역시 옹진군 덕적면 덕적북로 31-17","lat":37.22689175,"lng":126.1543771,"totalSpaces":34,"isFree":true,"operatingDays":"평일+토요일+공휴일","weekdayOpen":"00:00","weekdayClose":"23:59","weekendOpen":"00:00","weekendClose":"23:59","holidayOpen":"00:00","holidayClose":"23:59","feeInfo":"무료","phone":"032-899-2583","updatedAt":"2025-07-16","sido":"인천광역시","sigungu":"옹진군","dong":"덕적면"},{"name":"소야도 떼뿌루 해변 주차장","type":"공영","category":"노외","address":"인천광역시 옹진군 덕적면 소야리 산219","lat":37.21256403,"lng":126.1758186,"totalSpaces":34,"isFree":true,"operatingDays":"평일+토요일+공휴일","weekdayOpen":"00:00","weekdayClose":"23:59","weekendOpen":"00:00","weekendClose":"23:59","holidayOpen":"00:00","holidayClose":"23:59","feeInfo":"무료","phone":"032-899-2583","updatedAt":"2025-07-16","sido":"인천광역시","sigungu":"옹진군","dong":"덕적면"},{"name":"구리동 해변 주차장","type":"공영","category":"노외","address":"인천광역시 옹진군 연평면 연평로344번길 181","lat":37.67962253,"lng":125.7138576,"totalSpaces":34,"isFree":true,"operatingDays":"평일+토요일+공휴일","weekdayOpen":"00:00","weekdayClose":"23:59","weekendOpen":"00:00","weekendClose":"23:59","holidayOpen":"00:00","holidayClose":"23:59","feeInfo":"무료","phone":"032-899-2583","updatedAt":"2025-07-16","sido":"인천광역시","sigungu":"옹진군","dong":"연평면"},{"name":"이작1리 선착장 주차장","type":"공영","category":"노외","address":"인천광역시 옹진군 자월면 이작리 760-5","lat":37.1780449,"lng":126.2473986,"totalSpaces":32,"isFree":true,"operatingDays":"평일+토요일+공휴일","weekdayOpen":"00:00","weekdayClose":"23:59","weekendOpen":"00:00","weekendClose":"23:59","holidayOpen":"00:00","holidayClose":"23:59","feeInfo":"무료","phone":"032-899-2583","updatedAt":"2025-07-16","sido":"인천광역시","sigungu":"옹진군","dong":"자월면"},{"name":"작은풀안 해변 주차장","type":"공영","category":"노외","address":"인천광역시 옹진군 자월면 이작리 산241-5","lat":37.17141194,"lng":126.258568,"totalSpaces":30,"isFree":true,"operatingDays":"평일+토요일+공휴일","weekdayOpen":"00:00","weekdayClose":"23:59","weekendOpen":"00:00","weekendClose":"23:59","holidayOpen":"00:00","holidayClose":"23:59","feeInfo":"무료","phone":"032-899-2583","updatedAt":"2025-07-16","sido":"인천광역시","sigungu":"옹진군","dong":"자월면"},{"name":"심청각 주차장","type":"공영","category":"노외","address":"인천광역시 옹진군 백령면 진촌리 산142-16","lat":37.97709554,"lng":124.717405,"totalSpaces":30,"isFree":true,"operatingDays":"평일+토요일+공휴일","weekdayOpen":"00:00","weekdayClose":"23:59","weekendOpen":"00:00","weekendClose":"23:59","holidayOpen":"00:00","holidayClose":"23:59","feeInfo":"무료","phone":"032-899-2583","updatedAt":"2025-07-16","sido":"인천광역시","sigungu":"옹진군","dong":"백령면"},{"name":"이작1리 큰풀안 주차장","type":"공영","category":"노외","address":"인천광역시 옹진군 자월면 대이작로160번길 160","lat":37.16986457,"lng":126.262931,"totalSpaces":25,"isFree":true,"operatingDays":"평일+토요일+공휴일","weekdayOpen":"00:00","weekdayClose":"23:59","weekendOpen":"00:00","weekendClose":"23:59","holidayOpen":"00:00","holidayClose":"23:59","feeInfo":"무료","phone":"032-899-2583","updatedAt":"2025-07-16","sido":"인천광역시","sigungu":"옹진군","dong":"자월면"},{"name":"지두리 해변 제2주차장","type":"공영","category":"노외","address":"인천광역시 옹진군 대청면 대청리 산 269-1","lat":37.82174488,"lng":124.683203,"totalSpaces":24,"isFree":true,"operatingDays":"평일+토요일+공휴일","weekdayOpen":"00:00","weekdayClose":"23:59","weekendOpen":"00:00","weekendClose":"23:59","holidayOpen":"00:00","holidayClose":"23:59","feeInfo":"무료","phone":"032-899-2583","updatedAt":"2025-07-16","sido":"인천광역시","sigungu":"옹진군","dong":"대청면"},{"name":"등대공원 주차장","type":"공영","category":"노외","address":"인천광역시 옹진군 연평면 연평리 산10-111","lat":37.67710332,"lng":125.6851891,"totalSpaces":22,"isFree":true,"operatingDays":"평일+토요일+공휴일","weekdayOpen":"00:00","weekdayClose":"23:59","weekendOpen":"00:00","weekendClose":"23:59","holidayOpen":"00:00","holidayClose":"23:59","feeInfo":"무료","phone":"032-899-2583","updatedAt":"2025-07-16","sido":"인천광역시","sigungu":"옹진군","dong":"연평면"},{"name":"자월면사무소 주차장","type":"공영","category":"노외","address":"인천광역시 옹진군 자월면 자월서로 164","lat":37.25406432,"lng":126.3071493,"totalSpaces":20,"isFree":true,"operatingDays":"평일+토요일+공휴일","weekdayOpen":"00:00","weekdayClose":"23:59","weekendOpen":"00:00","weekendClose":"23:59","holidayOpen":"00:00","holidayClose":"23:59","feeInfo":"무료","phone":"032-899-2583","updatedAt":"2025-07-16","sido":"인천광역시","sigungu":"옹진군","dong":"자월면"},{"name":"용트림 바위 주차장","type":"공영","category":"노외","address":"인천광역시 옹진군 백령면 남포리 산283-6","lat":37.9208089,"lng":124.6747951,"totalSpaces":20,"isFree":true,"operatingDays":"평일+토요일+공휴일","weekdayOpen":"00:00","weekdayClose":"23:59","weekendOpen":"00:00","weekendClose":"23:59","holidayOpen":"00:00","holidayClose":"23:59","feeInfo":"무료","phone":"032-899-2583","updatedAt":"2025-07-16","sido":"인천광역시","sigungu":"옹진군","dong":"백령면"},{"name":"지두리 해변 제1주차장","type":"공영","category":"노외","address":"인천광역시 옹진군 대청면 대청리 산 269-1","lat":37.82174488,"lng":124.683203,"totalSpaces":20,"isFree":true,"operatingDays":"평일+토요일+공휴일","weekdayOpen":"00:00","weekdayClose":"23:59","weekendOpen":"00:00","weekendClose":"23:59","holidayOpen":"00:00","holidayClose":"23:59","feeInfo":"무료","phone":"032-899-2583","updatedAt":"2025-07-16","sido":"인천광역시","sigungu":"옹진군","dong":"대청면"},{"name":"옹암 해변 주차장","type":"공영","category":"노외","address":"인천광역시 옹진군 북도면 장봉리 59-13","lat":37.5299513,"lng":126.3726811,"totalSpaces":20,"isFree":true,"operatingDays":"평일+토요일+공휴일","weekdayOpen":"00:00","weekdayClose":"23:59","weekendOpen":"00:00","weekendClose":"23:59","holidayOpen":"00:00","holidayClose":"23:59","feeInfo":"무료","phone":"032-899-2583","updatedAt":"2025-07-16","sido":"인천광역시","sigungu":"옹진군","dong":"북도면"},{"name":"승봉리 선착장 주차장","type":"공영","category":"노외","address":"인천광역시 옹진군 자월면 승봉리 824-18","lat":37.17004585,"lng":126.2918003,"totalSpaces":15,"isFree":true,"operatingDays":"평일+토요일+공휴일","weekdayOpen":"00:00","weekdayClose":"23:59","weekendOpen":"00:00","weekendClose":"23:59","holidayOpen":"00:00","holidayClose":"23:59","feeInfo":"무료","phone":"032-899-2583","updatedAt":"2025-07-16","sido":"인천광역시","sigungu":"옹진군","dong":"자월면"},{"name":"콩돌해안 주차장","type":"공영","category":"노외","address":"인천광역시 옹진군 백령면 남포리 200-1","lat":37.92690978,"lng":124.701788,"totalSpaces":15,"isFree":true,"operatingDays":"평일+토요일+공휴일","weekdayOpen":"00:00","weekdayClose":"23:59","weekendOpen":"00:00","weekendClose":"23:59","holidayOpen":"00:00","holidayClose":"23:59","feeInfo":"무료","phone":"032-899-2583","updatedAt":"2025-07-16","sido":"인천광역시","sigungu":"옹진군","dong":"백령면"},{"name":"이작2리 선착장 주차장","type":"공영","category":"노외","address":"인천광역시 옹진군 자월면 이작리 44-7","lat":37.1816345,"lng":126.2424839,"totalSpaces":13,"isFree":true,"operatingDays":"평일+토요일+공휴일","weekdayOpen":"00:00","weekdayClose":"23:59","weekendOpen":"00:00","weekendClose":"23:59","holidayOpen":"00:00","holidayClose":"23:59","feeInfo":"무료","phone":"032-899-2583","updatedAt":"2025-07-16","sido":"인천광역시","sigungu":"옹진군","dong":"자월면"},{"name":"장골 해변 주차장","type":"공영","category":"노외","address":"인천광역시 옹진군 자월면 자월리 1089-1","lat":37.24987912,"lng":126.3133174,"totalSpaces":10,"isFree":true,"operatingDays":"평일+토요일+공휴일","weekdayOpen":"00:00","weekdayClose":"23:59","weekendOpen":"00:00","weekendClose":"23:59","holidayOpen":"00:00","holidayClose":"23:59","feeInfo":"무료","phone":"032-899-2583","updatedAt":"2025-07-16","sido":"인천광역시","sigungu":"옹진군","dong":"자월면"},{"name":"공설묘지 주차장","type":"공영","category":"노외","address":"인천광역시 옹진군 자월면 자월리 산308","lat":37.2694483,"lng":126.2858168,"totalSpaces":10,"isFree":true,"operatingDays":"평일+토요일+공휴일","weekdayOpen":"00:00","weekdayClose":"23:59","weekendOpen":"00:00","weekendClose":"23:59","holidayOpen":"00:00","holidayClose":"23:59","feeInfo":"무료","phone":"032-899-2583","updatedAt":"2025-07-16","sido":"인천광역시","sigungu":"옹진군","dong":"자월면"},{"name":"장봉 선착장 주차장","type":"공영","category":"노외","address":"인천광역시 옹진군 북도면 장봉로 75","lat":37.53103758,"lng":126.3847081,"totalSpaces":10,"isFree":true,"operatingDays":"평일+토요일+공휴일","weekdayOpen":"00:00","weekdayClose":"23:59","weekendOpen":"00:00","weekendClose":"23:59","holidayOpen":"00:00","holidayClose":"23:59","feeInfo":"무료","phone":"032-899-2583","updatedAt":"2025-07-16","sido":"인천광역시","sigungu":"옹진군","dong":"북도면"},{"name":"테니스장 주차장","type":"공영","category":"노외","address":"인천광역시 옹진군 연평면 연평리 325-169","lat":37.66058334,"lng":125.7052585,"totalSpaces":8,"isFree":true,"operatingDays":"평일+토요일+공휴일","weekdayOpen":"00:00","weekdayClose":"23:59","weekendOpen":"00:00","weekendClose":"23:59","holidayOpen":"00:00","holidayClose":"23:59","feeInfo":"무료","phone":"032-899-2583","updatedAt":"2025-07-16","sido":"인천광역시","sigungu":"옹진군","dong":"연평면"},{"name":"가래칠기 해변 주차장","type":"공영","category":"노외","address":"인천광역시 옹진군 연평면 연평리 산3-59","lat":37.6789466,"lng":125.685415,"totalSpaces":7,"isFree":true,"operatingDays":"평일+토요일+공휴일","weekdayOpen":"00:00","weekdayClose":"23:59","weekendOpen":"00:00","weekendClose":"23:59","holidayOpen":"00:00","holidayClose":"23:59","feeInfo":"무료","phone":"032-899-2583","updatedAt":"2025-07-16","sido":"인천광역시","sigungu":"옹진군","dong":"연평면"},{"name":"망향공원 주차장","type":"공영","category":"노외","address":"인천광역시 옹진군 연평면 연평로 314-9","lat":37.67206224,"lng":125.7107778,"totalSpaces":7,"isFree":true,"operatingDays":"평일+토요일+공휴일","weekdayOpen":"00:00","weekdayClose":"23:59","weekendOpen":"00:00","weekendClose":"23:59","holidayOpen":"00:00","holidayClose":"23:59","feeInfo":"무료","phone":"032-899-2583","updatedAt":"2025-07-16","sido":"인천광역시","sigungu":"옹진군","dong":"연평면"},{"name":"이작1리 부아산 주차장","type":"공영","category":"노외","address":"인천광역시 옹진군 자월면 이작리 산217","lat":37.17795983,"lng":126.2608045,"totalSpaces":6,"isFree":true,"operatingDays":"평일+토요일+공휴일","weekdayOpen":"00:00","weekdayClose":"23:59","weekendOpen":"00:00","weekendClose":"23:59","holidayOpen":"00:00","holidayClose":"23:59","feeInfo":"무료","phone":"032-899-2583","updatedAt":"2025-07-16","sido":"인천광역시","sigungu":"옹진군","dong":"자월면"},{"name":"장경리주차장","type":"공영","category":"노외","address":"인천광역시 옹진군 영흥면 영흥로 741","lat":37.27252518,"lng":126.452428,"totalSpaces":304,"isFree":false,"operatingDays":"평일+토요일+공휴일","weekdayOpen":"00:00","weekdayClose":"23:59","weekendOpen":"00:00","weekendClose":"23:59","holidayOpen":"00:00","holidayClose":"23:59","feeInfo":"기본 30분 1,000원 / 추가 30분당 500원","phone":"032-899-2583","updatedAt":"2025-07-16","sido":"인천광역시","sigungu":"옹진군","dong":"영흥면"},{"name":"십리포A주차장","type":"공영","category":"노외","address":"인천광역시 옹진군 영흥면 영흥북로 382","lat":37.28146822,"lng":126.4864755,"totalSpaces":190,"isFree":false,"operatingDays":"평일+토요일+공휴일","weekdayOpen":"00:00","weekdayClose":"23:59","weekendOpen":"00:00","weekendClose":"23:59","holidayOpen":"00:00","holidayClose":"23:59","feeInfo":"기본 30분 1,000원 / 추가 30분당 500원","phone":"032-899-2583","updatedAt":"2025-07-16","sido":"인천광역시","sigungu":"옹진군","dong":"영흥면"},{"name":"십리포B주차장","type":"공영","category":"노외","address":"인천광역시 옹진군 영흥면 영흥북로 411","lat":37.2803552,"lng":126.4833123,"totalSpaces":160,"isFree":false,"operatingDays":"평일+토요일+공휴일","weekdayOpen":"00:00","weekdayClose":"23:59","weekendOpen":"00:00","weekendClose":"23:59","holidayOpen":"00:00","holidayClose":"23:59","feeInfo":"기본 30분 1,000원 / 추가 30분당 500원","phone":"032-899-2583","updatedAt":"2025-07-16","sido":"인천광역시","sigungu":"옹진군","dong":"영흥면"}]}