{"sido":"인천광역시","sigungu":"중구","totalCount":191,"validCount":191,"items":[{"name":"무의(광명항) 공영주차장","type":"공영","category":"노외","address":"인천광역시 중구 무의동 50-18","lat":37.37915292,"lng":126.4329017,"totalSpaces":180,"isFree":true,"operatingDays":"평일+토요일+공휴일","weekdayOpen":"00:00","weekdayClose":"23:59","weekendOpen":"00:00","weekendClose":"23:59","holidayOpen":"00:00","holidayClose":"23:59","feeInfo":"무료","phone":"032-760-7797","updatedAt":"2025-12-26","sido":"인천광역시","sigungu":"중구","dong":"무의동"},{"name":"월미도","type":"공영","category":"노외","address":"인천광역시 중구 반달로 20","lat":37.47601326,"lng":126.6017497,"totalSpaces":127,"isFree":true,"operatingDays":"평일+토요일+공휴일","weekdayOpen":"00:00","weekdayClose":"23:59","weekendOpen":"00:00","weekendClose":"23:59","holidayOpen":"00:00","holidayClose":"23:59","feeInfo":"무료","phone":"032-579-2701","updatedAt":"2025-06-26","sido":"인천광역시","sigungu":"중구","dong":"북성동1가"},{"name":"월 미 도","type":"공영","category":"노외","address":"인천광역시 중구 북성동1가 98-39","lat":37.47499567,"lng":126.6016875,"totalSpaces":127,"isFree":true,"operatingDays":"평일+토요일+공휴일","weekdayOpen":"00:01","weekdayClose":"12:00","weekendOpen":"00:01","weekendClose":"12:00","holidayOpen":"00:01","holidayClose":"12:00","feeInfo":"무료","phone":"032-579-2701","updatedAt":"2025-06-25","sido":"인천광역시","sigungu":"중구","dong":"북성동1가"},{"name":"월미로제4노상주차장","type":"공영","category":"노상","address":"인천광역시 중구 월미로 329(북성동1가)","lat":37.47033481,"lng":126.5974804,"totalSpaces":86,"isFree":true,"operatingDays":"평일+토요일+공휴일","weekdayOpen":"00:00","weekdayClose":"23:59","weekendOpen":"00:00","weekendClose":"23:59","holidayOpen":"00:00","holidayClose":"23:59","feeInfo":"무료","phone":"032-760-7689","updatedAt":"2025-12-26","sido":"인천광역시","sigungu":"중구","dong":"북성동1가"},{"name":"도원로제2노상주차장","type":"공영","category":"노상","address":"인천광역시 중구 도원로 63-1(유동)","lat":37.4700272,"lng":126.6388281,"totalSpaces":86,"isFree":true,"operatingDays":"평일+토요일+공휴일","weekdayOpen":"00:00","weekdayClose":"23:59","weekendOpen":"00:00","weekendClose":"23:59","holidayOpen":"00:00","holidayClose":"23:59","feeInfo":"무료","phone":"032-760-7689","updatedAt":"2025-12-26","sido":"인천광역시","sigungu":"중구","dong":"유동"},{"name":"연안부두로제1노상주차장","type":"공영","category":"노상","address":"인천광역시 중구 연안부두로148번길 10(항동7가)","lat":37.44713399,"lng":126.5963744,"totalSpaces":80,"isFree":true,"operatingDays":"평일+토요일+공휴일","weekdayOpen":"00:00","weekdayClose":"23:59","weekendOpen":"00:00","weekendClose":"23:59","holidayOpen":"00:00","holidayClose":"23:59","feeInfo":"무료","phone":"032-760-7689","updatedAt":"2025-12-26","sido":"인천광역시","sigungu":"중구","dong":"항동7가"},{"name":"월미로제2노상주차장","type":"공영","category":"노상","address":"인천광역시 중구 월미로 377-1(북성동1가)","lat":37.46788014,"lng":126.6053151,"totalSpaces":79,"isFree":true,"operatingDays":"평일+토요일+공휴일","weekdayOpen":"00:00","weekdayClose":"23:59","weekendOpen":"00:00","weekendClose":"23:59","holidayOpen":"00:00","holidayClose":"23:59","feeInfo":"무료","phone":"032-760-7689","updatedAt":"2025-12-26","sido":"인천광역시","sigungu":"중구","dong":"북성동1가"},{"name":"축항대로제1노상주차장","type":"공영","category":"노상","address":"인천광역시 중구 내항로 2-45(항동7가)","lat":37.45989456,"lng":126.6082508,"totalSpaces":78,"isFree":true,"operatingDays":"평일+토요일+공휴일","weekdayOpen":"00:00","weekdayClose":"23:59","weekendOpen":"00:00","weekendClose":"23:59","holidayOpen":"00:00","holidayClose":"23:59","feeInfo":"무료","phone":"032-760-7689","updatedAt":"2025-12-26","sido":"인천광역시","sigungu":"중구","dong":"항동7가"},{"name":"연안부두로제2노상주차장","type":"공영","category":"노상","address":"인천광역시 중구 연안부두로 119(항동7가)","lat":37.44936976,"lng":126.5978044,"totalSpaces":70,"isFree":true,"operatingDays":"평일+토요일+공휴일","weekdayOpen":"00:00","weekdayClose":"23:59","weekendOpen":"00:00","weekendClose":"23:59","holidayOpen":"00:00","holidayClose":"23:59","feeInfo":"무료","phone":"032-760-7689","updatedAt":"2025-12-26","sido":"인천광역시","sigungu":"중구","dong":"항동7가"},{"name":"월미도3공영주차장","type":"공영","category":"노외","address":"인천광역시 중구 북성동1가 98-154","lat":37.47525477,"lng":126.601345,"totalSpaces":61,"isFree":true,"operatingDays":"평일+토요일+공휴일","weekdayOpen":"00:00","weekdayClose":"23:59","weekendOpen":"00:00","weekendClose":"23:59","holidayOpen":"00:00","holidayClose":"23:59","feeInfo":"무료","phone":"032-579-2701","updatedAt":"2025-12-26","sido":"인천광역시","sigungu":"중구","dong":"북성동1가"},{"name":"도원역공영주차장","type":"공영","category":"노외","address":"인천광역시 중구 도원동 5-7","lat":37.46700706,"lng":126.6415771,"totalSpaces":60,"isFree":true,"operatingDays":"평일+토요일+공휴일","weekdayOpen":"00:00","weekdayClose":"23:59","weekendOpen":"00:00","weekendClose":"23:59","holidayOpen":"00:00","holidayClose":"23:59","feeInfo":"무료","phone":"032-579-2701","updatedAt":"2025-12-26","sido":"인천광역시","sigungu":"중구","dong":"도원동"},{"name":"도원역","type":"공영","category":"노외","address":"인천광역시 중구 샛골로 51-1","lat":37.46735977,"lng":126.6416087,"totalSpaces":60,"isFree":true,"operatingDays":"평일+토요일+공휴일","weekdayOpen":"00:00","weekdayClose":"23:59","weekendOpen":"00:00","weekendClose":"23:59","holidayOpen":"00:00","holidayClose":"23:59","feeInfo":"무료","phone":"032-579-2701","updatedAt":"2025-06-26","sido":"인천광역시","sigungu":"중구","dong":"도원동"},{"name":"도 원 역","type":"공영","category":"노외","address":"인천광역시 중구 도원동 5-7","lat":37.46703827,"lng":126.6415384,"totalSpaces":60,"isFree":true,"operatingDays":"평일+토요일+공휴일","weekdayOpen":"00:01","weekdayClose":"12:00","weekendOpen":"00:01","weekendClose":"12:00","holidayOpen":"00:01","holidayClose":"12:00","feeInfo":"무료","phone":"032-579-2701","updatedAt":"2025-06-25","sido":"인천광역시","sigungu":"중구","dong":"도원동"},{"name":"연안부두로128번길노상주차장","type":"공영","category":"노상","address":"인천광역시 중구 연안부두로128번길 35(항동7가)","lat":37.44904199,"lng":126.5936473,"totalSpaces":59,"isFree":true,"operatingDays":"평일+토요일+공휴일","weekdayOpen":"00:00","weekdayClose":"23:59","weekendOpen":"00:00","weekendClose":"23:59","holidayOpen":"00:00","holidayClose":"23:59","feeInfo":"무료","phone":"032-760-7689","updatedAt":"2025-12-26","sido":"인천광역시","sigungu":"중구","dong":"항동7가"},{"name":"눈돌마을","type":"공영","category":"노외","address":"인천광역시 중구 신도시남로 28","lat":37.49272936,"lng":126.4845079,"totalSpaces":57,"isFree":true,"operatingDays":"평일+토요일+공휴일","weekdayOpen":"00:01","weekdayClose":"12:00","weekendOpen":"00:01","weekendClose":"12:00","holidayOpen":"00:01","holidayClose":"12:00","feeInfo":"무료","phone":"032-579-2701","updatedAt":"2025-06-25","sido":"인천광역시","sigungu":"중구","dong":"운서동"},{"name":"축항대로제2노상주차장","type":"공영","category":"노상","address":"인천광역시 중구 축항대로 64(항동7가)","lat":37.45758397,"lng":126.6043972,"totalSpaces":50,"isFree":true,"operatingDays":"평일+토요일+공휴일","weekdayOpen":"00:00","weekdayClose":"23:59","weekendOpen":"00:00","weekendClose":"23:59","holidayOpen":"00:00","holidayClose":"23:59","feeInfo":"무료","phone":"032-760-7689","updatedAt":"2025-12-26","sido":"인천광역시","sigungu":"중구","dong":"항동7가"},{"name":"서해대로209번길제2노상주차장","type":"공영","category":"노상","address":"인천광역시 중구 서해대로209번길 2(항동7가)","lat":37.44800115,"lng":126.622109,"totalSpaces":49,"isFree":true,"operatingDays":"평일+토요일+공휴일","weekdayOpen":"00:00","weekdayClose":"23:59","weekendOpen":"00:00","weekendClose":"23:59","holidayOpen":"00:00","holidayClose":"23:59","feeInfo":"무료","phone":"032-760-7689","updatedAt":"2025-12-26","sido":"인천광역시","sigungu":"중구","dong":"항동7가"},{"name":"서해대로제3노상주차장","type":"공영","category":"노상","address":"인천광역시 중구 서해대로 168(신흥동3가)","lat":37.44307764,"lng":126.6231146,"totalSpaces":47,"isFree":true,"operatingDays":"평일+토요일+공휴일","weekdayOpen":"00:00","weekdayClose":"23:59","weekendOpen":"00:00","weekendClose":"23:59","holidayOpen":"00:00","holidayClose":"23:59","feeInfo":"무료","phone":"032-760-7689","updatedAt":"2025-12-26","sido":"인천광역시","sigungu":"중구","dong":"신흥동3가"},{"name":"서해대로제1노상주차장","type":"공영","category":"노상","address":"인천광역시 중구 서해대로 137-5(항동7가)","lat":37.44218438,"lng":126.61728,"totalSpaces":46,"isFree":true,"operatingDays":"평일+토요일+공휴일","weekdayOpen":"00:00","weekdayClose":"23:59","weekendOpen":"00:00","weekendClose":"23:59","holidayOpen":"00:00","holidayClose":"23:59","feeInfo":"무료","phone":"032-760-7689","updatedAt":"2025-12-26","sido":"인천광역시","sigungu":"중구","dong":"항동7가"},{"name":"서해대로30번길노상주차장","type":"공영","category":"노상","address":"인천광역시 중구 서해대로30번길 35(신흥동3가)","lat":37.43303678,"lng":126.6197392,"totalSpaces":46,"isFree":true,"operatingDays":"평일+토요일+공휴일","weekdayOpen":"00:00","weekdayClose":"23:59","weekendOpen":"00:00","weekendClose":"23:59","holidayOpen":"00:00","holidayClose":"23:59","feeInfo":"무료","phone":"032-760-7689","updatedAt":"2025-12-26","sido":"인천광역시","sigungu":"중구","dong":"신흥동3가"},{"name":"제물량로241번길노상주차장","type":"공영","category":"노상","address":"인천광역시 중구 제물량로241번길 16","lat":37.47366391,"lng":126.6171594,"totalSpaces":46,"isFree":true,"operatingDays":"평일+토요일+공휴일","weekdayOpen":"00:00","weekdayClose":"23:59","weekendOpen":"00:00","weekendClose":"23:59","holidayOpen":"00:00","holidayClose":"23:59","feeInfo":"무료","phone":"032-760-7689","updatedAt":"2025-12-26","sido":"인천광역시","sigungu":"중구","dong":"항동1가"},{"name":"서해대로제2노상주차장","type":"공영","category":"노상","address":"인천광역시 중구 서해대로209번길 2(항동7가)","lat":37.44800115,"lng":126.622109,"totalSpaces":45,"isFree":true,"operatingDays":"평일+토요일+공휴일","weekdayOpen":"00:00","weekdayClose":"23:59","weekendOpen":"00:00","weekendClose":"23:59","holidayOpen":"00:00","holidayClose":"23:59","feeInfo":"무료","phone":"032-760-7689","updatedAt":"2025-12-26","sido":"인천광역시","sigungu":"중구","dong":"항동7가"},{"name":"매소홀로노상주차장","type":"공영","category":"노상","address":"인천광역시 중구 도원로 3-9(신흥동3가)","lat":37.46509549,"lng":126.6360214,"totalSpaces":44,"isFree":true,"operatingDays":"평일+토요일+공휴일","weekdayOpen":"00:00","weekdayClose":"23:59","weekendOpen":"00:00","weekendClose":"23:59","holidayOpen":"00:00","holidayClose":"23:59","feeInfo":"무료","phone":"032-760-7689","updatedAt":"2025-12-26","sido":"인천광역시","sigungu":"중구","dong":"신흥동3가"},{"name":"도원로제1노상주차장","type":"공영","category":"노상","address":"인천광역시 중구 도원로 23(선화동)","lat":37.46660835,"lng":126.6369229,"totalSpaces":43,"isFree":true,"operatingDays":"평일+토요일+공휴일","weekdayOpen":"00:00","weekdayClose":"23:59","weekendOpen":"00:00","weekendClose":"23:59","holidayOpen":"00:00","holidayClose":"23:59","feeInfo":"무료","phone":"032-760-7689","updatedAt":"2025-12-26","sido":"인천광역시","sigungu":"중구","dong":"선화동"},{"name":"축항대로86번길노상주차장","type":"공영","category":"노상","address":"인천광역시 중구 축항대로86번길 69(항동7가)","lat":37.4504837,"lng":126.6043008,"totalSpaces":43,"isFree":true,"operatingDays":"평일+토요일+공휴일","weekdayOpen":"00:00","weekdayClose":"23:59","weekendOpen":"00:00","weekendClose":"23:59","holidayOpen":"00:00","holidayClose":"23:59","feeInfo":"무료","phone":"032-760-7689","updatedAt":"2025-12-26","sido":"인천광역시","sigungu":"중구","dong":"항동7가"},{"name":"월미도2공영주차장","type":"공영","category":"노외","address":"인천광역시 중구 북성동1가 98-139","lat":37.47541558,"lng":126.6016908,"totalSpaces":39,"isFree":true,"operatingDays":"평일+토요일+공휴일","weekdayOpen":"00:00","weekdayClose":"23:59","weekendOpen":"00:00","weekendClose":"23:59","holidayOpen":"00:00","holidayClose":"23:59","feeInfo":"무료","phone":"032-579-2701","updatedAt":"2025-12-26","sido":"인천광역시","sigungu":"중구","dong":"북성동1가"},{"name":"참외전로59번길노상주차장","type":"공영","category":"노상","address":"인천광역시 중구 참외전로59번길 106(송월동1가)","lat":37.48069717,"lng":126.6210761,"totalSpaces":38,"isFree":true,"operatingDays":"평일+토요일+공휴일","weekdayOpen":"00:00","weekdayClose":"23:59","weekendOpen":"00:00","weekendClose":"23:59","holidayOpen":"00:00","holidayClose":"23:59","feeInfo":"무료","phone":"032-760-7689","updatedAt":"2025-12-26","sido":"인천광역시","sigungu":"중구","dong":"송월동1가"},{"name":"구양조장공영주차장","type":"공영","category":"노외","address":"인천광역시 중구 선화동 8-1","lat":37.4655811,"lng":126.6380357,"totalSpaces":37,"isFree":true,"operatingDays":"평일+토요일+공휴일","weekdayOpen":"00:00","weekdayClose":"23:59","weekendOpen":"00:00","weekendClose":"23:59","holidayOpen":"00:00","holidayClose":"23:59","feeInfo":"무료","phone":"032-760-7689","updatedAt":"2025-12-26","sido":"인천광역시","sigungu":"중구","dong":"선화동"},{"name":"참외전로59번길노상주차장","type":"공영","category":"노상","address":"인천광역시 중구 제물량로 307(북성동2가)","lat":37.47877173,"lng":126.6185579,"totalSpaces":36,"isFree":true,"operatingDays":"평일+토요일+공휴일","weekdayOpen":"00:00","weekdayClose":"23:59","weekendOpen":"00:00","weekendClose":"23:59","holidayOpen":"00:00","holidayClose":"23:59","feeInfo":"무료","phone":"032-760-7689","updatedAt":"2025-12-26","sido":"인천광역시","sigungu":"중구","dong":"북성동2가"},{"name":"자유공원서로제2노상주차장","type":"공영","category":"노상","address":"인천광역시 중구 송학동1가 1-1","lat":37.4745162,"lng":126.6232948,"totalSpaces":35,"isFree":true,"operatingDays":"평일+토요일+공휴일","weekdayOpen":"00:00","weekdayClose":"23:59","weekendOpen":"00:00","weekendClose":"23:59","holidayOpen":"00:00","holidayClose":"23:59","feeInfo":"무료","phone":"032-760-7689","updatedAt":"2025-12-26","sido":"인천광역시","sigungu":"중구","dong":"송학동1가"},{"name":"자유공원공영주차장","type":"공영","category":"노외","address":"인천광역시 중구 자유공원남로 35","lat":37.47420666,"lng":126.6234332,"totalSpaces":35,"isFree":true,"operatingDays":"평일+토요일+공휴일","weekdayOpen":"00:00","weekdayClose":"23:59","weekendOpen":"00:00","weekendClose":"23:59","holidayOpen":"00:00","holidayClose":"23:59","feeInfo":"무료","phone":"032-760-7689","updatedAt":"2025-12-26","sido":"인천광역시","sigungu":"중구","dong":"송학동1가"},{"name":"축항대로290번길노상주차장","type":"공영","category":"노상","address":"인천광역시 중구 서해대로30번길 35(신흥동3가)","lat":37.43303678,"lng":126.6197392,"totalSpaces":34,"isFree":true,"operatingDays":"평일+토요일+공휴일","weekdayOpen":"00:00","weekdayClose":"23:59","weekendOpen":"00:00","weekendClose":"23:59","holidayOpen":"00:00","holidayClose":"23:59","feeInfo":"무료","phone":"032-760-7689","updatedAt":"2025-12-26","sido":"인천광역시","sigungu":"중구","dong":"신흥동3가"},{"name":"연안부두로75번길노상주차장","type":"공영","category":"노상","address":"인천광역시 중구 연안부두로75번길 4(항동7가)","lat":37.45267739,"lng":126.5986095,"totalSpaces":32,"isFree":true,"operatingDays":"평일+토요일+공휴일","weekdayOpen":"00:00","weekdayClose":"23:59","weekendOpen":"00:00","weekendClose":"23:59","holidayOpen":"00:00","holidayClose":"23:59","feeInfo":"무료","phone":"032-760-7689","updatedAt":"2025-12-26","sido":"인천광역시","sigungu":"중구","dong":"항동7가"},{"name":"홍예문인근공영주차장","type":"공영","category":"노외","address":"인천광역시 중구 송학동3가 3-1","lat":37.473838,"lng":126.625719,"totalSpaces":32,"isFree":true,"operatingDays":"평일+토요일+공휴일","weekdayOpen":"00:00","weekdayClose":"23:59","weekendOpen":"00:00","weekendClose":"23:59","holidayOpen":"00:00","holidayClose":"23:59","feeInfo":"무료","phone":"032-760-7689","updatedAt":"2025-12-26","sido":"인천광역시","sigungu":"중구","dong":"송학동3가"},{"name":"송월시장임시공영주차장","type":"공영","category":"노외","address":"인천광역시 중구 제물량로 307-1(송월동2가)","lat":37.47902422,"lng":126.6186244,"totalSpaces":30,"isFree":true,"operatingDays":"평일+토요일+공휴일","weekdayOpen":"00:00","weekdayClose":"23:59","weekendOpen":"00:00","weekendClose":"23:59","holidayOpen":"00:00","holidayClose":"23:59","feeInfo":"무료","phone":"032-760-7689","updatedAt":"2025-12-26","sido":"인천광역시","sigungu":"중구","dong":"송월동2가"},{"name":"백 령 골","type":"공영","category":"노외","address":"인천광역시 중구 운서동 2680-1","lat":37.50109994,"lng":126.489331,"totalSpaces":29,"isFree":true,"operatingDays":"평일+토요일+공휴일","weekdayOpen":"00:01","weekdayClose":"12:00","weekendOpen":"00:01","weekendClose":"12:00","holidayOpen":"00:01","holidayClose":"12:00","feeInfo":"무료","phone":"032-579-2701","updatedAt":"2025-06-25","sido":"인천광역시","sigungu":"중구","dong":"운서동"},{"name":"서해대로209번길제1노상주차장","type":"공영","category":"노상","address":"인천광역시 중구 서해대로209번길 2(항동7가)","lat":37.44800115,"lng":126.622109,"totalSpaces":28,"isFree":true,"operatingDays":"평일+토요일+공휴일","weekdayOpen":"00:00","weekdayClose":"23:59","weekendOpen":"00:00","weekendClose":"23:59","holidayOpen":"00:00","holidayClose":"23:59","feeInfo":"무료","phone":"032-760-7689","updatedAt":"2025-12-26","sido":"인천광역시","sigungu":"중구","dong":"항동7가"},{"name":"율목로제2노상주차장","type":"공영","category":"노상","address":"인천광역시 중구 답동로30번길 10(율목동)","lat":37.47117766,"lng":126.6320715,"totalSpaces":28,"isFree":true,"operatingDays":"평일+토요일+공휴일","weekdayOpen":"00:00","weekdayClose":"23:59","weekendOpen":"00:00","weekendClose":"23:59","holidayOpen":"00:00","holidayClose":"23:59","feeInfo":"무료","phone":"032-760-7689","updatedAt":"2025-12-26","sido":"인천광역시","sigungu":"중구","dong":"율목동"},{"name":"참외전로59번길제2노상주차장","type":"공영","category":"노상","address":"인천광역시 중구 참외전로59번길 41(송월동1가)","lat":37.48040581,"lng":126.6246412,"totalSpaces":27,"isFree":true,"operatingDays":"평일+토요일+공휴일","weekdayOpen":"00:00","weekdayClose":"23:59","weekendOpen":"00:00","weekendClose":"23:59","holidayOpen":"00:00","holidayClose":"23:59","feeInfo":"무료","phone":"032-760-7689","updatedAt":"2025-12-26","sido":"인천광역시","sigungu":"중구","dong":"송월동1가"},{"name":"연안부두로148번길제2노상주차장","type":"공영","category":"노상","address":"인천광역시 중구 연안부두로148번길 10(항동7가)","lat":37.44713399,"lng":126.5963744,"totalSpaces":26,"isFree":true,"operatingDays":"평일+토요일+공휴일","weekdayOpen":"00:00","weekdayClose":"23:59","weekendOpen":"00:00","weekendClose":"23:59","holidayOpen":"00:00","holidayClose":"23:59","feeInfo":"무료","phone":"032-760-7689","updatedAt":"2025-12-26","sido":"인천광역시","sigungu":"중구","dong":"항동7가"},{"name":"신포로23번길제1노상주차장","type":"공영","category":"노상","address":"인천광역시 중구 신포로23번길 49(중앙동3가)","lat":37.47205911,"lng":126.6224446,"totalSpaces":26,"isFree":true,"operatingDays":"평일+토요일+공휴일","weekdayOpen":"00:00","weekdayClose":"23:59","weekendOpen":"00:00","weekendClose":"23:59","holidayOpen":"00:00","holidayClose":"23:59","feeInfo":"무료","phone":"032-760-7689","updatedAt":"2025-12-26","sido":"인천광역시","sigungu":"중구","dong":"중앙동3가"},{"name":"서해대로483번길노상주차장","type":"공영","category":"노상","address":"인천광역시 중구 서해대로483번길 74(경동)","lat":37.47216051,"lng":126.6340563,"totalSpaces":25,"isFree":true,"operatingDays":"평일+토요일+공휴일","weekdayOpen":"00:00","weekdayClose":"23:59","weekendOpen":"00:00","weekendClose":"23:59","holidayOpen":"00:00","holidayClose":"23:59","feeInfo":"무료","phone":"032-760-7689","updatedAt":"2025-12-26","sido":"인천광역시","sigungu":"중구","dong":"경동"},{"name":"기독병원뒤공영주차장","type":"공영","category":"노외","address":"인천광역시 중구 율목동 231-29","lat":37.4708464,"lng":126.6326953,"totalSpaces":25,"isFree":true,"operatingDays":"평일+토요일+공휴일","weekdayOpen":"00:00","weekdayClose":"23:59","weekendOpen":"00:00","weekendClose":"23:59","holidayOpen":"00:00","holidayClose":"23:59","feeInfo":"무료","phone":"032-760-7689","updatedAt":"2025-12-26","sido":"인천광역시","sigungu":"중구","dong":"율목동"},{"name":"개항로제2노상주차장","type":"공영","category":"노상","address":"인천광역시 중구 개항로 51(내동)","lat":37.47247394,"lng":126.6282441,"totalSpaces":24,"isFree":true,"operatingDays":"평일+토요일+공휴일","weekdayOpen":"00:00","weekdayClose":"23:59","weekendOpen":"00:00","weekendClose":"23:59","holidayOpen":"00:00","holidayClose":"23:59","feeInfo":"무료","phone":"032-760-7689","updatedAt":"2025-12-26","sido":"인천광역시","sigungu":"중구","dong":"내동"},{"name":"월미도1공영주차장","type":"공영","category":"노외","address":"인천광역시 중구 북성동1가 98-143","lat":37.4751514,"lng":126.601951,"totalSpaces":24,"isFree":true,"operatingDays":"평일+토요일+공휴일","weekdayOpen":"00:00","weekdayClose":"23:59","weekendOpen":"00:00","weekendClose":"23:59","holidayOpen":"00:00","holidayClose":"23:59","feeInfo":"무료","phone":"032-579-2701","updatedAt":"2025-12-26","sido":"인천광역시","sigungu":"중구","dong":"북성동1가"},{"name":"인중로144번길노상주차장","type":"공영","category":"노상","address":"인천광역시 중구 인중로144번길 9(신생동)","lat":37.46689738,"lng":126.6278829,"totalSpaces":23,"isFree":true,"operatingDays":"평일+토요일+공휴일","weekdayOpen":"00:00","weekdayClose":"23:59","weekendOpen":"00:00","weekendClose":"23:59","holidayOpen":"00:00","holidayClose":"23:59","feeInfo":"무료","phone":"032-760-7689","updatedAt":"2025-12-26","sido":"인천광역시","sigungu":"중구","dong":"신생동"},{"name":"연안부두로148번길노상주차장","type":"공영","category":"노상","address":"인천광역시 중구 연안부두로148번길 10(항동7가)","lat":37.44713399,"lng":126.5963744,"totalSpaces":23,"isFree":true,"operatingDays":"평일+토요일+공휴일","weekdayOpen":"00:00","weekdayClose":"23:59","weekendOpen":"00:00","weekendClose":"23:59","holidayOpen":"00:00","holidayClose":"23:59","feeInfo":"무료","phone":"032-760-7689","updatedAt":"2025-12-26","sido":"인천광역시","sigungu":"중구","dong":"항동7가"},{"name":"신포로23번길제2노상주차장","type":"공영","category":"노상","address":"인천광역시 중구 신포로23번길 52(중앙동3가)","lat":37.47248808,"lng":126.6224741,"totalSpaces":23,"isFree":true,"operatingDays":"평일+토요일+공휴일","weekdayOpen":"00:00","weekdayClose":"23:59","weekendOpen":"00:00","weekendClose":"23:59","holidayOpen":"00:00","holidayClose":"23:59","feeInfo":"무료","phone":"032-760-7689","updatedAt":"2025-12-26","sido":"인천광역시","sigungu":"중구","dong":"중앙동3가"},{"name":"월미로제3노상주차장","type":"공영","category":"노상","address":"인천광역시 중구 월미문화로 81(북성동1가)","lat":37.47147168,"lng":126.5962888,"totalSpaces":23,"isFree":true,"operatingDays":"평일+토요일+공휴일","weekdayOpen":"00:00","weekdayClose":"23:59","weekendOpen":"00:00","weekendClose":"23:59","holidayOpen":"00:00","holidayClose":"23:59","feeInfo":"무료","phone":"032-760-7689","updatedAt":"2025-12-26","sido":"인천광역시","sigungu":"중구","dong":"북성동1가"},{"name":"신포로15번길제2노상주차장","type":"공영","category":"노상","address":"인천광역시 중구 신포로23번길 52(중앙동3가)","lat":37.47248808,"lng":126.6224741,"totalSpaces":22,"isFree":true,"operatingDays":"평일+토요일+공휴일","weekdayOpen":"00:00","weekdayClose":"23:59","weekendOpen":"00:00","weekendClose":"23:59","holidayOpen":"00:00","holidayClose":"23:59","feeInfo":"무료","phone":"032-760-7689","updatedAt":"2025-12-26","sido":"인천광역시","sigungu":"중구","dong":"중앙동3가"},{"name":"보건환경연구원뒤공영주차장","type":"공영","category":"노외","address":"인천광역시 중구 서해대로463번길 30(신흥동2가)","lat":37.46836472,"lng":126.6338126,"totalSpaces":22,"isFree":true,"operatingDays":"평일+토요일+공휴일","weekdayOpen":"00:00","weekdayClose":"23:59","weekendOpen":"00:00","weekendClose":"23:59","holidayOpen":"00:00","holidayClose":"23:59","feeInfo":"무료","phone":"032-760-7689","updatedAt":"2025-12-26","sido":"인천광역시","sigungu":"중구","dong":"신흥동2가"},{"name":"개항로제1노상주차장","type":"공영","category":"노상","address":"인천광역시 중구 제물량로 190(해안동4가)","lat":37.47083943,"lng":126.6230974,"totalSpaces":21,"isFree":true,"operatingDays":"평일+토요일+공휴일","weekdayOpen":"00:00","weekdayClose":"23:59","weekendOpen":"00:00","weekendClose":"23:59","holidayOpen":"00:00","holidayClose":"23:59","feeInfo":"무료","phone":"032-760-7689","updatedAt":"2025-12-26","sido":"인천광역시","sigungu":"중구","dong":"해안동4가"},{"name":"율목동공영주차장","type":"공영","category":"노외","address":"인천광역시 중구 율목동 249-5","lat":37.46887503,"lng":126.6355274,"totalSpaces":21,"isFree":true,"operatingDays":"평일+토요일+공휴일","weekdayOpen":"00:00","weekdayClose":"23:59","weekendOpen":"00:00","weekendClose":"23:59","holidayOpen":"00:00","holidayClose":"23:59","feeInfo":"무료","phone":"032-760-7689","updatedAt":"2025-12-26","sido":"인천광역시","sigungu":"중구","dong":"율목동"},{"name":"월미로50번길제2노상주차장","type":"공영","category":"노상","address":"인천광역시 중구 북성동1가 4","lat":37.47855672,"lng":126.6156014,"totalSpaces":21,"isFree":true,"operatingDays":"평일+토요일+공휴일","weekdayOpen":"00:00","weekdayClose":"23:59","weekendOpen":"00:00","weekendClose":"23:59","holidayOpen":"00:00","holidayClose":"23:59","feeInfo":"무료","phone":"032-760-7689","updatedAt":"2025-12-26","sido":"인천광역시","sigungu":"중구","dong":"북성동1가"},{"name":"참외전로244번길제2노상주차장","type":"공영","category":"노상","address":"인천광역시 중구 참외전로244번길 14(도원동, 다인빌라)","lat":37.46868666,"lng":126.6400599,"totalSpaces":21,"isFree":true,"operatingDays":"평일+토요일+공휴일","weekdayOpen":"00:00","weekdayClose":"23:59","weekendOpen":"00:00","weekendClose":"23:59","holidayOpen":"00:00","holidayClose":"23:59","feeInfo":"무료","phone":"032-760-7689","updatedAt":"2025-12-26","sido":"인천광역시","sigungu":"중구","dong":"도원동"},{"name":"월미도4공영주차장","type":"공영","category":"노외","address":"인천광역시 중구 북성동1가 98-39","lat":37.4749436,"lng":126.6016875,"totalSpaces":20,"isFree":true,"operatingDays":"평일+토요일+공휴일","weekdayOpen":"00:00","weekdayClose":"23:59","weekendOpen":"00:00","weekendClose":"23:59","holidayOpen":"00:00","holidayClose":"23:59","feeInfo":"무료","phone":"032-579-2701","updatedAt":"2025-12-26","sido":"인천광역시","sigungu":"중구","dong":"북성동1가"},{"name":"백 령 길","type":"공영","category":"노외","address":"인천광역시 중구 운서동 2741-1","lat":37.496994,"lng":126.4902743,"totalSpaces":20,"isFree":true,"operatingDays":"평일+토요일+공휴일","weekdayOpen":"00:01","weekdayClose":"12:00","weekendOpen":"00:01","weekendClose":"12:00","holidayOpen":"00:01","holidayClose":"12:00","feeInfo":"무료","phone":"032-579-2701","updatedAt":"2025-06-25","sido":"인천광역시","sigungu":"중구","dong":"운서동"},{"name":"신포로15번길제1노상주차장","type":"공영","category":"노상","address":"인천광역시 중구 신포로15번길 77(해안동2가)","lat":37.47232356,"lng":126.6206165,"totalSpaces":19,"isFree":true,"operatingDays":"평일+토요일+공휴일","weekdayOpen":"00:00","weekdayClose":"23:59","weekendOpen":"00:00","weekendClose":"23:59","holidayOpen":"00:00","holidayClose":"23:59","feeInfo":"무료","phone":"032-760-7689","updatedAt":"2025-12-26","sido":"인천광역시","sigungu":"중구","dong":"해안동2가"},{"name":"신포로35번길제4노상주차장","type":"공영","category":"노상","address":"인천광역시 중구 신포로35번길 54(송학동2가, 동국빌리지)","lat":37.47329178,"lng":126.6236051,"totalSpaces":19,"isFree":true,"operatingDays":"평일+토요일+공휴일","weekdayOpen":"00:00","weekdayClose":"23:59","weekendOpen":"00:00","weekendClose":"23:59","holidayOpen":"00:00","holidayClose":"23:59","feeInfo":"무료","phone":"032-760-7689","updatedAt":"2025-12-26","sido":"인천광역시","sigungu":"중구","dong":"송학동2가"},{"name":"미산우드공영주차장","type":"공영","category":"노외","address":"인천광역시 중구 항동7가 58-161","lat":37.45058625,"lng":126.6004817,"totalSpaces":19,"isFree":true,"operatingDays":"평일+토요일+공휴일","weekdayOpen":"00:00","weekdayClose":"23:59","weekendOpen":"00:00","weekendClose":"23:59","holidayOpen":"00:00","holidayClose":"23:59","feeInfo":"무료","phone":"032-760-7689","updatedAt":"2025-12-26","sido":"인천광역시","sigungu":"중구","dong":"항동7가"},{"name":"초롱공원길","type":"공영","category":"노외","address":"인천광역시 중구 신도시북로88번길 11-3","lat":37.4995214,"lng":126.4892182,"totalSpaces":19,"isFree":true,"operatingDays":"평일+토요일+공휴일","weekdayOpen":"00:01","weekdayClose":"12:00","weekendOpen":"00:01","weekendClose":"12:00","holidayOpen":"00:01","holidayClose":"12:00","feeInfo":"무료","phone":"032-579-2701","updatedAt":"2025-06-25","sido":"인천광역시","sigungu":"중구","dong":"운서동"},{"name":"자유공원로노상주차장","type":"공영","category":"노상","address":"인천광역시 중구 자유공원로 12(인현동)","lat":37.47571123,"lng":126.6296707,"totalSpaces":18,"isFree":true,"operatingDays":"평일+토요일+공휴일","weekdayOpen":"00:00","weekdayClose":"23:59","weekendOpen":"00:00","weekendClose":"23:59","holidayOpen":"00:00","holidayClose":"23:59","feeInfo":"무료","phone":"032-760-7689","updatedAt":"2025-12-26","sido":"인천광역시","sigungu":"중구","dong":"인현동"},{"name":"제물량로제1노상주차장","type":"공영","category":"노상","address":"인천광역시 중구 제물량로 208(해안동2가)","lat":37.47173179,"lng":126.6215193,"totalSpaces":18,"isFree":true,"operatingDays":"평일+토요일+공휴일","weekdayOpen":"00:00","weekdayClose":"23:59","weekendOpen":"00:00","weekendClose":"23:59","holidayOpen":"00:00","holidayClose":"23:59","feeInfo":"무료","phone":"032-760-7689","updatedAt":"2025-12-26","sido":"인천광역시","sigungu":"중구","dong":"해안동2가"},{"name":"도산로21번길노상주차장","type":"공영","category":"노상","address":"인천광역시 중구 도산로21번길 8-21(도원동)","lat":37.46827128,"lng":126.6385788,"totalSpaces":18,"isFree":true,"operatingDays":"평일+토요일+공휴일","weekdayOpen":"00:00","weekdayClose":"23:59","weekendOpen":"00:00","weekendClose":"23:59","holidayOpen":"00:00","holidayClose":"23:59","feeInfo":"무료","phone":"032-760-7689","updatedAt":"2025-12-26","sido":"인천광역시","sigungu":"중구","dong":"도원동"},{"name":"율목로30번길노상주차장","type":"공영","category":"노상","address":"인천광역시 중구 율목로30번길 6(율목동)","lat":37.46933782,"lng":126.6338169,"totalSpaces":18,"isFree":true,"operatingDays":"평일+토요일+공휴일","weekdayOpen":"00:00","weekdayClose":"23:59","weekendOpen":"00:00","weekendClose":"23:59","holidayOpen":"00:00","holidayClose":"23:59","feeInfo":"무료","phone":"032-760-7689","updatedAt":"2025-12-26","sido":"인천광역시","sigungu":"중구","dong":"율목동"},{"name":"경동식당앞공영주차장","type":"공영","category":"노외","address":"인천광역시 중구 경동 155","lat":37.47283289,"lng":126.6323191,"totalSpaces":17,"isFree":true,"operatingDays":"평일+토요일+공휴일","weekdayOpen":"00:00","weekdayClose":"23:59","weekendOpen":"00:00","weekendClose":"23:59","holidayOpen":"00:00","holidayClose":"23:59","feeInfo":"무료","phone":"032-760-7689","updatedAt":"2025-12-26","sido":"인천광역시","sigungu":"중구","dong":"경동"},{"name":"서해대로제3노상주차장","type":"공영","category":"노상","address":"인천광역시 중구 서해대로 186(신흥동3가)","lat":37.44442351,"lng":126.6222218,"totalSpaces":17,"isFree":true,"operatingDays":"평일+토요일+공휴일","weekdayOpen":"00:00","weekdayClose":"23:59","weekendOpen":"00:00","weekendClose":"23:59","holidayOpen":"00:00","holidayClose":"23:59","feeInfo":"무료","phone":"032-760-7689","updatedAt":"2025-12-26","sido":"인천광역시","sigungu":"중구","dong":"신흥동3가"},{"name":"도원로26번길노상주차장","type":"공영","category":"노상","address":"인천광역시 중구 도원로26번길 33(도원동)","lat":37.46559035,"lng":126.6384956,"totalSpaces":16,"isFree":true,"operatingDays":"평일+토요일+공휴일","weekdayOpen":"00:00","weekdayClose":"23:59","weekendOpen":"00:00","weekendClose":"23:59","holidayOpen":"00:00","holidayClose":"23:59","feeInfo":"무료","phone":"032-760-7689","updatedAt":"2025-12-26","sido":"인천광역시","sigungu":"중구","dong":"도원동"},{"name":"월미도무료공영주차장","type":"공영","category":"노외","address":"인천광역시 중구 북성동1가 98-115","lat":37.4766206,"lng":126.6004132,"totalSpaces":16,"isFree":true,"operatingDays":"평일+토요일+공휴일","weekdayOpen":"00:00","weekdayClose":"23:59","weekendOpen":"00:00","weekendClose":"23:59","holidayOpen":"00:00","holidayClose":"23:59","feeInfo":"무료","phone":"032-760-7689","updatedAt":"2025-12-26","sido":"인천광역시","sigungu":"중구","dong":"북성동1가"},{"name":"라이언경로당앞공영주차장","type":"공영","category":"노외","address":"인천광역시 중구 월미로 48","lat":37.47809317,"lng":126.6149164,"totalSpaces":16,"isFree":true,"operatingDays":"평일+토요일+공휴일","weekdayOpen":"00:00","weekdayClose":"23:59","weekendOpen":"00:00","weekendClose":"23:59","holidayOpen":"00:00","holidayClose":"23:59","feeInfo":"무료","phone":"032-760-7689","updatedAt":"2025-12-26","sido":"인천광역시","sigungu":"중구","dong":"북성동1가"},{"name":"자유공원서로37번길제2노상주차장","type":"공영","category":"노상","address":"인천광역시 중구 차이나타운로 13(송월동3가)","lat":37.47798202,"lng":126.6195432,"totalSpaces":16,"isFree":true,"operatingDays":"평일+토요일+공휴일","weekdayOpen":"00:00","weekdayClose":"23:59","weekendOpen":"00:00","weekendClose":"23:59","holidayOpen":"00:00","holidayClose":"23:59","feeInfo":"무료","phone":"032-760-7689","updatedAt":"2025-12-26","sido":"인천광역시","sigungu":"중구","dong":"송월동3가"},{"name":"서해대로500번길노상주차장","type":"공영","category":"노상","address":"인천광역시 중구 서해대로500번길","lat":37.47032492,"lng":126.6371898,"totalSpaces":16,"isFree":true,"operatingDays":"평일+토요일+공휴일","weekdayOpen":"00:00","weekdayClose":"23:59","weekendOpen":"00:00","weekendClose":"23:59","holidayOpen":"00:00","holidayClose":"23:59","feeInfo":"무료","phone":"032-760-7689","updatedAt":"2025-12-26","sido":"인천광역시","sigungu":"중구","dong":"유동"},{"name":"축항대로86번길제2노상주차장","type":"공영","category":"노상","address":"인천광역시 중구 축항대로86번길 5(항동7가)","lat":37.45579478,"lng":126.6071599,"totalSpaces":15,"isFree":true,"operatingDays":"평일+토요일+공휴일","weekdayOpen":"00:00","weekdayClose":"23:59","weekendOpen":"00:00","weekendClose":"23:59","holidayOpen":"00:00","holidayClose":"23:59","feeInfo":"무료","phone":"032-760-7689","updatedAt":"2025-12-26","sido":"인천광역시","sigungu":"중구","dong":"항동7가"},{"name":"성공회아래공영주차장","type":"공영","category":"노외","address":"인천광역시 중구 내동 63","lat":37.47353416,"lng":126.6277612,"totalSpaces":15,"isFree":true,"operatingDays":"평일+토요일+공휴일","weekdayOpen":"00:00","weekdayClose":"23:59","weekendOpen":"00:00","weekendClose":"23:59","holidayOpen":"00:00","holidayClose":"23:59","feeInfo":"무료","phone":"032-760-7689","updatedAt":"2025-12-26","sido":"인천광역시","sigungu":"중구","dong":"내동"},{"name":"율목로8번길노상주차장","type":"공영","category":"노상","address":"인천광역시 중구 율목로8번길 13(율목동, 삼미그랜드빌라)","lat":37.46930778,"lng":126.6345902,"totalSpaces":15,"isFree":true,"operatingDays":"평일+토요일+공휴일","weekdayOpen":"00:00","weekdayClose":"23:59","weekendOpen":"00:00","weekendClose":"23:59","holidayOpen":"00:00","holidayClose":"23:59","feeInfo":"무료","phone":"032-760-7689","updatedAt":"2025-12-26","sido":"인천광역시","sigungu":"중구","dong":"율목동"},{"name":"참외전로244번길제1노상주차장","type":"공영","category":"노상","address":"인천광역시 중구 참외전로244번길 42(도원동, 영산빌라)","lat":37.46672574,"lng":126.6387717,"totalSpaces":14,"isFree":true,"operatingDays":"평일+토요일+공휴일","weekdayOpen":"00:00","weekdayClose":"23:59","weekendOpen":"00:00","weekendClose":"23:59","holidayOpen":"00:00","holidayClose":"23:59","feeInfo":"무료","phone":"032-760-7689","updatedAt":"2025-12-26","sido":"인천광역시","sigungu":"중구","dong":"도원동"},{"name":"신포로35번길노상주차장","type":"공영","category":"노상","address":"인천광역시 중구 신포로35번길 49","lat":37.47318976,"lng":126.6232574,"totalSpaces":14,"isFree":true,"operatingDays":"평일+토요일+공휴일","weekdayOpen":"00:00","weekdayClose":"23:59","weekendOpen":"00:00","weekendClose":"23:59","holidayOpen":"00:00","holidayClose":"23:59","feeInfo":"무료","phone":"032-760-7689","updatedAt":"2025-12-26","sido":"인천광역시","sigungu":"중구","dong":"관동2가"},{"name":"참외전로27번길노상주차장","type":"공영","category":"노상","address":"인천광역시 중구 참외전로 13(송월동1가, 송월아파트)","lat":37.48007965,"lng":126.6211755,"totalSpaces":14,"isFree":true,"operatingDays":"평일+토요일+공휴일","weekdayOpen":"00:00","weekdayClose":"23:59","weekendOpen":"00:00","weekendClose":"23:59","holidayOpen":"00:00","holidayClose":"23:59","feeInfo":"무료","phone":"032-760-7689","updatedAt":"2025-12-26","sido":"인천광역시","sigungu":"중구","dong":"송월동1가"},{"name":"인중로42번길노상주차장","type":"공영","category":"노상","address":"인천광역시 중구 인중로42번길 14(선화동)","lat":37.46474104,"lng":126.6391384,"totalSpaces":13,"isFree":true,"operatingDays":"평일+토요일+공휴일","weekdayOpen":"00:00","weekdayClose":"23:59","weekendOpen":"00:00","weekendClose":"23:59","holidayOpen":"00:00","holidayClose":"23:59","feeInfo":"무료","phone":"032-760-7689","updatedAt":"2025-12-26","sido":"인천광역시","sigungu":"중구","dong":"선화동"},{"name":"율목로제1노상주차장","type":"공영","category":"노상","address":"인천광역시 중구 율목로 22-1(율목동, 석진빌라)","lat":37.46909134,"lng":126.6333614,"totalSpaces":13,"isFree":true,"operatingDays":"평일+토요일+공휴일","weekdayOpen":"00:00","weekdayClose":"23:59","weekendOpen":"00:00","weekendClose":"23:59","holidayOpen":"00:00","holidayClose":"23:59","feeInfo":"무료","phone":"032-760-7689","updatedAt":"2025-12-26","sido":"인천광역시","sigungu":"중구","dong":"율목동"},{"name":"신포로35번길제2노상주차장","type":"공영","category":"노상","address":"인천광역시 중구 신포로35번길 88(송학동1가)","lat":37.47427289,"lng":126.6216015,"totalSpaces":13,"isFree":true,"operatingDays":"평일+토요일+공휴일","weekdayOpen":"00:00","weekdayClose":"23:59","weekendOpen":"00:00","weekendClose":"23:59","holidayOpen":"00:00","holidayClose":"23:59","feeInfo":"무료","phone":"032-760-7689","updatedAt":"2025-12-26","sido":"인천광역시","sigungu":"중구","dong":"송학동1가"},{"name":"공감마을 제2","type":"공영","category":"노외","address":"인천광역시 중구 신흥동2가 27-6","lat":37.46682825,"lng":126.632925,"totalSpaces":13,"isFree":true,"operatingDays":"평일+토요일+공휴일","weekdayOpen":"00:00","weekdayClose":"23:59","weekendOpen":"00:00","weekendClose":"23:59","holidayOpen":"00:00","holidayClose":"23:59","feeInfo":"무료","phone":"032-760-7689","updatedAt":"2025-12-26","sido":"인천광역시","sigungu":"중구","dong":"신흥동2가"},{"name":"월미로50번길노상주차장","type":"공영","category":"노상","address":"인천광역시 중구 월미로 377-1(북성동1가)","lat":37.46788014,"lng":126.6053151,"totalSpaces":13,"isFree":true,"operatingDays":"평일+토요일+공휴일","weekdayOpen":"00:00","weekdayClose":"23:59","weekendOpen":"00:00","weekendClose":"23:59","holidayOpen":"00:00","holidayClose":"23:59","feeInfo":"무료","phone":"032-760-7689","updatedAt":"2025-12-26","sido":"인천광역시","sigungu":"중구","dong":"북성동1가"},{"name":"우현로20번길노상주차장","type":"공영","category":"노상","address":"인천광역시 중구 인중로 146(신생동)","lat":37.46821127,"lng":126.6282965,"totalSpaces":12,"isFree":true,"operatingDays":"평일+토요일+공휴일","weekdayOpen":"00:00","weekdayClose":"23:59","weekendOpen":"00:00","weekendClose":"23:59","holidayOpen":"00:00","holidayClose":"23:59","feeInfo":"무료","phone":"032-760-7689","updatedAt":"2025-12-26","sido":"인천광역시","sigungu":"중구","dong":"신생동"},{"name":"제물량로133번길노상주차장","type":"공영","category":"노상","address":"인천광역시 중구 제물량로 123(답동)","lat":37.46826681,"lng":126.6289975,"totalSpaces":12,"isFree":true,"operatingDays":"평일+토요일+공휴일","weekdayOpen":"00:00","weekdayClose":"23:59","weekendOpen":"00:00","weekendClose":"23:59","holidayOpen":"00:00","holidayClose":"23:59","feeInfo":"무료","phone":"032-760-7689","updatedAt":"2025-12-26","sido":"인천광역시","sigungu":"중구","dong":"답동"},{"name":"보각선원아래공영주차장","type":"공영","category":"노외","address":"인천광역시 중구 도원동 15-3","lat":37.46890033,"lng":126.6407154,"totalSpaces":12,"isFree":true,"operatingDays":"평일+토요일+공휴일","weekdayOpen":"00:00","weekdayClose":"23:59","weekendOpen":"00:00","weekendClose":"23:59","holidayOpen":"00:00","holidayClose":"23:59","feeInfo":"무료","phone":"032-760-7689","updatedAt":"2025-12-26","sido":"인천광역시","sigungu":"중구","dong":"도원동"},{"name":"연안초등학교뒷길 노상주차장","type":"공영","category":"노상","address":"인천광역시 중구 연안부두로33번길 53(항동7가)","lat":37.45368797,"lng":126.6076275,"totalSpaces":11,"isFree":true,"operatingDays":"평일+토요일+공휴일","weekdayOpen":"00:00","weekdayClose":"23:59","weekendOpen":"00:00","weekendClose":"23:59","holidayOpen":"00:00","holidayClose":"23:59","feeInfo":"무료","phone":"032-760-7689","updatedAt":"2025-12-26","sido":"인천광역시","sigungu":"중구","dong":"항동7가"},{"name":"축항대로86번길제3노상주차장","type":"공영","category":"노상","address":"인천광역시 중구 축항대로 84(항동7가)","lat":37.45636214,"lng":126.6065376,"totalSpaces":11,"isFree":true,"operatingDays":"평일+토요일+공휴일","weekdayOpen":"00:00","weekdayClose":"23:59","weekendOpen":"00:00","weekendClose":"23:59","holidayOpen":"00:00","holidayClose":"23:59","feeInfo":"무료","phone":"032-760-7689","updatedAt":"2025-12-26","sido":"인천광역시","sigungu":"중구","dong":"항동7가"},{"name":"참외전로제1노상주차장","type":"공영","category":"노상","address":"인천광역시 중구 참외전로 20(송월동1가)","lat":37.47955473,"lng":126.6222125,"totalSpaces":11,"isFree":true,"operatingDays":"평일+토요일+공휴일","weekdayOpen":"00:00","weekdayClose":"23:59","weekendOpen":"00:00","weekendClose":"23:59","holidayOpen":"00:00","holidayClose":"23:59","feeInfo":"무료","phone":"032-760-7689","updatedAt":"2025-12-26","sido":"인천광역시","sigungu":"중구","dong":"송월동1가"},{"name":"율목로","type":"공영","category":"노상","address":"인천광역시 중구 서해대로 471(신흥동2가)","lat":37.4683036,"lng":126.6350247,"totalSpaces":11,"isFree":true,"operatingDays":"평일+토요일+공휴일","weekdayOpen":"00:00","weekdayClose":"23:59","weekendOpen":"00:00","weekendClose":"23:59","holidayOpen":"00:00","holidayClose":"23:59","feeInfo":"무료","phone":"032-760-7689","updatedAt":"2025-12-26","sido":"인천광역시","sigungu":"중구","dong":"신흥동2가"},{"name":"신포로노상주차장","type":"공영","category":"노상","address":"인천광역시 중구 송학로 42(내동)","lat":37.47464348,"lng":126.6270758,"totalSpaces":10,"isFree":true,"operatingDays":"평일+토요일+공휴일","weekdayOpen":"00:00","weekdayClose":"23:59","weekendOpen":"00:00","weekendClose":"23:59","holidayOpen":"00:00","holidayClose":"23:59","feeInfo":"무료","phone":"032-760-7689","updatedAt":"2025-12-26","sido":"인천광역시","sigungu":"중구","dong":"내동"},{"name":"전동그린맨션뒤공영주차장","type":"공영","category":"노외","address":"인천광역시 중구 전동 25-113","lat":37.4788123,"lng":126.6266091,"totalSpaces":10,"isFree":true,"operatingDays":"평일+토요일+공휴일","weekdayOpen":"00:00","weekdayClose":"23:59","weekendOpen":"00:00","weekendClose":"23:59","holidayOpen":"00:00","holidayClose":"23:59","feeInfo":"무료","phone":"032-760-7689","updatedAt":"2025-12-26","sido":"인천광역시","sigungu":"중구","dong":"전동"},{"name":"노인복지회관앞공영주차장","type":"공영","category":"노외","address":"인천광역시 중구 신흥동2가 16-2","lat":37.4674203,"lng":126.6337607,"totalSpaces":10,"isFree":true,"operatingDays":"평일+토요일+공휴일","weekdayOpen":"00:00","weekdayClose":"23:59","weekendOpen":"00:00","weekendClose":"23:59","holidayOpen":"00:00","holidayClose":"23:59","feeInfo":"무료","phone":"032-760-7689","updatedAt":"2025-12-26","sido":"인천광역시","sigungu":"중구","dong":"신흥동2가"},{"name":"구신흥동사무소공영주차장","type":"공영","category":"노외","address":"인천광역시 중구 신흥동2가 27-5","lat":37.46702422,"lng":126.632982,"totalSpaces":10,"isFree":true,"operatingDays":"평일+토요일+공휴일","weekdayOpen":"00:00","weekdayClose":"23:59","weekendOpen":"00:00","weekendClose":"23:59","holidayOpen":"00:00","holidayClose":"23:59","feeInfo":"무료","phone":"032-760-7689","updatedAt":"2025-12-26","sido":"인천광역시","sigungu":"중구","dong":"신흥동2가"},{"name":"햇살마트앞공영주차장","type":"공영","category":"노외","address":"인천광역시 중구 도원동 35-10","lat":37.46631591,"lng":126.6378074,"totalSpaces":10,"isFree":true,"operatingDays":"평일+토요일+공휴일","weekdayOpen":"00:00","weekdayClose":"23:59","weekendOpen":"00:00","weekendClose":"23:59","holidayOpen":"00:00","holidayClose":"23:59","feeInfo":"무료","phone":"032-760-7689","updatedAt":"2025-12-26","sido":"인천광역시","sigungu":"중구","dong":"도원동"},{"name":"자유공원서로37번길제1노상주차장","type":"공영","category":"노상","address":"인천광역시 중구 자유공원서로37번길 55-2(송월동2가)","lat":37.47823185,"lng":126.6187822,"totalSpaces":10,"isFree":true,"operatingDays":"평일+토요일+공휴일","weekdayOpen":"00:00","weekdayClose":"23:59","weekendOpen":"00:00","weekendClose":"23:59","holidayOpen":"00:00","holidayClose":"23:59","feeInfo":"무료","phone":"032-760-7689","updatedAt":"2025-12-26","sido":"인천광역시","sigungu":"중구","dong":"송월동2가"},{"name":"월미로제1노상주차장","type":"공영","category":"노상","address":"인천광역시 중구 월미로 377-1(북성동1가)","lat":37.46788014,"lng":126.6053151,"totalSpaces":10,"isFree":true,"operatingDays":"평일+토요일+공휴일","weekdayOpen":"00:00","weekdayClose":"23:59","weekendOpen":"00:00","weekendClose":"23:59","holidayOpen":"00:00","holidayClose":"23:59","feeInfo":"무료","phone":"032-760-7689","updatedAt":"2025-12-26","sido":"인천광역시","sigungu":"중구","dong":"북성동1가"},{"name":"참외전로37번길노상주차장","type":"공영","category":"노상","address":"인천광역시 중구 참외전로59번길 43(송월동1가, 우진빌라)","lat":37.48039099,"lng":126.6245147,"totalSpaces":10,"isFree":true,"operatingDays":"평일+토요일+공휴일","weekdayOpen":"00:00","weekdayClose":"23:59","weekendOpen":"00:00","weekendClose":"23:59","holidayOpen":"00:00","holidayClose":"23:59","feeInfo":"무료","phone":"032-760-7689","updatedAt":"2025-12-26","sido":"인천광역시","sigungu":"중구","dong":"송월동1가"},{"name":"서해대로494번길노상주차장","type":"공영","category":"노상","address":"인천광역시 중구 서해대로 488-1(유동)","lat":37.46935734,"lng":126.6366383,"totalSpaces":10,"isFree":true,"operatingDays":"평일+토요일+공휴일","weekdayOpen":"00:00","weekdayClose":"23:59","weekendOpen":"00:00","weekendClose":"23:59","holidayOpen":"00:00","holidayClose":"23:59","feeInfo":"무료","phone":"032-760-7689","updatedAt":"2025-12-26","sido":"인천광역시","sigungu":"중구","dong":"유동"},{"name":"도원로20번길노상주차장","type":"공영","category":"노상","address":"인천광역시 중구 도원로14번길 9-7(선화동)","lat":37.46578078,"lng":126.6373655,"totalSpaces":9,"isFree":true,"operatingDays":"평일+토요일+공휴일","weekdayOpen":"00:00","weekdayClose":"23:59","weekendOpen":"00:00","weekendClose":"23:59","holidayOpen":"00:00","holidayClose":"23:59","feeInfo":"무료","phone":"032-760-7689","updatedAt":"2025-12-26","sido":"인천광역시","sigungu":"중구","dong":"선화동"},{"name":"차이나타운로20번길노상주차장","type":"공영","category":"노상","address":"인천광역시 중구 제물량로306번길 17(북성동2가, 다세대주택)","lat":37.47790615,"lng":126.6183678,"totalSpaces":9,"isFree":true,"operatingDays":"평일+토요일+공휴일","weekdayOpen":"00:00","weekdayClose":"23:59","weekendOpen":"00:00","weekendClose":"23:59","holidayOpen":"00:00","holidayClose":"23:59","feeInfo":"무료","phone":"032-760-7689","updatedAt":"2025-12-26","sido":"인천광역시","sigungu":"중구","dong":"북성동2가"},{"name":"제물량로232번안길노상주차장","type":"공영","category":"노상","address":"인천광역시 중구 신포로23번길 61(중앙동2가)","lat":37.47248658,"lng":126.6217795,"totalSpaces":9,"isFree":true,"operatingDays":"평일+토요일+공휴일","weekdayOpen":"00:00","weekdayClose":"23:59","weekendOpen":"00:00","weekendClose":"23:59","holidayOpen":"00:00","holidayClose":"23:59","feeInfo":"무료","phone":"032-760-7689","updatedAt":"2025-12-26","sido":"인천광역시","sigungu":"중구","dong":"중앙동2가"},{"name":"신포로39번길노상주차장","type":"공영","category":"노상","address":"인천광역시 중구 신포로39번길 23(송학동3가)","lat":37.4728737,"lng":126.6247332,"totalSpaces":9,"isFree":true,"operatingDays":"평일+토요일+공휴일","weekdayOpen":"00:00","weekdayClose":"23:59","weekendOpen":"00:00","weekendClose":"23:59","holidayOpen":"00:00","holidayClose":"23:59","feeInfo":"무료","phone":"032-760-7689","updatedAt":"2025-12-26","sido":"인천광역시","sigungu":"중구","dong":"송학동3가"},{"name":"정보산업고뒤제1공영주차장","type":"공영","category":"노외","address":"인천광역시 중구 유동 36-4","lat":37.47034893,"lng":126.6359454,"totalSpaces":9,"isFree":true,"operatingDays":"평일+토요일+공휴일","weekdayOpen":"00:00","weekdayClose":"23:59","weekendOpen":"00:00","weekendClose":"23:59","holidayOpen":"00:00","holidayClose":"23:59","feeInfo":"무료","phone":"032-760-7689","updatedAt":"2025-12-26","sido":"인천광역시","sigungu":"중구","dong":"유동"},{"name":"도원서길노상주차장","type":"공영","category":"노상","address":"인천광역시 중구 도원서길 109(유동)","lat":37.4704239,"lng":126.6377365,"totalSpaces":9,"isFree":true,"operatingDays":"평일+토요일+공휴일","weekdayOpen":"00:00","weekdayClose":"23:59","weekendOpen":"00:00","weekendClose":"23:59","holidayOpen":"00:00","holidayClose":"23:59","feeInfo":"무료","phone":"032-760-7689","updatedAt":"2025-12-26","sido":"인천광역시","sigungu":"중구","dong":"유동"},{"name":"도원로10번길제1노상주차장","type":"공영","category":"노상","address":"인천광역시 중구 도원로10번길 7(선화동)","lat":37.4655985,"lng":126.6366882,"totalSpaces":8,"isFree":true,"operatingDays":"평일+토요일+공휴일","weekdayOpen":"00:00","weekdayClose":"23:59","weekendOpen":"00:00","weekendClose":"23:59","holidayOpen":"00:00","holidayClose":"23:59","feeInfo":"무료","phone":"032-760-7689","updatedAt":"2025-12-26","sido":"인천광역시","sigungu":"중구","dong":"선화동"},{"name":"도원로45번길노상주차장","type":"공영","category":"노상","address":"인천광역시 중구 도원로45번길 14(도원동)","lat":37.46892658,"lng":126.6371966,"totalSpaces":8,"isFree":true,"operatingDays":"평일+토요일+공휴일","weekdayOpen":"00:00","weekdayClose":"23:59","weekendOpen":"00:00","weekendClose":"23:59","holidayOpen":"00:00","holidayClose":"23:59","feeInfo":"무료","phone":"032-760-7689","updatedAt":"2025-12-26","sido":"인천광역시","sigungu":"중구","dong":"도원동"},{"name":"서해대로484번길노상주차장","type":"공영","category":"노상","address":"인천광역시 중구 도원서길 60(도원동)","lat":37.46830605,"lng":126.6369916,"totalSpaces":8,"isFree":true,"operatingDays":"평일+토요일+공휴일","weekdayOpen":"00:00","weekdayClose":"23:59","weekendOpen":"00:00","weekendClose":"23:59","holidayOpen":"00:00","holidayClose":"23:59","feeInfo":"무료","phone":"032-760-7689","updatedAt":"2025-12-26","sido":"인천광역시","sigungu":"중구","dong":"도원동"},{"name":"도원로30번길노상주차장","type":"공영","category":"노상","address":"인천광역시 중구 도원로 28-11(도원동)","lat":37.46702827,"lng":126.6375268,"totalSpaces":8,"isFree":true,"operatingDays":"평일+토요일+공휴일","weekdayOpen":"00:00","weekdayClose":"23:59","weekendOpen":"00:00","weekendClose":"23:59","holidayOpen":"00:00","holidayClose":"23:59","feeInfo":"무료","phone":"032-760-7689","updatedAt":"2025-12-26","sido":"인천광역시","sigungu":"중구","dong":"도원동"},{"name":"해광사위공영주차장","type":"공영","category":"노외","address":"인천광역시 중구 신흥동1가 5-1","lat":37.46880798,"lng":126.6328979,"totalSpaces":8,"isFree":true,"operatingDays":"평일+토요일+공휴일","weekdayOpen":"00:00","weekdayClose":"23:59","weekendOpen":"00:00","weekendClose":"23:59","holidayOpen":"00:00","holidayClose":"23:59","feeInfo":"무료","phone":"032-760-7689","updatedAt":"2025-12-26","sido":"인천광역시","sigungu":"중구","dong":"신흥동1가"},{"name":"참외전로13번길제2노상주차장","type":"공영","category":"노상","address":"인천광역시 중구 참외전로 7(송월동1가)","lat":37.47970508,"lng":126.6206578,"totalSpaces":8,"isFree":true,"operatingDays":"평일+토요일+공휴일","weekdayOpen":"00:00","weekdayClose":"23:59","weekendOpen":"00:00","weekendClose":"23:59","holidayOpen":"00:00","holidayClose":"23:59","feeInfo":"무료","phone":"032-760-7689","updatedAt":"2025-12-26","sido":"인천광역시","sigungu":"중구","dong":"송월동1가"},{"name":"축항대로296번길노상주차장","type":"공영","category":"노상","address":"인천광역시 중구 축항대로296번길 183(신흥동3가)","lat":37.43169473,"lng":126.6238225,"totalSpaces":7,"isFree":true,"operatingDays":"평일+토요일+공휴일","weekdayOpen":"00:00","weekdayClose":"23:59","weekendOpen":"00:00","weekendClose":"23:59","holidayOpen":"00:00","holidayClose":"23:59","feeInfo":"무료","phone":"032-760-7689","updatedAt":"2025-12-26","sido":"인천광역시","sigungu":"중구","dong":"신흥동3가"},{"name":"도원로10번길제2노상주차장","type":"공영","category":"노상","address":"인천광역시 중구 도원로30번길 26(도원동)","lat":37.46637847,"lng":126.6383528,"totalSpaces":6,"isFree":true,"operatingDays":"평일+토요일+공휴일","weekdayOpen":"00:00","weekdayClose":"23:59","weekendOpen":"00:00","weekendClose":"23:59","holidayOpen":"00:00","holidayClose":"23:59","feeInfo":"무료","phone":"032-760-7689","updatedAt":"2025-12-26","sido":"인천광역시","sigungu":"중구","dong":"도원동"},{"name":"도원로56번길노상주차장","type":"공영","category":"노상","address":"인천광역시 중구 도원로 54-1(도원동)","lat":37.46914317,"lng":126.6384887,"totalSpaces":6,"isFree":true,"operatingDays":"평일+토요일+공휴일","weekdayOpen":"00:00","weekdayClose":"23:59","weekendOpen":"00:00","weekendClose":"23:59","holidayOpen":"00:00","holidayClose":"23:59","feeInfo":"무료","phone":"032-760-7689","updatedAt":"2025-12-26","sido":"인천광역시","sigungu":"중구","dong":"도원동"},{"name":"도원로8번길노상주차장","type":"공영","category":"노상","address":"인천광역시 중구 도원로26번길 34(선화동, 뉴월드그린빌라)","lat":37.46548365,"lng":126.6382248,"totalSpaces":6,"isFree":true,"operatingDays":"평일+토요일+공휴일","weekdayOpen":"00:00","weekdayClose":"23:59","weekendOpen":"00:00","weekendClose":"23:59","holidayOpen":"00:00","holidayClose":"23:59","feeInfo":"무료","phone":"032-760-7689","updatedAt":"2025-12-26","sido":"인천광역시","sigungu":"중구","dong":"선화동"},{"name":"도원로14번길노상주차장","type":"공영","category":"노상","address":"인천광역시 중구 도원로14번길 11(선화동)","lat":37.46553162,"lng":126.6372085,"totalSpaces":6,"isFree":true,"operatingDays":"평일+토요일+공휴일","weekdayOpen":"00:00","weekdayClose":"23:59","weekendOpen":"00:00","weekendClose":"23:59","holidayOpen":"00:00","holidayClose":"23:59","feeInfo":"무료","phone":"032-760-7689","updatedAt":"2025-12-26","sido":"인천광역시","sigungu":"중구","dong":"선화동"},{"name":"참외전로72번길제1노상주차장","type":"공영","category":"노상","address":"인천광역시 중구 참외전로72번길 21(전동)","lat":37.47721729,"lng":126.6291077,"totalSpaces":6,"isFree":true,"operatingDays":"평일+토요일+공휴일","weekdayOpen":"00:00","weekdayClose":"23:59","weekendOpen":"00:00","weekendClose":"23:59","holidayOpen":"00:00","holidayClose":"23:59","feeInfo":"무료","phone":"032-760-7689","updatedAt":"2025-12-26","sido":"인천광역시","sigungu":"중구","dong":"전동"},{"name":"민방위교육장앞공영주차장","type":"공영","category":"노외","address":"인천광역시 중구 답동 60-2","lat":37.46812412,"lng":126.6288399,"totalSpaces":6,"isFree":true,"operatingDays":"평일+토요일+공휴일","weekdayOpen":"00:00","weekdayClose":"23:59","weekendOpen":"00:00","weekendClose":"23:59","holidayOpen":"00:00","holidayClose":"23:59","feeInfo":"무료","phone":"032-760-7689","updatedAt":"2025-12-26","sido":"인천광역시","sigungu":"중구","dong":"답동"},{"name":"참외전로45번길노상주차장","type":"공영","category":"노상","address":"인천광역시 중구 참외전로59번길 27(송월동1가)","lat":37.4801593,"lng":126.6253253,"totalSpaces":6,"isFree":true,"operatingDays":"평일+토요일+공휴일","weekdayOpen":"00:00","weekdayClose":"23:59","weekendOpen":"00:00","weekendClose":"23:59","holidayOpen":"00:00","holidayClose":"23:59","feeInfo":"무료","phone":"032-760-7689","updatedAt":"2025-12-26","sido":"인천광역시","sigungu":"중구","dong":"송월동1가"},{"name":"도산로22번길노상주차장","type":"공영","category":"노상","address":"인천광역시 중구 도원로26번길 1-11(도원동)","lat":37.46682286,"lng":126.6375323,"totalSpaces":6,"isFree":true,"operatingDays":"평일+토요일+공휴일","weekdayOpen":"00:00","weekdayClose":"23:59","weekendOpen":"00:00","weekendClose":"23:59","holidayOpen":"00:00","holidayClose":"23:59","feeInfo":"무료","phone":"032-760-7689","updatedAt":"2025-12-26","sido":"인천광역시","sigungu":"중구","dong":"도원동"},{"name":"제물량로113번길제1노상주차장","type":"공영","category":"노상","address":"인천광역시 중구 서해대로449번길 72(신흥동1가)","lat":37.46733171,"lng":126.630666,"totalSpaces":6,"isFree":true,"operatingDays":"평일+토요일+공휴일","weekdayOpen":"00:00","weekdayClose":"23:59","weekendOpen":"00:00","weekendClose":"23:59","holidayOpen":"00:00","holidayClose":"23:59","feeInfo":"무료","phone":"032-760-7689","updatedAt":"2025-12-26","sido":"인천광역시","sigungu":"중구","dong":"신흥동1가"},{"name":"서해대로449번길노상주차장","type":"공영","category":"노상","address":"인천광역시 중구 서해대로449번길 15(신흥동2가)","lat":37.4664395,"lng":126.6335959,"totalSpaces":5,"isFree":true,"operatingDays":"평일+토요일+공휴일","weekdayOpen":"00:00","weekdayClose":"23:59","weekendOpen":"00:00","weekendClose":"23:59","holidayOpen":"00:00","holidayClose":"23:59","feeInfo":"무료","phone":"032-760-7689","updatedAt":"2025-12-26","sido":"인천광역시","sigungu":"중구","dong":"신흥동2가"},{"name":"제물량로제2노상주차장","type":"공영","category":"노상","address":"인천광역시 중구 제물량로206번길 2(해안동3가)","lat":37.47163519,"lng":126.6217414,"totalSpaces":5,"isFree":true,"operatingDays":"평일+토요일+공휴일","weekdayOpen":"00:00","weekdayClose":"23:59","weekendOpen":"00:00","weekendClose":"23:59","holidayOpen":"00:00","holidayClose":"23:59","feeInfo":"무료","phone":"032-760-7689","updatedAt":"2025-12-26","sido":"인천광역시","sigungu":"중구","dong":"해안동3가"},{"name":"자유공원서로노상주차장","type":"공영","category":"노상","address":"인천광역시 중구 자유공원서로 57(전동)","lat":37.47787232,"lng":126.6235505,"totalSpaces":5,"isFree":true,"operatingDays":"평일+토요일+공휴일","weekdayOpen":"00:00","weekdayClose":"23:59","weekendOpen":"00:00","weekendClose":"23:59","holidayOpen":"00:00","holidayClose":"23:59","feeInfo":"무료","phone":"032-760-7689","updatedAt":"2025-12-26","sido":"인천광역시","sigungu":"중구","dong":"전동"},{"name":"차이나타운로26번길노상주차장","type":"공영","category":"노상","address":"인천광역시 중구 차이나타운로26번길 11-17(북성동2가)","lat":37.47693012,"lng":126.6185718,"totalSpaces":5,"isFree":true,"operatingDays":"평일+토요일+공휴일","weekdayOpen":"00:00","weekdayClose":"23:59","weekendOpen":"00:00","weekendClose":"23:59","holidayOpen":"00:00","holidayClose":"23:59","feeInfo":"무료","phone":"032-760-7689","updatedAt":"2025-12-26","sido":"인천광역시","sigungu":"중구","dong":"북성동2가"},{"name":"제물량길공영주차장","type":"공영","category":"노상","address":"인천광역시 중구 차이나타운로 12(송월동2가, 창대빌라)","lat":37.47827333,"lng":126.6193518,"totalSpaces":5,"isFree":true,"operatingDays":"평일+토요일+공휴일","weekdayOpen":"00:00","weekdayClose":"23:59","weekendOpen":"00:00","weekendClose":"23:59","holidayOpen":"00:00","holidayClose":"23:59","feeInfo":"무료","phone":"032-760-7689","updatedAt":"2025-12-26","sido":"인천광역시","sigungu":"중구","dong":"송월동2가"},{"name":"참외전로33번길노상주차장","type":"공영","category":"노상","address":"인천광역시 중구 참외전로33번길 17(송월동1가)","lat":37.48059047,"lng":126.6237765,"totalSpaces":5,"isFree":true,"operatingDays":"평일+토요일+공휴일","weekdayOpen":"00:00","weekdayClose":"23:59","weekendOpen":"00:00","weekendClose":"23:59","holidayOpen":"00:00","holidayClose":"23:59","feeInfo":"무료","phone":"032-760-7689","updatedAt":"2025-12-26","sido":"인천광역시","sigungu":"중구","dong":"송월동1가"},{"name":"참외전로13번길노상주차장","type":"공영","category":"노상","address":"인천광역시 중구 참외전로13번길 18(송월동1가)","lat":37.48030713,"lng":126.6208248,"totalSpaces":5,"isFree":true,"operatingDays":"평일+토요일+공휴일","weekdayOpen":"00:00","weekdayClose":"23:59","weekendOpen":"00:00","weekendClose":"23:59","holidayOpen":"00:00","holidayClose":"23:59","feeInfo":"무료","phone":"032-760-7689","updatedAt":"2025-12-26","sido":"인천광역시","sigungu":"중구","dong":"송월동1가"},{"name":"서해대로497번길노상주차장","type":"공영","category":"노상","address":"인천광역시 중구 참외전로 192(율목동)","lat":37.47070157,"lng":126.6366137,"totalSpaces":5,"isFree":true,"operatingDays":"평일+토요일+공휴일","weekdayOpen":"00:00","weekdayClose":"23:59","weekendOpen":"00:00","weekendClose":"23:59","holidayOpen":"00:00","holidayClose":"23:59","feeInfo":"무료","phone":"032-760-7689","updatedAt":"2025-12-26","sido":"인천광역시","sigungu":"중구","dong":"율목동"},{"name":"도원서길제2노상주차장","type":"공영","category":"노상","address":"인천광역시 중구 서해대로484번길 8(유동)","lat":37.46842419,"lng":126.6367333,"totalSpaces":5,"isFree":true,"operatingDays":"평일+토요일+공휴일","weekdayOpen":"00:00","weekdayClose":"23:59","weekendOpen":"00:00","weekendClose":"23:59","holidayOpen":"00:00","holidayClose":"23:59","feeInfo":"무료","phone":"032-760-7689","updatedAt":"2025-12-26","sido":"인천광역시","sigungu":"중구","dong":"유동"},{"name":"서해대로449번길제2노상주차장","type":"공영","category":"노상","address":"인천광역시 중구 서해대로449번길 6-11(신흥동2가)","lat":37.46662097,"lng":126.6340065,"totalSpaces":5,"isFree":true,"operatingDays":"평일+토요일+공휴일","weekdayOpen":"00:00","weekdayClose":"23:59","weekendOpen":"00:00","weekendClose":"23:59","holidayOpen":"00:00","holidayClose":"23:59","feeInfo":"무료","phone":"032-760-7689","updatedAt":"2025-12-26","sido":"인천광역시","sigungu":"중구","dong":"신흥동2가"},{"name":"서해대로464번길","type":"공영","category":"노상","address":"인천광역시 중구 서해대로 470(신흥동2가)","lat":37.46770767,"lng":126.6357827,"totalSpaces":5,"isFree":true,"operatingDays":"평일+토요일+공휴일","weekdayOpen":"00:00","weekdayClose":"23:59","weekendOpen":"00:00","weekendClose":"23:59","holidayOpen":"00:00","holidayClose":"23:59","feeInfo":"무료","phone":"032-760-7689","updatedAt":"2025-12-26","sido":"인천광역시","sigungu":"중구","dong":"신흥동2가"},{"name":"제물량로95번길노상주차장","type":"공영","category":"노상","address":"인천광역시 중구 제물량로95번길 8(신흥동1가)","lat":37.46736843,"lng":126.6321444,"totalSpaces":5,"isFree":true,"operatingDays":"평일+토요일+공휴일","weekdayOpen":"00:00","weekdayClose":"23:59","weekendOpen":"00:00","weekendClose":"23:59","holidayOpen":"00:00","holidayClose":"23:59","feeInfo":"무료","phone":"032-760-7689","updatedAt":"2025-12-26","sido":"인천광역시","sigungu":"중구","dong":"신흥동1가"},{"name":"제물량로113번길제2노상주차장","type":"공영","category":"노상","address":"인천광역시 중구 인중로144번길 54-2(신흥동1가)","lat":37.46766155,"lng":126.6302168,"totalSpaces":5,"isFree":true,"operatingDays":"평일+토요일+공휴일","weekdayOpen":"00:00","weekdayClose":"23:59","weekendOpen":"00:00","weekendClose":"23:59","holidayOpen":"00:00","holidayClose":"23:59","feeInfo":"무료","phone":"032-760-7689","updatedAt":"2025-12-26","sido":"인천광역시","sigungu":"중구","dong":"신흥동1가"},{"name":"제물량로108번길노상주차장","type":"공영","category":"노상","address":"인천광역시 중구 답동로24번길 17(율목동)","lat":37.46979113,"lng":126.6323993,"totalSpaces":4,"isFree":true,"operatingDays":"평일+토요일+공휴일","weekdayOpen":"00:00","weekdayClose":"23:59","weekendOpen":"00:00","weekendClose":"23:59","holidayOpen":"00:00","holidayClose":"23:59","feeInfo":"무료","phone":"032-760-7689","updatedAt":"2025-12-26","sido":"인천광역시","sigungu":"중구","dong":"율목동"},{"name":"참외전로56번길노상주차장","type":"공영","category":"노상","address":"인천광역시 중구 참외전로56번길 18(전동)","lat":37.4789068,"lng":126.6269992,"totalSpaces":4,"isFree":true,"operatingDays":"평일+토요일+공휴일","weekdayOpen":"00:00","weekdayClose":"23:59","weekendOpen":"00:00","weekendClose":"23:59","holidayOpen":"00:00","holidayClose":"23:59","feeInfo":"무료","phone":"032-760-7689","updatedAt":"2025-12-26","sido":"인천광역시","sigungu":"중구","dong":"전동"},{"name":"참외전로72번길제2노상주차장","type":"공영","category":"노상","address":"인천광역시 중구 참외전로72번길 6-3(전동, 전동빌리지)","lat":37.4783688,"lng":126.627826,"totalSpaces":4,"isFree":true,"operatingDays":"평일+토요일+공휴일","weekdayOpen":"00:00","weekdayClose":"23:59","weekendOpen":"00:00","weekendClose":"23:59","holidayOpen":"00:00","holidayClose":"23:59","feeInfo":"무료","phone":"032-760-7689","updatedAt":"2025-12-26","sido":"인천광역시","sigungu":"중구","dong":"전동"},{"name":"개항로53번길노상주차장","type":"공영","category":"노상","address":"인천광역시 중구 우현로67번길 1-7(내동)","lat":37.47308103,"lng":126.6287566,"totalSpaces":4,"isFree":true,"operatingDays":"평일+토요일+공휴일","weekdayOpen":"00:00","weekdayClose":"23:59","weekendOpen":"00:00","weekendClose":"23:59","holidayOpen":"00:00","holidayClose":"23:59","feeInfo":"무료","phone":"032-760-7689","updatedAt":"2025-12-26","sido":"인천광역시","sigungu":"중구","dong":"내동"},{"name":"정보산업고뒤제2공영주차장","type":"공영","category":"노외","address":"인천광역시 중구 유동 37-4","lat":37.4703278,"lng":126.6354643,"totalSpaces":4,"isFree":true,"operatingDays":"평일+토요일+공휴일","weekdayOpen":"00:00","weekdayClose":"23:59","weekendOpen":"00:00","weekendClose":"23:59","holidayOpen":"00:00","holidayClose":"23:59","feeInfo":"무료","phone":"032-760-7689","updatedAt":"2025-12-26","sido":"인천광역시","sigungu":"중구","dong":"유동"},{"name":"율목공원제3공영주차장","type":"공영","category":"노외","address":"인천광역시 중구 율목동 143","lat":37.4697452,"lng":126.6340058,"totalSpaces":4,"isFree":true,"operatingDays":"평일+토요일+공휴일","weekdayOpen":"00:00","weekdayClose":"23:59","weekendOpen":"00:00","weekendClose":"23:59","holidayOpen":"00:00","holidayClose":"23:59","feeInfo":"무료","phone":"032-760-7689","updatedAt":"2025-12-26","sido":"인천광역시","sigungu":"중구","dong":"율목동"},{"name":"공감마을 제1","type":"공영","category":"노외","address":"인천광역시 중구 답동 65-7","lat":37.4692074,"lng":126.6286006,"totalSpaces":4,"isFree":true,"operatingDays":"평일+토요일+공휴일","weekdayOpen":"00:00","weekdayClose":"23:59","weekendOpen":"00:00","weekendClose":"23:59","holidayOpen":"00:00","holidayClose":"23:59","feeInfo":"무료","phone":"032-760-7689","updatedAt":"2025-12-26","sido":"인천광역시","sigungu":"중구","dong":"답동"},{"name":"전동로노상주차장","type":"공영","category":"노상","address":"인천광역시 중구 전동로6번길 2-8(전동)","lat":37.47612035,"lng":126.6268288,"totalSpaces":3,"isFree":true,"operatingDays":"평일+토요일+공휴일","weekdayOpen":"00:00","weekdayClose":"23:59","weekendOpen":"00:00","weekendClose":"23:59","holidayOpen":"00:00","holidayClose":"23:59","feeInfo":"무료","phone":"032-760-7689","updatedAt":"2025-12-26","sido":"인천광역시","sigungu":"중구","dong":"전동"},{"name":"도산로노상주차장","type":"공영","category":"노상","address":"인천광역시 중구 도산로 9-1(도원동)","lat":37.46799259,"lng":126.6370202,"totalSpaces":3,"isFree":true,"operatingDays":"평일+토요일+공휴일","weekdayOpen":"00:00","weekdayClose":"23:59","weekendOpen":"00:00","weekendClose":"23:59","holidayOpen":"00:00","holidayClose":"23:59","feeInfo":"무료","phone":"032-760-7689","updatedAt":"2025-12-26","sido":"인천광역시","sigungu":"중구","dong":"도원동"},{"name":"자유공원남로노상주차장","type":"공영","category":"노상","address":"인천광역시 중구 신포로27번길 80(관동1가)","lat":37.47408104,"lng":126.6213401,"totalSpaces":3,"isFree":true,"operatingDays":"평일+토요일+공휴일","weekdayOpen":"00:00","weekdayClose":"23:59","weekendOpen":"00:00","weekendClose":"23:59","holidayOpen":"00:00","holidayClose":"23:59","feeInfo":"무료","phone":"032-760-7689","updatedAt":"2025-12-26","sido":"인천광역시","sigungu":"중구","dong":"관동1가"},{"name":"자유공원남로제2노상주차장","type":"공영","category":"노상","address":"인천광역시 중구 자유공원남로 12(송학동1가)","lat":37.47440655,"lng":126.6217003,"totalSpaces":3,"isFree":true,"operatingDays":"평일+토요일+공휴일","weekdayOpen":"00:00","weekdayClose":"23:59","weekendOpen":"00:00","weekendClose":"23:59","holidayOpen":"00:00","holidayClose":"23:59","feeInfo":"무료","phone":"032-760-7689","updatedAt":"2025-12-26","sido":"인천광역시","sigungu":"중구","dong":"송학동1가"},{"name":"신포로35번길제3노상주차장","type":"공영","category":"노상","address":"인천광역시 중구 신포로39번길 15(송학동3가)","lat":37.47249269,"lng":126.6250516,"totalSpaces":3,"isFree":true,"operatingDays":"평일+토요일+공휴일","weekdayOpen":"00:00","weekdayClose":"23:59","weekendOpen":"00:00","weekendClose":"23:59","holidayOpen":"00:00","holidayClose":"23:59","feeInfo":"무료","phone":"032-760-7689","updatedAt":"2025-12-26","sido":"인천광역시","sigungu":"중구","dong":"송학동3가"},{"name":"율목공원제1공영주차장","type":"공영","category":"노외","address":"인천광역시 중구 율목동 120","lat":37.4694662,"lng":126.6338658,"totalSpaces":3,"isFree":true,"operatingDays":"평일+토요일+공휴일","weekdayOpen":"00:00","weekdayClose":"23:59","weekendOpen":"00:00","weekendClose":"23:59","holidayOpen":"00:00","holidayClose":"23:59","feeInfo":"무료","phone":"032-760-7689","updatedAt":"2025-12-26","sido":"인천광역시","sigungu":"중구","dong":"율목동"},{"name":"율목동주민센터뒤공영주차장","type":"공영","category":"노외","address":"인천광역시 중구 율목로30번길 33-1","lat":37.46974989,"lng":126.635455,"totalSpaces":3,"isFree":true,"operatingDays":"평일+토요일+공휴일","weekdayOpen":"00:00","weekdayClose":"23:59","weekendOpen":"00:00","weekendClose":"23:59","holidayOpen":"00:00","holidayClose":"23:59","feeInfo":"무료","phone":"032-760-7689","updatedAt":"2025-12-26","sido":"인천광역시","sigungu":"중구","dong":"율목동"},{"name":"인중로50번길노상주차장","type":"공영","category":"노상","address":"인천광역시 중구 도원로26번길 48(선화동)","lat":37.46511108,"lng":126.6387523,"totalSpaces":2,"isFree":true,"operatingDays":"평일+토요일+공휴일","weekdayOpen":"00:00","weekdayClose":"23:59","weekendOpen":"00:00","weekendClose":"23:59","holidayOpen":"00:00","holidayClose":"23:59","feeInfo":"무료","phone":"032-760-7689","updatedAt":"2025-12-26","sido":"인천광역시","sigungu":"중구","dong":"선화동"},{"name":"율목공원제2공영주차장","type":"공영","category":"노외","address":"인천광역시 중구 율목동 215","lat":37.4701448,"lng":126.6335008,"totalSpaces":2,"isFree":true,"operatingDays":"평일+토요일+공휴일","weekdayOpen":"00:00","weekdayClose":"23:59","weekendOpen":"00:00","weekendClose":"23:59","holidayOpen":"00:00","holidayClose":"23:59","feeInfo":"무료","phone":"032-760-7689","updatedAt":"2025-12-26","sido":"인천광역시","sigungu":"중구","dong":"율목동"},{"name":"율목공원제4공영주차장","type":"공영","category":"노외","address":"인천광역시 중구 율목동 171","lat":37.470046,"lng":126.6340621,"totalSpaces":2,"isFree":true,"operatingDays":"평일+토요일+공휴일","weekdayOpen":"00:00","weekdayClose":"23:59","weekendOpen":"00:00","weekendClose":"23:59","holidayOpen":"00:00","holidayClose":"23:59","feeInfo":"무료","phone":"032-760-7689","updatedAt":"2025-12-26","sido":"인천광역시","sigungu":"중구","dong":"율목동"},{"name":"운서역","type":"공영","category":"노외","address":"인천광역시 중구 흰바위로59번길 26","lat":37.4928447,"lng":126.4936663,"totalSpaces":1024,"isFree":false,"operatingDays":"평일+토요일+공휴일","weekdayOpen":"00:00","weekdayClose":"23:59","weekendOpen":"00:00","weekendClose":"23:59","holidayOpen":"00:00","holidayClose":"23:59","feeInfo":"기본 30분 400원 / 추가 15분당 200원","phone":"032-751-7847","updatedAt":"2025-06-26","sido":"인천광역시","sigungu":"중구","dong":"운서동"},{"name":"운 서 역","type":"공영","category":"노외","address":"인천광역시 중구 흰바위로59번길 26","lat":37.4928447,"lng":126.4936663,"totalSpaces":1024,"isFree":false,"operatingDays":"평일+토요일+공휴일","weekdayOpen":"00:01","weekdayClose":"12:00","weekendOpen":"00:01","weekendClose":"12:00","holidayOpen":"00:01","holidayClose":"12:00","feeInfo":"기본 30분 400원 / 추가 15분당 200원","phone":"032-751-7847","updatedAt":"2025-06-25","sido":"인천광역시","sigungu":"중구","dong":"운서동"},{"name":"공항신도시 공영주차장","type":"공영","category":"노상","address":"인천광역시 중구 운서동 2818","lat":37.49428854,"lng":126.481847,"totalSpaces":224,"isFree":false,"operatingDays":"평일+토요일+공휴일","weekdayOpen":"00:00","weekdayClose":"23:59","weekendOpen":"00:00","weekendClose":"23:59","holidayOpen":"00:00","holidayClose":"23:59","feeInfo":"기본 30분 400원 / 추가 15분당 200원","phone":"032-763-8146","updatedAt":"2025-12-26","sido":"인천광역시","sigungu":"중구","dong":"운서동"},{"name":"해양광장공영주차장","type":"공영","category":"노외","address":"인천광역시 중구 연안부두로36","lat":37.45549582,"lng":126.6018268,"totalSpaces":220,"isFree":false,"operatingDays":"평일+토요일+공휴일","weekdayOpen":"09:00","weekdayClose":"19:00","weekendOpen":"09:00","weekendClose":"20:00","holidayOpen":"09:00","holidayClose":"20:00","feeInfo":"기본 30분 1,000원 / 추가 15분당 500원","phone":"032-763-8146","updatedAt":"2025-12-26","sido":"인천광역시","sigungu":"중구","dong":"항동7가"},{"name":"왕산 공영주차장","type":"공영","category":"노외","address":"인천광역시 중구 용유서로423번길 4","lat":37.45590978,"lng":126.3715102,"totalSpaces":186,"isFree":false,"operatingDays":"평일+토요일+공휴일","weekdayOpen":"00:00","weekdayClose":"23:59","weekendOpen":"00:00","weekendClose":"23:59","holidayOpen":"00:00","holidayClose":"23:59","feeInfo":"기본 30분 400원 / 추가 15분당 200원","phone":"032-763-8146","updatedAt":"2025-12-26","sido":"인천광역시","sigungu":"중구","dong":"을왕동"},{"name":"차이나타운공영주차장","type":"공영","category":"노외","address":"인천광역시 중구 차이나타운로44번길 28-12","lat":37.47605364,"lng":126.6183546,"totalSpaces":186,"isFree":false,"operatingDays":"평일+토요일+공휴일","weekdayOpen":"09:00","weekdayClose":"21:00","weekendOpen":"09:00","weekendClose":"21:00","holidayOpen":"09:00","holidayClose":"21:00","feeInfo":"기본 30분 1,000원 / 추가 15분당 500원","phone":"032-763-8146","updatedAt":"2025-12-26","sido":"인천광역시","sigungu":"중구","dong":"북성동2가"},{"name":"중구청사 부설주차장","type":"공영","category":"부설","address":"인천광역시 중구 신포로27번길 80","lat":37.47408104,"lng":126.6213401,"totalSpaces":159,"isFree":false,"operatingDays":"평일+토요일+공휴일","weekdayOpen":"09:00","weekdayClose":"19:00","weekendOpen":"09:00","weekendClose":"18:00","holidayOpen":"09:00","holidayClose":"18:00","feeInfo":"기본 30분 1,000원 / 추가 15분당 500원","phone":"032-763-8146","updatedAt":"2025-12-26","sido":"인천광역시","sigungu":"중구","dong":"관동1가"},{"name":"을왕리 공영주차장","type":"공영","category":"노외","address":"인천광역시 중구 용유서로 297-3","lat":37.44476466,"lng":126.3760481,"totalSpaces":138,"isFree":false,"operatingDays":"평일+토요일+공휴일","weekdayOpen":"00:00","weekdayClose":"23:59","weekendOpen":"00:00","weekendClose":"23:59","holidayOpen":"00:00","holidayClose":"23:59","feeInfo":"기본 30분 400원 / 추가 15분당 200원","phone":"032-763-8146","updatedAt":"2025-12-26","sido":"인천광역시","sigungu":"중구","dong":"을왕동"},{"name":"월미도제2공영주차장","type":"공영","category":"노외","address":"인천광역시 중구 북성동1가 97-32","lat":37.47743131,"lng":126.5985286,"totalSpaces":136,"isFree":false,"operatingDays":"평일+토요일+공휴일","weekdayOpen":"00:00","weekdayClose":"23:59","weekendOpen":"00:00","weekendClose":"23:59","holidayOpen":"00:00","holidayClose":"23:59","feeInfo":"기본 30분 600원 / 추가 15분당 300원","phone":"032-763-8146","updatedAt":"2025-12-26","sido":"인천광역시","sigungu":"중구","dong":"북성동1가"},{"name":"한중문화관공영주차장","type":"공영","category":"노외","address":"인천광역시 중구 항동2가 1-1","lat":37.4731039,"lng":126.61904,"totalSpaces":109,"isFree":false,"operatingDays":"평일+토요일+공휴일","weekdayOpen":"10:00","weekdayClose":"19:00","weekendOpen":"10:00","weekendClose":"19:00","holidayOpen":"10:00","holidayClose":"19:00","feeInfo":"기본 30분 1,000원 / 추가 15분당 500원","phone":"032-763-8146","updatedAt":"2025-12-26","sido":"인천광역시","sigungu":"중구","dong":"항동2가"},{"name":"영종역일원(노상) 공영주차장","type":"공영","category":"노상","address":"인천광역시 중구 운북동 464","lat":37.510818,"lng":126.5241062,"totalSpaces":103,"isFree":false,"operatingDays":"평일+토요일+공휴일","weekdayOpen":"00:00","weekdayClose":"23:59","weekendOpen":"00:00","weekendClose":"23:59","holidayOpen":"00:00","holidayClose":"23:59","feeInfo":"기본 30분 400원 / 추가 15분당 200원","phone":"032-763-8146","updatedAt":"2025-12-26","sido":"인천광역시","sigungu":"중구","dong":"운북동"},{"name":"구인천여고공영주차장","type":"공영","category":"노외","address":"인천광역시 중구 참외전로 100","lat":37.47711266,"lng":126.6295009,"totalSpaces":102,"isFree":false,"operatingDays":"평일+토요일+공휴일","weekdayOpen":"00:00","weekdayClose":"23:59","weekendOpen":"00:00","weekendClose":"23:59","holidayOpen":"00:00","holidayClose":"23:59","feeInfo":"기본 30분 400원 / 추가 15분당 200원","phone":"032-579-2701","updatedAt":"2025-12-26","sido":"인천광역시","sigungu":"중구","dong":"전동"},{"name":"인하대병원사거리공영주차장","type":"공영","category":"노외","address":"인천광역시 중구 아암대로 12(신흥동3가)","lat":37.45998591,"lng":126.6374975,"totalSpaces":101,"isFree":false,"operatingDays":"평일+토요일+공휴일","weekdayOpen":"00:00","weekdayClose":"23:59","weekendOpen":"00:00","weekendClose":"23:59","holidayOpen":"00:00","holidayClose":"23:59","feeInfo":"기본 30분 600원 / 추가 15분당 300원","phone":"032-763-8146","updatedAt":"2025-12-26","sido":"인천광역시","sigungu":"중구","dong":"신흥동3가"},{"name":"동화마을공영주차장","type":"공영","category":"노외","address":"인천광역시 중구 제물량로 307-1","lat":37.47902422,"lng":126.6186244,"totalSpaces":100,"isFree":false,"operatingDays":"평일+토요일+공휴일","weekdayOpen":"00:00","weekdayClose":"23:59","weekendOpen":"00:00","weekendClose":"23:59","holidayOpen":"00:00","holidayClose":"23:59","feeInfo":"기본 30분 1,000원 / 추가 15분당 500원","phone":"032-763-8146","updatedAt":"2025-12-26","sido":"인천광역시","sigungu":"중구","dong":"송월동2가"},{"name":"제물량로제2노상주차장","type":"공영","category":"노상","address":"인천광역시 중구 제물량로 329-1(송월동2가)","lat":37.47996879,"lng":126.6198407,"totalSpaces":95,"isFree":false,"operatingDays":"평일+토요일+공휴일","weekdayOpen":"00:00","weekdayClose":"23:59","weekendOpen":"10:00","weekendClose":"20:00","holidayOpen":"10:00","holidayClose":"20:00","feeInfo":"기본 30분 1,000원 / 추가 15분당 500원","phone":"032-763-8146","updatedAt":"2025-12-26","sido":"인천광역시","sigungu":"중구","dong":"송월동2가"},{"name":"항동7가공영주차장","type":"공영","category":"노외","address":"인천광역시 중구 항동7가 82-38","lat":37.44611111,"lng":126.6010854,"totalSpaces":93,"isFree":false,"operatingDays":"평일+토요일+공휴일","weekdayOpen":"00:00","weekdayClose":"23:59","weekendOpen":"00:00","weekendClose":"23:59","holidayOpen":"00:00","holidayClose":"23:59","feeInfo":"기본 30분 400원 / 추가 15분당 150원","phone":"032-763-8146","updatedAt":"2025-12-26","sido":"인천광역시","sigungu":"중구","dong":"항동7가"},{"name":"구인천여고","type":"공영","category":"노외","address":"인천광역시 중구 참외전로 100","lat":37.47711266,"lng":126.629501,"totalSpaces":90,"isFree":false,"operatingDays":"평일+토요일+공휴일","weekdayOpen":"00:00","weekdayClose":"23:59","weekendOpen":"00:00","weekendClose":"23:59","holidayOpen":"00:00","holidayClose":"23:59","feeInfo":"기본 30분 400원 / 추가 15분당 200원","phone":"032-579-2701","updatedAt":"2025-06-26","sido":"인천광역시","sigungu":"중구","dong":"전동"},{"name":"구인천여고","type":"공영","category":"노외","address":"인천광역시 중구 참외전로 100","lat":37.47711266,"lng":126.629501,"totalSpaces":90,"isFree":false,"operatingDays":"평일+토요일+공휴일","weekdayOpen":"00:01","weekdayClose":"12:00","weekendOpen":"00:01","weekendClose":"12:00","holidayOpen":"00:01","holidayClose":"12:00","feeInfo":"기본 30분 400원 / 추가 15분당 200원","phone":"032-579-2701","updatedAt":"2025-06-25","sido":"인천광역시","sigungu":"중구","dong":"전동"},{"name":"동인천공영주차장","type":"공영","category":"노외","address":"인천광역시 중구 큰우물로20번길 3-6","lat":37.47379456,"lng":126.6321943,"totalSpaces":73,"isFree":false,"operatingDays":"평일+토요일+공휴일","weekdayOpen":"00:00","weekdayClose":"23:59","weekendOpen":"00:00","weekendClose":"23:59","holidayOpen":"00:00","holidayClose":"23:59","feeInfo":"기본 30분 400원 / 추가 15분당 200원","phone":"032-579-2701","updatedAt":"2025-12-26","sido":"인천광역시","sigungu":"중구","dong":"용동"},{"name":"신포동공영주차장","type":"공영","category":"노외","address":"인천광역시 중구 해안동4가 1-1","lat":37.4705883,"lng":126.6237378,"totalSpaces":71,"isFree":false,"operatingDays":"평일+토요일+공휴일","weekdayOpen":"00:00","weekdayClose":"23:59","weekendOpen":"00:00","weekendClose":"23:59","holidayOpen":"00:00","holidayClose":"23:59","feeInfo":"기본 30분 600원 / 추가 15분당 300원","phone":"032-579-2701","updatedAt":"2025-12-26","sido":"인천광역시","sigungu":"중구","dong":"해안동4가"},{"name":"전동공영주차장","type":"공영","category":"노외","address":"인천광역시 중구 홍예문로 67(전동)","lat":37.47590775,"lng":126.6268389,"totalSpaces":70,"isFree":false,"operatingDays":"평일+토요일+공휴일","weekdayOpen":"11:00","weekdayClose":"20:00","weekendOpen":"11:00","weekendClose":"20:00","holidayOpen":"11:00","holidayClose":"20:00","feeInfo":"기본 30분 600원 / 추가 15분당 300원","phone":"032-763-8146","updatedAt":"2025-12-26","sido":"인천광역시","sigungu":"중구","dong":""},{"name":"신포동","type":"공영","category":"노외","address":"인천광역시 중구 홍예문로 4","lat":37.47105574,"lng":126.6231189,"totalSpaces":60,"isFree":false,"operatingDays":"평일+토요일+공휴일","weekdayOpen":"00:00","weekdayClose":"23:59","weekendOpen":"00:00","weekendClose":"23:59","holidayOpen":"00:00","holidayClose":"23:59","feeInfo":"기본 30분 600원 / 추가 15분당 300원","phone":"032-579-2701","updatedAt":"2025-06-26","sido":"인천광역시","sigungu":"중구","dong":"해안동4가"},{"name":"신 포 동","type":"공영","category":"노외","address":"인천광역시 중구 홍예문로 4","lat":37.47105574,"lng":126.6231189,"totalSpaces":60,"isFree":false,"operatingDays":"평일+토요일+공휴일","weekdayOpen":"00:01","weekdayClose":"12:00","weekendOpen":"00:01","weekendClose":"12:00","holidayOpen":"00:01","holidayClose":"12:00","feeInfo":"기본 30분 600원 / 추가 15분당 300원","phone":"032-579-2701","updatedAt":"2025-06-25","sido":"인천광역시","sigungu":"중구","dong":"해안동4가"},{"name":"내동공영주차장","type":"공영","category":"노외","address":"인천광역시 중구 내동 108","lat":37.472221,"lng":126.6270319,"totalSpaces":59,"isFree":false,"operatingDays":"평일+토요일+공휴일","weekdayOpen":"11:00","weekdayClose":"20:00","weekendOpen":"11:00","weekendClose":"20:00","holidayOpen":"11:00","holidayClose":"20:00","feeInfo":"기본 30분 600원 / 추가 15분당 300원","phone":"032-763-8146","updatedAt":"2025-12-26","sido":"인천광역시","sigungu":"중구","dong":"내동"},{"name":"동인천","type":"공영","category":"노외","address":"인천광역시 중구 큰우물로 20번길 3-6","lat":37.47370482,"lng":126.6321927,"totalSpaces":59,"isFree":false,"operatingDays":"평일+토요일+공휴일","weekdayOpen":"00:00","weekdayClose":"23:59","weekendOpen":"00:00","weekendClose":"23:59","holidayOpen":"00:00","holidayClose":"23:59","feeInfo":"기본 30분 400원 / 추가 15분당 200원","phone":"032-579-2701","updatedAt":"2025-06-26","sido":"인천광역시","sigungu":"중구","dong":"용동"},{"name":"동 인 천","type":"공영","category":"노외","address":"인천광역시 중구 큰우물로 20번길 3-4","lat":37.47370482,"lng":126.6323078,"totalSpaces":59,"isFree":false,"operatingDays":"평일+토요일+공휴일","weekdayOpen":"00:01","weekdayClose":"12:00","weekendOpen":"00:01","weekendClose":"12:00","holidayOpen":"00:01","holidayClose":"12:00","feeInfo":"기본 30분 400원 / 추가 15분당 200원","phone":"032-579-2701","updatedAt":"2025-06-25","sido":"인천광역시","sigungu":"중구","dong":"용동"},{"name":"경동공영주차장","type":"공영","category":"노외","address":"인천광역시 중구 경동 225-1","lat":37.47153624,"lng":126.6308467,"totalSpaces":57,"isFree":false,"operatingDays":"평일+토요일+공휴일","weekdayOpen":"10:00","weekdayClose":"19:00","weekendOpen":"10:00","weekendClose":"19:00","holidayOpen":"10:00","holidayClose":"19:00","feeInfo":"기본 30분 600원 / 추가 15분당 300원","phone":"032-763-8146","updatedAt":"2025-12-26","sido":"인천광역시","sigungu":"중구","dong":"경동"},{"name":"용동공영주차장","type":"공영","category":"노외","address":"인천광역시 중구 용동 177-1","lat":37.47346239,"lng":126.6305391,"totalSpaces":49,"isFree":false,"operatingDays":"평일+토요일+공휴일","weekdayOpen":"11:00","weekdayClose":"20:00","weekendOpen":"11:00","weekendClose":"20:00","holidayOpen":"11:00","holidayClose":"20:00","feeInfo":"기본 30분 1,000원 / 추가 15분당 500원","phone":"032-763-8146","updatedAt":"2025-12-26","sido":"인천광역시","sigungu":"중구","dong":"용동"},{"name":"눈돌마을","type":"공영","category":"노외","address":"인천광역시 중구 신도시남로 28","lat":37.49272936,"lng":126.4845079,"totalSpaces":46,"isFree":false,"operatingDays":"평일+토요일+공휴일","weekdayOpen":"00:00","weekdayClose":"23:59","weekendOpen":"00:00","weekendClose":"23:59","holidayOpen":"00:00","holidayClose":"23:59","feeInfo":"기본 30분 400원 / 추가 15분당 200원","phone":"032-751-7847","updatedAt":"2025-06-26","sido":"인천광역시","sigungu":"중구","dong":"운서동"},{"name":"동인천삼치거리공영주차장","type":"공영","category":"노외","address":"인천광역시 중구 내동 6-2","lat":37.47507754,"lng":126.6287196,"totalSpaces":40,"isFree":false,"operatingDays":"평일+토요일+공휴일","weekdayOpen":"00:00","weekdayClose":"23:59","weekendOpen":"00:00","weekendClose":"23:59","holidayOpen":"00:00","holidayClose":"23:59","feeInfo":"기본 30분 1,000원 / 추가 15분당 500원","phone":"032-763-8146","updatedAt":"2025-12-26","sido":"인천광역시","sigungu":"중구","dong":"내동"},{"name":"신흥시장공영주차장","type":"공영","category":"노외","address":"인천광역시 중구 도원서길 23","lat":37.46688431,"lng":126.6360382,"totalSpaces":39,"isFree":false,"operatingDays":"평일+토요일+공휴일","weekdayOpen":"10:00","weekdayClose":"19:00","weekendOpen":"10:00","weekendClose":"23:59","holidayOpen":"10:00","holidayClose":"23:59","feeInfo":"기본 30분 400원 / 추가 15분당 200원","phone":"032-763-8146","updatedAt":"2025-12-26","sido":"인천광역시","sigungu":"중구","dong":"신흥동2가"},{"name":"운서1","type":"공영","category":"노외","address":"인천광역시 중구 신도시남로 142번길","lat":37.494173,"lng":126.491607,"totalSpaces":38,"isFree":false,"operatingDays":"평일+토요일+공휴일","weekdayOpen":"00:00","weekdayClose":"23:59","weekendOpen":"00:00","weekendClose":"23:59","holidayOpen":"00:00","holidayClose":"23:59","feeInfo":"기본 30분 600원 / 추가 15분당 300원","phone":"032-751-7847","updatedAt":"2025-06-26","sido":"인천광역시","sigungu":"중구","dong":"운서동"},{"name":"운 서 1","type":"공영","category":"노외","address":"인천광역시 중구 운서동 2802-4","lat":37.494173,"lng":126.491607,"totalSpaces":38,"isFree":false,"operatingDays":"평일+토요일+공휴일","weekdayOpen":"00:01","weekdayClose":"12:00","weekendOpen":"00:01","weekendClose":"12:00","holidayOpen":"00:01","holidayClose":"12:00","feeInfo":"기본 30분 600원 / 추가 15분당 300원","phone":"032-579-2701","updatedAt":"2025-06-25","sido":"인천광역시","sigungu":"중구","dong":"운서동"},{"name":"신포제2공영주차장","type":"공영","category":"노외","address":"인천광역시 중구 우현로39번길 3(신포동)","lat":37.47076338,"lng":126.6275291,"totalSpaces":37,"isFree":false,"operatingDays":"평일+토요일+공휴일","weekdayOpen":"10:00","weekdayClose":"19:00","weekendOpen":"10:00","weekendClose":"19:00","holidayOpen":"10:00","holidayClose":"19:00","feeInfo":"기본 30분 1,000원 / 추가 15분당 500원","phone":"032-763-8146","updatedAt":"2025-12-26","sido":"인천광역시","sigungu":"중구","dong":"신포동"},{"name":"제물량로제1노상주차장","type":"공영","category":"노상","address":"인천광역시 중구 제물량로 329(송월동2가)","lat":37.48009974,"lng":126.6202154,"totalSpaces":30,"isFree":false,"operatingDays":"평일+토요일+공휴일","weekdayOpen":"00:00","weekdayClose":"23:59","weekendOpen":"00:00","weekendClose":"23:59","holidayOpen":"00:00","holidayClose":"23:59","feeInfo":"기본 30분 1,000원 / 추가 15분당 500원","phone":"032-763-8146","updatedAt":"2025-12-26","sido":"인천광역시","sigungu":"중구","dong":"송월동2가"},{"name":"은골1","type":"공영","category":"노외","address":"인천광역시 중구 은골로 42","lat":37.4963519,"lng":126.4917032,"totalSpaces":29,"isFree":false,"operatingDays":"평일+토요일+공휴일","weekdayOpen":"00:00","weekdayClose":"23:59","weekendOpen":"00:00","weekendClose":"23:59","holidayOpen":"00:00","holidayClose":"23:59","feeInfo":"기본 30분 400원 / 추가 15분당 200원","phone":"032-751-7847","updatedAt":"2025-06-26","sido":"인천광역시","sigungu":"중구","dong":"운서동"},{"name":"은 골 1","type":"공영","category":"노외","address":"인천광역시 중구 은골로 42","lat":37.4963519,"lng":126.4917032,"totalSpaces":29,"isFree":false,"operatingDays":"평일+토요일+공휴일","weekdayOpen":"00:01","weekdayClose":"12:00","weekendOpen":"00:01","weekendClose":"12:00","holidayOpen":"00:01","holidayClose":"12:00","feeInfo":"기본 0분 0원","phone":"032-579-2701","updatedAt":"2025-06-25","sido":"인천광역시","sigungu":"중구","dong":"운서동"},{"name":"누들플랫폼공영주차장","type":"공영","category":"노외","address":"인천광역시 중구 신포로27번길 36(관동2가)","lat":37.4725381,"lng":126.6235252,"totalSpaces":27,"isFree":false,"operatingDays":"평일+토요일+공휴일","weekdayOpen":"00:00","weekdayClose":"23:59","weekendOpen":"00:00","weekendClose":"23:59","holidayOpen":"00:00","holidayClose":"23:59","feeInfo":"기본 30분 1,000원 / 추가 15분당 500원","phone":"032-763-8146","updatedAt":"2025-12-26","sido":"인천광역시","sigungu":"중구","dong":"관동2가"},{"name":"신흥시장제2공영주차장","type":"공영","category":"노외","address":"인천광역시 중구 선화동 28-2","lat":37.4661154,"lng":126.6365978,"totalSpaces":14,"isFree":false,"operatingDays":"평일+토요일+공휴일","weekdayOpen":"00:00","weekdayClose":"23:59","weekendOpen":"00:00","weekendClose":"23:59","holidayOpen":"00:00","holidayClose":"23:59","feeInfo":"기본 30분 400원 / 추가 15분당 200원","phone":"032-763-8146","updatedAt":"2025-12-26","sido":"인천광역시","sigungu":"중구","dong":"선화동"},{"name":"동화마을제2공영주차장","type":"공영","category":"노외","address":"인천광역시 중구 제물량로 307(북성동2가)","lat":37.47877173,"lng":126.6185579,"totalSpaces":9,"isFree":false,"operatingDays":"평일+토요일+공휴일","weekdayOpen":"08:00","weekdayClose":"22:00","weekendOpen":"08:00","weekendClose":"22:00","holidayOpen":"08:00","holidayClose":"22:00","feeInfo":"기본 0분 0원","phone":"032-763-8146","updatedAt":"2025-12-26","sido":"인천광역시","sigungu":"중구","dong":"북성동2가"}]}