{
  "items": [
    {
      "naverPlaceId": "36003297",
      "name": "시범공영주차장",
      "address": "서울특별시 강북구 수유동 190-11",
      "roadAddress": "서울특별시 강북구 한천로139가길 10",
      "lat": 37.6399534,
      "lng": 127.0257954,
      "phone": "02-944-3029",
      "dong": "수유동"
    },
    {
      "naverPlaceId": "555878752",
      "name": "수유마을시장 공영주차장",
      "address": "서울특별시 강북구 수유동 55-29",
      "roadAddress": "서울특별시 강북구 도봉로69길 29",
      "lat": 37.6305407,
      "lng": 127.0218176,
      "phone": "",
      "dong": "수유동"
    },
    {
      "naverPlaceId": "21186025",
      "name": "송중동공영주차장",
      "address": "서울특별시 강북구 미아동 48-1 송중동 공영주차장",
      "roadAddress": "서울특별시 강북구 월계로7길 36 송중동 공영주차장",
      "lat": 37.611756,
      "lng": 127.0334898,
      "phone": "",
      "dong": "미아동"
    },
    {
      "naverPlaceId": "35913821",
      "name": "수유쌈지 공영 주차장",
      "address": "서울특별시 강북구 수유동 612-6",
      "roadAddress": "",
      "lat": 37.6320804,
      "lng": 127.0235852,
      "phone": "02-944-3025",
      "dong": "수유동"
    },
    {
      "naverPlaceId": "36003298",
      "name": "교통광장공영주차장",
      "address": "서울특별시 강북구 우이동 265-17",
      "roadAddress": "",
      "lat": 37.6634249,
      "lng": 127.0128141,
      "phone": "02-944-3027",
      "dong": "우이동"
    },
    {
      "naverPlaceId": "18604800",
      "name": "미아동공영주차장",
      "address": "서울특별시 강북구 미아동 222-100 공영주차장",
      "roadAddress": "서울특별시 강북구 도봉로61길 46 미아동공영주차장",
      "lat": 37.6285589,
      "lng": 127.022376,
      "phone": "02-944-3048",
      "dong": "미아동"
    },
    {
      "naverPlaceId": "21185801",
      "name": "인수동공영주차장",
      "address": "서울특별시 강북구 수유동 126",
      "roadAddress": "서울특별시 강북구 삼양로92길 34",
      "lat": 37.6361118,
      "lng": 127.018403,
      "phone": "",
      "dong": "수유동"
    },
    {
      "naverPlaceId": "1315962441",
      "name": "우이동공영주차장",
      "address": "서울특별시 강북구 우이동 105-2",
      "roadAddress": "서울특별시 강북구 삼양로155길 33",
      "lat": 37.6567272,
      "lng": 127.0115951,
      "phone": "",
      "dong": "우이동"
    },
    {
      "naverPlaceId": "1896080872",
      "name": "어울림소공원 공영 주차장",
      "address": "서울특별시 강북구 미아동 4-1 어울림소공원 지하공용주차장",
      "roadAddress": "서울특별시 강북구 오현로 46 어울림소공원 지하공용주차장",
      "lat": 37.6168916,
      "lng": 127.035463,
      "phone": "",
      "dong": "미아동"
    },
    {
      "naverPlaceId": "21185790",
      "name": "가오리공영주차장",
      "address": "서울특별시 강북구 수유동 349-3 가오리공영주차장",
      "roadAddress": "서울특별시 강북구 삼양로107길 30 가오리공영주차장",
      "lat": 37.6414741,
      "lng": 127.0150735,
      "phone": "02-944-3046",
      "dong": "수유동"
    },
    {
      "naverPlaceId": "18614469",
      "name": "수유2동공영주차장",
      "address": "서울특별시 강북구 수유동 660-30",
      "roadAddress": "서울특별시 강북구 한천로160길 40",
      "lat": 37.6460819,
      "lng": 127.021825,
      "phone": "02-900-7443",
      "dong": "수유동"
    },
    {
      "naverPlaceId": "18619230",
      "name": "교통광장공영주차장",
      "address": "서울특별시 강북구 우이동 산104 강북해병대전우회",
      "roadAddress": "서울특별시 강북구 삼양로170길 62 강북해병대전우회",
      "lat": 37.6634258,
      "lng": 127.0129366,
      "phone": "",
      "dong": "우이동"
    },
    {
      "naverPlaceId": "1544655913",
      "name": "장미원시장공영주차장",
      "address": "서울특별시 강북구 수유동 294-13",
      "roadAddress": "서울특별시 강북구 인수봉로78길 24",
      "lat": 37.6444229,
      "lng": 127.0121701,
      "phone": "02-944-3025",
      "dong": "수유동"
    },
    {
      "naverPlaceId": "36010735",
      "name": "삼양마을공원 공영 주차장",
      "address": "서울특별시 강북구 미아동 748-2 삼양마을공원공영주차장",
      "roadAddress": "서울특별시 강북구 삼양로47길 15 삼양마을공원공영주차장",
      "lat": 37.6229092,
      "lng": 127.0182213,
      "phone": "02-944-3047",
      "dong": "미아동"
    },
    {
      "naverPlaceId": "36010738",
      "name": "번동햇살공영주차장",
      "address": "서울특별시 강북구 번동 148-380",
      "roadAddress": "서울특별시 강북구 오현로21길 84",
      "lat": 37.6251074,
      "lng": 127.0334118,
      "phone": "02-944-3025",
      "dong": "번동"
    },
    {
      "naverPlaceId": "21185977",
      "name": "노상공영주차장",
      "address": "서울특별시 강북구 수유동 140",
      "roadAddress": "서울특별시 강북구 한천로 1093-1",
      "lat": 37.6412654,
      "lng": 127.020675,
      "phone": "",
      "dong": "수유동"
    },
    {
      "naverPlaceId": "36010937",
      "name": "대지시장길공영주차장",
      "address": "서울특별시 강북구 미아동 703-8 대지시장길 공영주차장",
      "roadAddress": "서울특별시 강북구 솔샘로 243-8 대지시장길 공영주차장",
      "lat": 37.6201433,
      "lng": 127.0202392,
      "phone": "02-944-3035",
      "dong": "미아동"
    },
    {
      "naverPlaceId": "36010742",
      "name": "가오천노상공영주차장",
      "address": "서울특별시 강북구 수유동 147",
      "roadAddress": "",
      "lat": 37.6437448,
      "lng": 127.0250827,
      "phone": "",
      "dong": "수유동"
    },
    {
      "naverPlaceId": "18602430",
      "name": "냉천길공영주차장",
      "address": "서울특별시 강북구 미아동 756-1",
      "roadAddress": "서울특별시 강북구 삼양로 230-12",
      "lat": 37.6240815,
      "lng": 127.0194734,
      "phone": "02-944-3040",
      "dong": "미아동"
    },
    {
      "naverPlaceId": "1897398185",
      "name": "아카데미공영주차장",
      "address": "서울특별시 강북구 수유동 535-73",
      "roadAddress": "서울특별시 강북구 4.19로 105",
      "lat": 37.6437452,
      "lng": 127.0039212,
      "phone": "",
      "dong": "수유동"
    },
    {
      "naverPlaceId": "1741353015",
      "name": "송중동(임시) 공영 주차장",
      "address": "서울특별시 강북구 미아동 860-301",
      "roadAddress": "",
      "lat": 37.6110552,
      "lng": 127.0334978,
      "phone": "",
      "dong": "미아동"
    },
    {
      "naverPlaceId": "31139961",
      "name": "오패산공영주차장",
      "address": "서울특별시 강북구 미아동 133-100 오패산공영주차장",
      "roadAddress": "서울특별시 강북구 도봉로34길 54 오패산공영주차장",
      "lat": 37.6221149,
      "lng": 127.0311827,
      "phone": "02-944-3041",
      "dong": "미아동"
    },
    {
      "naverPlaceId": "695211654",
      "name": "도봉로15길 노상 공영 주차장",
      "address": "서울특별시 강북구 미아동 458-7",
      "roadAddress": "",
      "lat": 37.6167395,
      "lng": 127.0282894,
      "phone": "",
      "dong": "미아동"
    },
    {
      "naverPlaceId": "1329885245",
      "name": "도봉세무서 주차장",
      "address": "서울특별시 강북구 미아동 327-5",
      "roadAddress": "서울특별시 강북구 도봉로 117",
      "lat": 37.6195183,
      "lng": 127.0281139,
      "phone": "",
      "dong": "미아동"
    },
    {
      "naverPlaceId": "1681769383",
      "name": "미아동 주민센터 주차장",
      "address": "서울특별시 강북구 미아동 197-1",
      "roadAddress": "서울특별시 강북구 솔매로49길 14",
      "lat": 37.6269176,
      "lng": 127.026842,
      "phone": "",
      "dong": "미아동"
    },
    {
      "naverPlaceId": "36010739",
      "name": "큰마을길노상공영주차장",
      "address": "서울특별시 강북구 미아동 233",
      "roadAddress": "",
      "lat": 37.6230179,
      "lng": 127.0231329,
      "phone": "",
      "dong": "미아동"
    },
    {
      "naverPlaceId": "36010740",
      "name": "교육청길노상공영주차장",
      "address": "서울특별시 강북구 미아동 230-2",
      "roadAddress": "",
      "lat": 37.6186804,
      "lng": 127.030024,
      "phone": "02-944-3026",
      "dong": "미아동"
    },
    {
      "naverPlaceId": "579321759",
      "name": "구세군길공영주차장",
      "address": "서울특별시 강북구 미아동 791-1364",
      "roadAddress": "서울특별시 강북구 인수봉로20가길 21",
      "lat": 37.6261459,
      "lng": 127.0135207,
      "phone": "",
      "dong": "미아동"
    },
    {
      "naverPlaceId": "18602417",
      "name": "은혜공영주차장",
      "address": "서울특별시 강북구 미아동 791-1049",
      "roadAddress": "서울특별시 강북구 삼양로67길 16",
      "lat": 37.6279753,
      "lng": 127.0169763,
      "phone": "",
      "dong": "미아동"
    },
    {
      "naverPlaceId": "21185888",
      "name": "노상공영주차장",
      "address": "서울특별시 강북구 미아동 229-22",
      "roadAddress": "",
      "lat": 37.6200551,
      "lng": 127.0294149,
      "phone": "",
      "dong": "미아동"
    },
    {
      "naverPlaceId": "21185921",
      "name": "대지시장길공영주차장",
      "address": "서울특별시 강북구 미아동 703-8 대지시장길 공영주차장",
      "roadAddress": "서울특별시 강북구 솔샘로 243-8 대지시장길 공영주차장",
      "lat": 37.6202049,
      "lng": 127.0202032,
      "phone": "",
      "dong": "미아동"
    },
    {
      "naverPlaceId": "1648668699",
      "name": "미양마을마당공영주차장",
      "address": "서울특별시 강북구 미아동 791-1974",
      "roadAddress": "서울특별시 강북구 인수봉로6길 39",
      "lat": 37.6220613,
      "lng": 127.0150956,
      "phone": "",
      "dong": "미아동"
    },
    {
      "naverPlaceId": "21185740",
      "name": "청암공영주차장",
      "address": "서울특별시 강북구 미아동 791-1694 청암공영주차장",
      "roadAddress": "서울특별시 강북구 솔매로22가길 20 청암공영주차장",
      "lat": 37.6246669,
      "lng": 127.0154602,
      "phone": "",
      "dong": "미아동"
    },
    {
      "naverPlaceId": "21185990",
      "name": "삼양시장길공영주차장",
      "address": "서울특별시 강북구 미아동 791-1429 삼양시장길공영주차장",
      "roadAddress": "서울특별시 강북구 솔매로7가길 33 삼양시장길공영주차장",
      "lat": 37.6258775,
      "lng": 127.0156794,
      "phone": "",
      "dong": "미아동"
    },
    {
      "naverPlaceId": "21185779",
      "name": "번2동공영주차장",
      "address": "서울특별시 강북구 번동 148-140",
      "roadAddress": "서울특별시 강북구 오현로21길 6",
      "lat": 37.6266968,
      "lng": 127.0366241,
      "phone": "",
      "dong": "번동"
    },
    {
      "naverPlaceId": "186666514",
      "name": "강북문화정보도서관주차장",
      "address": "서울특별시 강북구 번동 147 강북문화정보도서관",
      "roadAddress": "서울특별시 강북구 오현로 145 강북문화정보도서관",
      "lat": 37.6248351,
      "lng": 127.0360823,
      "phone": "",
      "dong": "번동"
    },
    {
      "naverPlaceId": "36773942",
      "name": "수송초등학교주차장",
      "address": "서울특별시 강북구 번동 456",
      "roadAddress": "서울특별시 강북구 한천로124길 14",
      "lat": 37.6375115,
      "lng": 127.0333846,
      "phone": "",
      "dong": "번동"
    },
    {
      "naverPlaceId": "1103808504",
      "name": "수송초등학교 지하 공영주차장",
      "address": "서울특별시 강북구 번동 456 수송초등학교 지하 공영주차장",
      "roadAddress": "서울특별시 강북구 한천로124길 14 (번동) 수송초등학교 지하 공영주차장",
      "lat": 37.6372817,
      "lng": 127.0329664,
      "phone": "",
      "dong": "번동"
    },
    {
      "naverPlaceId": "1255820112",
      "name": "번동 햇살 공영주차장 전기차충전소",
      "address": "서울특별시 강북구 번동 148-380 햇살 공영주차장 ( 148-380)",
      "roadAddress": "서울특별시 강북구 오현로21길 84 번동 햇살 공영주차장 (번동 148-380)",
      "lat": 37.624958,
      "lng": 127.0332077,
      "phone": "1661-9408",
      "dong": "번동"
    },
    {
      "naverPlaceId": "1221749743",
      "name": "번2동 공영주차장",
      "address": "서울특별시 강북구 번동 148-140 번2동 공영주차장",
      "roadAddress": "서울특별시 강북구 오현로21길 6 (번동) 번2동 공영주차장",
      "lat": 37.6266969,
      "lng": 127.0366241,
      "phone": "",
      "dong": "번동"
    },
    {
      "naverPlaceId": "1349877531",
      "name": "번동햇살 공영주차장 전기차충전시설",
      "address": "서울특별시 강북구 번동 148-380 햇살 공영주차장 전기차충전시설 지상2층",
      "roadAddress": "서울특별시 강북구 오현로21길 84 (번동) 번동햇살 공영주차장 전기차충전시설 지상2층",
      "lat": 37.6250961,
      "lng": 127.0334139,
      "phone": "",
      "dong": "번동"
    },
    {
      "naverPlaceId": "1388364012",
      "name": "수송초등학교 공영주차장 전기차충전시설",
      "address": "서울특별시 강북구 번동 456 수송초등학교 공영주차장 전기차충전시설",
      "roadAddress": "서울특별시 강북구 한천로124길 14 (번동) 수송초등학교 공영주차장 전기차충전시설",
      "lat": 37.6372817,
      "lng": 127.0329664,
      "phone": "",
      "dong": "번동"
    },
    {
      "naverPlaceId": "1402560401",
      "name": "번동햇살공영주차장지하2층입구",
      "address": "서울특별시 강북구 번동",
      "roadAddress": "",
      "lat": 37.6250979,
      "lng": 127.0337039,
      "phone": "",
      "dong": "번동"
    },
    {
      "naverPlaceId": "1435605049",
      "name": "번동햇살 공영주차장 전기차충전소",
      "address": "서울특별시 강북구 번동 148-380",
      "roadAddress": "서울특별시 강북구 오현로21길 84",
      "lat": 37.625084,
      "lng": 127.033404,
      "phone": "1588-5339",
      "dong": "번동"
    },
    {
      "naverPlaceId": "1550167567",
      "name": "번동햇살공영주차장지상1층입구",
      "address": "서울특별시 강북구 번동",
      "roadAddress": "",
      "lat": 37.6249094,
      "lng": 127.0333298,
      "phone": "",
      "dong": "번동"
    },
    {
      "naverPlaceId": "1622304241",
      "name": "번동햇살 공영주차장",
      "address": "서울특별시 강북구 번동 148-380 햇살 공영주차장",
      "roadAddress": "서울특별시 강북구 오현로21길 84 (번동) 번동햇살 공영주차장",
      "lat": 37.6250961,
      "lng": 127.0334139,
      "phone": "",
      "dong": "번동"
    },
    {
      "naverPlaceId": "1793819085",
      "name": "번동햇살공영주차장지상2층입구",
      "address": "서울특별시 강북구 번동",
      "roadAddress": "",
      "lat": 37.6250492,
      "lng": 127.0330985,
      "phone": "",
      "dong": "번동"
    },
    {
      "naverPlaceId": "1938232993",
      "name": "번동햇살 공영주차장 전기차충전소",
      "address": "서울특별시 강북구 번동 148-380",
      "roadAddress": "서울특별시 강북구 오현로21길 84",
      "lat": 37.625084,
      "lng": 127.033404,
      "phone": "1588-5339",
      "dong": "번동"
    },
    {
      "naverPlaceId": "1956105347",
      "name": "번동햇살공영주차장지하1층입구",
      "address": "서울특별시 강북구 번동",
      "roadAddress": "",
      "lat": 37.6250015,
      "lng": 127.0335056,
      "phone": "",
      "dong": "번동"
    },
    {
      "naverPlaceId": "36010736",
      "name": "색동어린이공원공영주차장",
      "address": "서울특별시 강북구 수유동 49-7 색동공원공영주차장",
      "roadAddress": "서울특별시 강북구 삼양로80나길 52 색동공원공영주차장",
      "lat": 37.6331973,
      "lng": 127.0205794,
      "phone": "",
      "dong": "수유동"
    },
    {
      "naverPlaceId": "1897886469",
      "name": "수유일공원공영주차장",
      "address": "서울특별시 강북구 수유동 605-407",
      "roadAddress": "서울특별시 강북구 삼양로79길 5",
      "lat": 37.6306692,
      "lng": 127.0174066,
      "phone": "",
      "dong": "수유동"
    },
    {
      "naverPlaceId": "35913823",
      "name": "나눔터길노상공영주차장",
      "address": "서울특별시 강북구 수유동 45-26",
      "roadAddress": "",
      "lat": 37.6351035,
      "lng": 127.0194685,
      "phone": "",
      "dong": "수유동"
    },
    {
      "naverPlaceId": "35913822",
      "name": "벽산 노상 공영 주차장",
      "address": "서울특별시 강북구 수유동 605-264",
      "roadAddress": "",
      "lat": 37.6409791,
      "lng": 127.0187471,
      "phone": "",
      "dong": "수유동"
    },
    {
      "naverPlaceId": "1817668215",
      "name": "빨래골 노상 공영 주차장",
      "address": "서울특별시 강북구 수유동 49-27",
      "roadAddress": "서울특별시 강북구 수유로 30",
      "lat": 37.63342,
      "lng": 127.019379,
      "phone": "",
      "dong": "수유동"
    },
    {
      "naverPlaceId": "1061674361",
      "name": "수유마을시장 공영주차장 개방화장실",
      "address": "서울특별시 강북구 수유동 55-29",
      "roadAddress": "서울특별시 강북구 도봉로69길 29",
      "lat": 37.6305519,
      "lng": 127.0218375,
      "phone": "",
      "dong": "수유동"
    },
    {
      "naverPlaceId": "1287061805",
      "name": "수유일공원공영주차장입구",
      "address": "서울특별시 강북구 수유동",
      "roadAddress": "",
      "lat": 37.6307456,
      "lng": 127.0174228,
      "phone": "",
      "dong": "수유동"
    },
    {
      "naverPlaceId": "1812680268",
      "name": "가오리 공영주차장",
      "address": "서울특별시 강북구 수유동 349-3 가오리 공영주차장",
      "roadAddress": "서울특별시 강북구 삼양로107길 30 (수유동) 가오리 공영주차장",
      "lat": 37.6415956,
      "lng": 127.0150094,
      "phone": "",
      "dong": "수유동"
    },
    {
      "naverPlaceId": "1958850180",
      "name": "인수동 공영주차장 개방화장실",
      "address": "서울특별시 강북구 수유동 126",
      "roadAddress": "서울특별시 강북구 삼양로92길 34",
      "lat": 37.6360518,
      "lng": 127.0183879,
      "phone": "",
      "dong": "수유동"
    },
    {
      "naverPlaceId": "1952500294",
      "name": "수유동 가오천 공영주차장 전기차충전소",
      "address": "서울특별시 강북구 수유동 141",
      "roadAddress": "",
      "lat": 37.6435115,
      "lng": 127.0237661,
      "phone": "02-2640-5199",
      "dong": "수유동"
    },
    {
      "naverPlaceId": "1210370981",
      "name": "우이공영차고지",
      "address": "서울특별시 강북구 우이동 6-1 동아운수",
      "roadAddress": "서울특별시 강북구 삼양로 648 동아운수",
      "lat": 37.6609167,
      "lng": 127.0140665,
      "phone": "",
      "dong": "우이동"
    },
    {
      "naverPlaceId": "1636025598",
      "name": "교통광장공영주차장입구",
      "address": "서울특별시 강북구 우이동",
      "roadAddress": "",
      "lat": 37.6634896,
      "lng": 127.0126053,
      "phone": "",
      "dong": "우이동"
    },
    {
      "naverPlaceId": "1184919345",
      "name": "우이동 공영주차장",
      "address": "서울특별시 강북구 우이동 105-2 공영주차장",
      "roadAddress": "서울특별시 강북구 삼양로155길 33 (우이동) 우이동 공영주차장",
      "lat": 37.6567272,
      "lng": 127.0115951,
      "phone": "",
      "dong": "우이동"
    },
    {
      "naverPlaceId": "1179398799",
      "name": "우이동 공영주차장 전기차충전소",
      "address": "서울특별시 강북구 우이동 105-2",
      "roadAddress": "서울특별시 강북구 삼양로155길 33",
      "lat": 37.6567099,
      "lng": 127.011552,
      "phone": "1588-5339",
      "dong": "우이동"
    },
    {
      "naverPlaceId": "1857159734",
      "name": "교통광장 공영주차장",
      "address": "서울특별시 강북구 우이동 265 교통광장 공영주차장",
      "roadAddress": "서울특별시 강북구 삼양로 678 (우이동) 교통광장 공영주차장",
      "lat": 37.663389,
      "lng": 127.0127184,
      "phone": "",
      "dong": "우이동"
    },
    {
      "naverPlaceId": "1867765361",
      "name": "우이동공영주차장입출구",
      "address": "서울특별시 강북구 우이동",
      "roadAddress": "",
      "lat": 37.6568251,
      "lng": 127.0117192,
      "phone": "",
      "dong": "우이동"
    },
    {
      "naverPlaceId": "18618545",
      "name": "교통광장공영주차장입구",
      "address": "서울특별시 강북구 우이동",
      "roadAddress": "",
      "lat": 37.6637895,
      "lng": 127.012406,
      "phone": "",
      "dong": "우이동"
    },
    {
      "naverPlaceId": "1460410382",
      "name": "교통광장 공영주차장 전기차충전시설",
      "address": "서울특별시 강북구 우이동 265 교통광장 공영주차장 전기차충전시설",
      "roadAddress": "서울특별시 강북구 삼양로 678 (우이동) 교통광장 공영주차장 전기차충전시설",
      "lat": 37.663389,
      "lng": 127.0127184,
      "phone": "",
      "dong": "우이동"
    },
    {
      "naverPlaceId": "1619033205",
      "name": "우이동 공영주차장 전기차충전시설",
      "address": "서울특별시 강북구 우이동 105-2 공영주차장 전기차충전시설 지상 2층",
      "roadAddress": "서울특별시 강북구 삼양로155길 33 (우이동) 우이동 공영주차장 전기차충전시설 지상 2층",
      "lat": 37.6567272,
      "lng": 127.0115951,
      "phone": "",
      "dong": "우이동"
    }
  ],
  "sido": "서울특별시",
  "sigungu": "강북구",
  "totalCount": 68,
  "source": "naver-map",
  "scrapedAt": "2026-02-10"
}