{
  "items": [
    {
      "naverPlaceId": "35940205",
      "name": "신구초교 공영주차장",
      "address": "서울특별시 강남구 신사동 550-11",
      "roadAddress": "서울특별시 강남구 압구정로18길 28",
      "lat": 37.522681,
      "lng": 127.023435,
      "phone": "1544-3113",
      "dong": "신사동"
    },
    {
      "naverPlaceId": "1429724383",
      "name": "남부순환로397길 공영노상주차장",
      "address": "서울특별시 강남구 대치동 629",
      "roadAddress": "서울특별시 강남구 남부순환로 2913",
      "lat": 37.4927572,
      "lng": 127.0585437,
      "phone": "",
      "dong": "대치동"
    },
    {
      "naverPlaceId": "36015851",
      "name": "언주로171길노상공영주차장",
      "address": "서울특별시 강남구 신사동 668-11",
      "roadAddress": "",
      "lat": 37.5275666,
      "lng": 127.0324919,
      "phone": "1544-3113",
      "dong": "신사동"
    },
    {
      "naverPlaceId": "21295763",
      "name": "수서역공영주차장",
      "address": "서울특별시 강남구 수서동 735",
      "roadAddress": "",
      "lat": 37.4879314,
      "lng": 127.0999341,
      "phone": "02-3405-4076",
      "dong": "수서동"
    },
    {
      "naverPlaceId": "1460911431",
      "name": "압구정428공영주차장",
      "address": "서울특별시 강남구 압구정로 161",
      "roadAddress": "서울 강남구 압구정동 압구정로 161",
      "lat": 37.527105,
      "lng": 127.0265739,
      "phone": "1544-3113",
      "dong": "압구정동"
    },
    {
      "naverPlaceId": "1851819290",
      "name": "탄천제2호 공영노외주차장",
      "address": "서울특별시 강남구 양재대로 55길28",
      "roadAddress": "서울 강남구 양재대로55길 28",
      "lat": 37.4941796,
      "lng": 127.0877417,
      "phone": "1544-3113",
      "dong": "일원동"
    },
    {
      "naverPlaceId": "1751307322",
      "name": "역삼문화공원제1호공영주차장",
      "address": "서울특별시 강남구 테헤란로7길 21",
      "roadAddress": "서울 강남구 테헤란로7길 21",
      "lat": 37.5001169,
      "lng": 127.0299983,
      "phone": "1544-3113",
      "dong": "역삼동"
    },
    {
      "naverPlaceId": "36502404",
      "name": "언북초등학교주차장",
      "address": "서울특별시 강남구 삼성로 135길 42",
      "roadAddress": "서울 강남구 삼성로135길 42",
      "lat": 37.5200788,
      "lng": 127.0447936,
      "phone": "1544-3113",
      "dong": "청담동"
    },
    {
      "naverPlaceId": "1190123313",
      "name": "헌릉로745길공영주차장",
      "address": "서울특별시 강남구 헌릉로745길",
      "roadAddress": "서울 강남구 헌릉로745길 20",
      "lat": 37.4685072,
      "lng": 127.1182885,
      "phone": "1544-3113",
      "dong": "율현동"
    },
    {
      "naverPlaceId": "38494965",
      "name": "언주초교 주차장",
      "address": "서울특별시 강남구 남부순환로363길19",
      "roadAddress": "서울 강남구 남부순환로363길 19",
      "lat": 37.4867169,
      "lng": 127.0377179,
      "phone": "1544-3113",
      "dong": "도곡동"
    },
    {
      "naverPlaceId": "1232495941",
      "name": "도곡초교 공영 주차장",
      "address": "서울특별시 강남구 선릉로 64길 33",
      "roadAddress": "서울 강남구 선릉로64길 33",
      "lat": 37.4996731,
      "lng": 127.0549161,
      "phone": "1544-3113",
      "dong": "대치동"
    },
    {
      "naverPlaceId": "1041388360",
      "name": "포이초교주차장",
      "address": "서울특별시 강남구 개포로22길 87",
      "roadAddress": "서울 강남구 개포로22길 87",
      "lat": 37.4755821,
      "lng": 127.0522994,
      "phone": "1544-3113",
      "dong": "개포동"
    },
    {
      "naverPlaceId": "1094494340",
      "name": "논현초교 공영 주차장",
      "address": "서울특별시 강남구 강남대로 120길33",
      "roadAddress": "서울 강남구 강남대로120길 33",
      "lat": 37.5081904,
      "lng": 127.0267648,
      "phone": "1544-3113",
      "dong": "논현동"
    },
    {
      "naverPlaceId": "18848982",
      "name": "영희초등학교공영주차장",
      "address": "서울특별시 강남구 일원로21",
      "roadAddress": "서울 강남구 일원로 21",
      "lat": 37.4922305,
      "lng": 127.0809885,
      "phone": "1544-3113",
      "dong": "일원동"
    },
    {
      "naverPlaceId": "36501462",
      "name": "신구초등학교주차장",
      "address": "서울특별시 강남구 압구정로 18길 28",
      "roadAddress": "서울 강남구 압구정로18길 28",
      "lat": 37.5233265,
      "lng": 127.0236406,
      "phone": "1544-3113",
      "dong": "신사동"
    },
    {
      "naverPlaceId": "35977147",
      "name": "학여울역공영주차장",
      "address": "서울특별시 강남구 대치동 514-1",
      "roadAddress": "서울 강남구 남부순환로 3104 SETEC",
      "lat": 37.4969288,
      "lng": 127.0727001,
      "phone": "02-3405-4074",
      "dong": "대치동"
    },
    {
      "naverPlaceId": "21186131",
      "name": "일원대치길공영노상주차장",
      "address": "서울특별시 강남구 개포로 623-1",
      "roadAddress": "서울 강남구 개포로 623-1",
      "lat": 37.4933324,
      "lng": 127.0763904,
      "phone": "1544-3113",
      "dong": "개포동"
    },
    {
      "naverPlaceId": "36003294",
      "name": "대치2동문화센터 공영주차장",
      "address": "서울특별시 강남구 영동대로 65길 24",
      "roadAddress": "서울 강남구 영동대로65길 24",
      "lat": 37.5021227,
      "lng": 127.0639223,
      "phone": "1544-3113",
      "dong": "대치동"
    },
    {
      "naverPlaceId": "18803861",
      "name": "개포동공원 공영주차장입출구",
      "address": "서울특별시 강남구 개포로 509",
      "roadAddress": "서울 강남구 개포로 509",
      "lat": 37.4895625,
      "lng": 127.0683234,
      "phone": "1544-3113",
      "dong": "개포동"
    },
    {
      "naverPlaceId": "1502796498",
      "name": "압구정로29길 주차장",
      "address": "서울특별시 강남구 압구정로29길",
      "roadAddress": "서울 강남구 압구정로 309",
      "lat": 37.5297393,
      "lng": 127.0342941,
      "phone": "1544-3113",
      "dong": "압구정동"
    },
    {
      "naverPlaceId": "1540666624",
      "name": "탄천 공영 주차장",
      "address": "서울특별시 강남구 대치동 78-25",
      "roadAddress": "",
      "lat": 37.5086403,
      "lng": 127.0683938,
      "phone": "1544-3113",
      "dong": "대치동"
    },
    {
      "naverPlaceId": "1614133065",
      "name": "구룡산제2호 공영 주차장",
      "address": "서울특별시 강남구 양재대로 478",
      "roadAddress": "서울 강남구 양재대로 478",
      "lat": 37.4772632,
      "lng": 127.0664769,
      "phone": "1544-3113",
      "dong": "개포동"
    },
    {
      "naverPlaceId": "48912639",
      "name": "강남구보건소 주차장",
      "address": "서울특별시 강남구 학동로426",
      "roadAddress": "서울 강남구 선릉로 668",
      "lat": 37.5163591,
      "lng": 127.0420799,
      "phone": "1544-3113",
      "dong": "삼성동"
    },
    {
      "naverPlaceId": "21186092",
      "name": "역삼1동문화센터공영주차장",
      "address": "서울특별시 강남구 역삼로 7길 16",
      "roadAddress": "서울 강남구 역삼로7길 16",
      "lat": 37.4952425,
      "lng": 127.0332824,
      "phone": "1544-3113",
      "dong": "역삼동"
    },
    {
      "naverPlaceId": "1273106751",
      "name": "밤고개로21길 주차장",
      "address": "서울특별시 강남구 율현동 529",
      "roadAddress": "서울 강남구 자곡로 260",
      "lat": 37.4731636,
      "lng": 127.1119461,
      "phone": "1544-3113",
      "dong": "율현동"
    },
    {
      "naverPlaceId": "37602323",
      "name": "대왕초등학교 공영주차장입출구",
      "address": "서울특별시 강남구 헌릉로 618길 8",
      "roadAddress": "서울 강남구 헌릉로618길 8",
      "lat": 37.4643023,
      "lng": 127.1063963,
      "phone": "1544-3113",
      "dong": "세곡동"
    },
    {
      "naverPlaceId": "1084842924",
      "name": "구룡산제1호 공영 주차장",
      "address": "서울특별시 강남구 양재대로 478",
      "roadAddress": "서울 강남구 양재대로 478",
      "lat": 37.4778884,
      "lng": 127.0658355,
      "phone": "1544-3113",
      "dong": "개포동"
    },
    {
      "naverPlaceId": "21185859",
      "name": "강남구치매안심센터 공영주차장",
      "address": "서울특별시 강남구 선릉로 108길 27",
      "roadAddress": "서울 강남구 선릉로108길 27",
      "lat": 37.5102332,
      "lng": 127.0464124,
      "phone": "1544-3113",
      "dong": "삼성동"
    },
    {
      "naverPlaceId": "21185616",
      "name": "논현 제1호 공영주차장",
      "address": "서울특별시 강남구 학동로6길 19",
      "roadAddress": "서울 강남구 학동로6길 19",
      "lat": 37.5106786,
      "lng": 127.0246189,
      "phone": "1544-3113",
      "dong": "논현동"
    },
    {
      "naverPlaceId": "21186201",
      "name": "논현로22길공영주차장",
      "address": "서울특별시 강남구 개포로25길 32",
      "roadAddress": "서울 강남구 개포로25길 32",
      "lat": 37.4814147,
      "lng": 127.0473921,
      "phone": "1544-3113",
      "dong": "개포동"
    },
    {
      "naverPlaceId": "1856391392",
      "name": "영동대로85길 공영노상주차장",
      "address": "서울특별시 강남구 삼성로 86길",
      "roadAddress": "서울 강남구 영동대로85길 34",
      "lat": 37.5063795,
      "lng": 127.0603345,
      "phone": "1544-3113",
      "dong": "대치동"
    },
    {
      "naverPlaceId": "1961058587",
      "name": "논현제2호 공영주차장",
      "address": "서울특별시 강남구 학동로 20길 13",
      "roadAddress": "서울 강남구 학동로20길 13",
      "lat": 37.5121736,
      "lng": 127.0286422,
      "phone": "1544-3113",
      "dong": "논현동"
    },
    {
      "naverPlaceId": "18751976",
      "name": "도곡로21길7 공영주차장",
      "address": "서울특별시 강남구 도곡로 21길7",
      "roadAddress": "서울 강남구 도곡로21길 7",
      "lat": 37.4924245,
      "lng": 127.0387397,
      "phone": "1544-3113",
      "dong": "역삼동"
    },
    {
      "naverPlaceId": "35992823",
      "name": "일원역공영주차장",
      "address": "서울특별시 강남구 일원본동 716-2",
      "roadAddress": "",
      "lat": 37.4846979,
      "lng": 127.0837812,
      "phone": "",
      "dong": "일원동"
    },
    {
      "naverPlaceId": "1168678293",
      "name": "삼성1동 문화센터 공영 주차장",
      "address": "서울특별시 강남구 봉은사로 616",
      "roadAddress": "서울 강남구 봉은사로 616",
      "lat": 37.5143559,
      "lng": 127.0626072,
      "phone": "1544-3113",
      "dong": "삼성동"
    },
    {
      "naverPlaceId": "1251599799",
      "name": "논현로28길주차장",
      "address": "서울특별시 강남구 논현로28길",
      "roadAddress": "서울 강남구 논현로28길 17",
      "lat": 37.4885787,
      "lng": 127.0452575,
      "phone": "1544-3113",
      "dong": "도곡동"
    },
    {
      "naverPlaceId": "1047180471",
      "name": "일원1동 기계식 공영주차장",
      "address": "서울특별시 강남구 양재대로 27길 5",
      "roadAddress": "서울 강남구 양재대로27길 5",
      "lat": 37.4895651,
      "lng": 127.0817944,
      "phone": "1544-3113",
      "dong": "일원동"
    },
    {
      "naverPlaceId": "81918328",
      "name": "은마아파트 노상공영주차장",
      "address": "서울특별시 강남구 삼성로 58길",
      "roadAddress": "서울 강남구 삼성로58길",
      "lat": 37.4990004,
      "lng": 127.0632667,
      "phone": "1544-3113",
      "dong": "대치동"
    },
    {
      "naverPlaceId": "1948039796",
      "name": "개포주공5단지북측 주차장",
      "address": "서울특별시 강남구 삼성로4길 7",
      "roadAddress": "서울 강남구 선릉로 9",
      "lat": 37.4802627,
      "lng": 127.0625686,
      "phone": "02-445-8879",
      "dong": "개포동"
    },
    {
      "naverPlaceId": "1848183166",
      "name": "역삼문화공원제2호공영주차장",
      "address": "서울특별시 강남구 테헤란로7길 32",
      "roadAddress": "서울 강남구 테헤란로7길 32",
      "lat": 37.5027269,
      "lng": 127.0298147,
      "phone": "1544-3113",
      "dong": "역삼동"
    },
    {
      "naverPlaceId": "36015864",
      "name": "대치유수지체육공원 노상공영주차장",
      "address": "서울특별시 강남구 역삼로107길 20-28",
      "roadAddress": "서울 강남구 역삼로107길 20-28",
      "lat": 37.5048642,
      "lng": 127.0682503,
      "phone": "1544-3113",
      "dong": "대치동"
    },
    {
      "naverPlaceId": "1846959948",
      "name": "개포4문화센터 주차장",
      "address": "서울특별시 강남구 개포로24길33",
      "roadAddress": "서울 강남구 개포로24길 33",
      "lat": 37.4771474,
      "lng": 127.0499048,
      "phone": "1544-3113",
      "dong": "개포동"
    },
    {
      "naverPlaceId": "1661857334",
      "name": "일원동맛의거리주차장",
      "address": "서울특별시 강남구 일원로 9",
      "roadAddress": "서울 강남구 일원로 81",
      "lat": 37.4879913,
      "lng": 127.0828399,
      "phone": "1544-3113",
      "dong": "일원동"
    },
    {
      "naverPlaceId": "36010934",
      "name": "삼성로별관 주차장",
      "address": "서울특별시 강남구 삼성로628",
      "roadAddress": "서울 강남구 삼성로 628",
      "lat": 37.516033,
      "lng": 127.0520531,
      "phone": "1544-3113",
      "dong": "삼성동"
    },
    {
      "naverPlaceId": "1642195070",
      "name": "영동6교밑노상공영주차장입구",
      "address": "서울특별시 강남구 대치동 512-1",
      "roadAddress": "",
      "lat": 37.4943612,
      "lng": 127.0708658,
      "phone": "",
      "dong": "대치동"
    },
    {
      "naverPlaceId": "1310563804",
      "name": "한티역 공영주차장",
      "address": "서울특별시 강남구 선릉로69길, 선릉로 63길 + 도곡로57길",
      "roadAddress": "",
      "lat": 37.497996,
      "lng": 127.0511203,
      "phone": "1544-3113",
      "dong": "역삼동"
    },
    {
      "naverPlaceId": "1074010556",
      "name": "도산대로45길 주차장",
      "address": "서울특별시 강남구 언주로 154길",
      "roadAddress": "서울 강남구 압구정로11길 17",
      "lat": 37.5260658,
      "lng": 127.0201644,
      "phone": "1544-3113",
      "dong": "압구정동"
    },
    {
      "naverPlaceId": "1299339928",
      "name": "선릉로146길노상공영주차장",
      "address": "서울특별시 강남구 선릉로 146길",
      "roadAddress": "서울 강남구 선릉로146길 33",
      "lat": 37.5218078,
      "lng": 127.0406381,
      "phone": "1544-3113",
      "dong": "청담동"
    },
    {
      "naverPlaceId": "21186134",
      "name": "대치대명길공영노상주차장",
      "address": "서울특별시 강남구 삼성로 151길",
      "roadAddress": "서울 강남구 삼성로 151",
      "lat": 37.5064999,
      "lng": 127.060675,
      "phone": "1544-3113",
      "dong": "대치동"
    },
    {
      "naverPlaceId": "1374222057",
      "name": "도곡로421 공영주차장",
      "address": "서울특별시 강남구 도곡로 421",
      "roadAddress": "서울 강남구 도곡로 421",
      "lat": 37.4978315,
      "lng": 127.0564733,
      "phone": "1544-3113",
      "dong": "대치동"
    },
    {
      "naverPlaceId": "999795326",
      "name": "공영주차장",
      "address": "서울특별시 강남구 양재대로55길 6",
      "roadAddress": "서울 강남구 양재대로55길 6",
      "lat": 37.4910564,
      "lng": 127.0886003,
      "phone": "",
      "dong": "일원동"
    },
    {
      "naverPlaceId": "36015847",
      "name": "테헤란로69길노상공영주차장",
      "address": "서울특별시 강남구 테헤란로 69길",
      "roadAddress": "서울 강남구 테헤란로69길 5",
      "lat": 37.5065721,
      "lng": 127.052483,
      "phone": "1544-3113",
      "dong": "삼성동"
    },
    {
      "naverPlaceId": "1498636043",
      "name": "영동대로106길 공영노상주차장",
      "address": "서울특별시 강남구 영동대로106길",
      "roadAddress": "서울 강남구 영동대로106길 33",
      "lat": 37.5141839,
      "lng": 127.0638637,
      "phone": "1544-3113",
      "dong": "삼성동"
    },
    {
      "naverPlaceId": "36015846",
      "name": "논현로131길노상공영주차장",
      "address": "서울특별시 강남구 논현로 131길",
      "roadAddress": "서울 강남구 논현로131길 23",
      "lat": 37.5142719,
      "lng": 127.0291518,
      "phone": "1544-3113",
      "dong": "논현동"
    },
    {
      "naverPlaceId": "21185758",
      "name": "도곡로327 공영주차장",
      "address": "서울특별시 강남구 도곡로 327",
      "roadAddress": "서울 강남구 도곡로 327",
      "lat": 37.4961575,
      "lng": 127.0516645,
      "phone": "1544-3113",
      "dong": "역삼동"
    },
    {
      "naverPlaceId": "1999782659",
      "name": "압구정고가1 노상 공영 주차장",
      "address": "서울특별시 강남구 압구정로 지하172",
      "roadAddress": "서울 강남구 논현로 837-2",
      "lat": 37.5260375,
      "lng": 127.0284083,
      "phone": "",
      "dong": "신사동"
    },
    {
      "naverPlaceId": "1365923448",
      "name": "압구정고가2 노상 공영 주차장",
      "address": "서울특별시 강남구 압구정로 지하172",
      "roadAddress": "서울 강남구 논현로 837-2",
      "lat": 37.5257295,
      "lng": 127.0283942,
      "phone": "",
      "dong": "신사동"
    },
    {
      "naverPlaceId": "36005598",
      "name": "동호대교밑노상공영주차장",
      "address": "서울특별시 강남구 압구정동 435",
      "roadAddress": "서울 강남구 압구정로 151",
      "lat": 37.5309778,
      "lng": 127.0244891,
      "phone": "",
      "dong": "압구정동"
    },
    {
      "naverPlaceId": "36015854",
      "name": "선릉로132길노상공영주차장",
      "address": "서울특별시 강남구 선릉로 132길",
      "roadAddress": "서울 강남구 선릉로132길 12-2",
      "lat": 37.5181364,
      "lng": 127.0423392,
      "phone": "1544-3113",
      "dong": "청담동"
    },
    {
      "naverPlaceId": "1999054769",
      "name": "논현로32길15 공영주차장",
      "address": "서울특별시 강남구 논현로 32길15",
      "roadAddress": "서울 강남구 논현로32길 15",
      "lat": 37.484235,
      "lng": 127.0434199,
      "phone": "1544-3113",
      "dong": "도곡동"
    },
    {
      "naverPlaceId": "1652885793",
      "name": "영동대로86길 노상공영주차장",
      "address": "서울특별시 강남구 영동대로86길",
      "roadAddress": "서울 강남구 영동대로86길",
      "lat": 37.5070807,
      "lng": 127.0652814,
      "phone": "1544-3113",
      "dong": "대치동"
    },
    {
      "naverPlaceId": "1948019487",
      "name": "영동대로96길 노상공영주차장",
      "address": "서울특별시 강남구 영동대로 96길",
      "roadAddress": "서울 강남구 영동대로96길 26",
      "lat": 37.5109373,
      "lng": 127.06368,
      "phone": "1544-3113",
      "dong": "삼성동"
    },
    {
      "naverPlaceId": "36015849",
      "name": "언주로147길 노상공영주차장",
      "address": "서울특별시 강남구 언주로 147길",
      "roadAddress": "서울 강남구 언주로147길 5",
      "lat": 37.5196767,
      "lng": 127.0328523,
      "phone": "1544-3113",
      "dong": "논현동"
    },
    {
      "naverPlaceId": "21185906",
      "name": "일원터널공영주차장",
      "address": "서울특별시 강남구 광평로 61",
      "roadAddress": "서울 강남구 광평로 61",
      "lat": 37.4828428,
      "lng": 127.07915,
      "phone": "02-2290-6449",
      "dong": "일원동"
    },
    {
      "naverPlaceId": "36015856",
      "name": "테헤란로26길노상공영주차장",
      "address": "서울특별시 강남구 테헤란로 26길",
      "roadAddress": "서울 강남구 테헤란로 152",
      "lat": 37.4996361,
      "lng": 127.0360997,
      "phone": "1544-3113",
      "dong": "역삼동"
    },
    {
      "naverPlaceId": "1321759540",
      "name": "테헤란로78길 노상공영주차장",
      "address": "서울특별시 강남구 테헤란로78길",
      "roadAddress": "서울 강남구 테헤란로78길 16",
      "lat": 37.5057889,
      "lng": 127.0553256,
      "phone": "1544-3113",
      "dong": "대치동"
    },
    {
      "naverPlaceId": "1305923384",
      "name": "테헤란로64길 공영노상주차장",
      "address": "서울특별시 강남구 테헤란로 64길",
      "roadAddress": "서울 강남구 테헤란로 412",
      "lat": 37.5047836,
      "lng": 127.0512495,
      "phone": "1544-3113",
      "dong": "대치동"
    },
    {
      "naverPlaceId": "36003296",
      "name": "개포동공원 공영주차장",
      "address": "서울특별시 강남구 개포동 183-2",
      "roadAddress": "서울특별시 강남구 개포로 509",
      "lat": 37.4897076,
      "lng": 127.0682922,
      "phone": "1544-3113",
      "dong": "개포동"
    },
    {
      "naverPlaceId": "21185566",
      "name": "대청역환승공영주차장",
      "address": "서울특별시 강남구 개포동 13-2 공영주차장",
      "roadAddress": "서울특별시 강남구 개포로 623-1 공영주차장",
      "lat": 37.4949679,
      "lng": 127.0795,
      "phone": "1544-3113",
      "dong": "개포동"
    },
    {
      "naverPlaceId": "1588292937",
      "name": "포이초교공영주차장",
      "address": "서울특별시 강남구 개포동 1273 포이초등학교",
      "roadAddress": "서울특별시 강남구 개포로22길 87 포이초등학교",
      "lat": 37.4750384,
      "lng": 127.0515712,
      "phone": "02-1544-3113",
      "dong": "개포동"
    },
    {
      "naverPlaceId": "1995584799",
      "name": "개포주공 5단지 북측 노상 공영 주차장",
      "address": "서울특별시 강남구 개포동 187",
      "roadAddress": "서울특별시 강남구 삼성로4길 17",
      "lat": 37.4889083,
      "lng": 127.069231,
      "phone": "",
      "dong": "개포동"
    },
    {
      "naverPlaceId": "36276204",
      "name": "개포도서관 주차장",
      "address": "서울특별시 강남구 개포동 139",
      "roadAddress": "서울특별시 강남구 선릉로4길 30",
      "lat": 37.4830336,
      "lng": 127.063861,
      "phone": "02-3462-1988",
      "dong": "개포동"
    },
    {
      "naverPlaceId": "296440858",
      "name": "SH공사 주차장",
      "address": "서울특별시 강남구 개포동 14-5",
      "roadAddress": "서울특별시 강남구 개포로 621",
      "lat": 37.4939466,
      "lng": 127.0789017,
      "phone": "",
      "dong": "개포동"
    },
    {
      "naverPlaceId": "36015860",
      "name": "개포로길노상공영주차장",
      "address": "서울특별시 강남구 개포동 14-8",
      "roadAddress": "",
      "lat": 37.493695,
      "lng": 127.076635,
      "phone": "1544-3113",
      "dong": "개포동"
    },
    {
      "naverPlaceId": "21185752",
      "name": "강남구구룡산제1호공영노외주차장",
      "address": "서울특별시 강남구 개포동 570",
      "roadAddress": "서울특별시 강남구 양재대로 478",
      "lat": 37.4760658,
      "lng": 127.0673026,
      "phone": "1544-3113",
      "dong": "개포동"
    },
    {
      "naverPlaceId": "21185816",
      "name": "강남구구룡산제2호공영노외주차장",
      "address": "서울특별시 강남구 개포동",
      "roadAddress": "",
      "lat": 37.4774239,
      "lng": 127.0664279,
      "phone": "",
      "dong": "개포동"
    },
    {
      "naverPlaceId": "1985904539",
      "name": "개포주공5단지아파트 민간위탁공영주차장",
      "address": "서울특별시 강남구 개포동 187",
      "roadAddress": "서울특별시 강남구 개포로88길 10-2",
      "lat": 37.4878016,
      "lng": 127.0680279,
      "phone": "",
      "dong": "개포동"
    },
    {
      "naverPlaceId": "1813077124",
      "name": "포이초등학교 공영주차장 지하1층 대피소",
      "address": "서울특별시 강남구 개포동 1273",
      "roadAddress": "서울특별시 강남구 개포로22길 87",
      "lat": 37.4751669,
      "lng": 127.0523975,
      "phone": "",
      "dong": "개포동"
    },
    {
      "naverPlaceId": "1555535062",
      "name": "쏘카 개포동공원 공영주차장",
      "address": "서울특별시 강남구 개포동 182-1",
      "roadAddress": "서울특별시 강남구 개포로 509",
      "lat": 37.489605,
      "lng": 127.068466,
      "phone": "1661-8838",
      "dong": "개포동"
    },
    {
      "naverPlaceId": "1714727362",
      "name": "대청역 공영주차장 전기차충전소",
      "address": "서울특별시 강남구 개포동 13-2",
      "roadAddress": "서울특별시 강남구 개포로 623-1",
      "lat": 37.4949159,
      "lng": 127.0793079,
      "phone": "1522-2573",
      "dong": "개포동"
    },
    {
      "naverPlaceId": "1062046648",
      "name": "구룡산 제1호 공영주차장 전기차충전소",
      "address": "서울특별시 강남구 개포동 570",
      "roadAddress": "서울특별시 강남구 양재대로 478",
      "lat": 37.4780444,
      "lng": 127.0657063,
      "phone": "1522-2573",
      "dong": "개포동"
    },
    {
      "naverPlaceId": "37197073",
      "name": "쏘카 포이초교 공영주차장",
      "address": "서울특별시 강남구 개포동 1273",
      "roadAddress": "서울특별시 강남구 개포로22길 87",
      "lat": 37.474949,
      "lng": 127.051483,
      "phone": "1661-8838",
      "dong": "개포동"
    },
    {
      "naverPlaceId": "1376095725",
      "name": "논현문화마루 공영 주차장",
      "address": "서울특별시 강남구 논현동 40-5",
      "roadAddress": "서울특별시 강남구 논현로131길 40",
      "lat": 37.5138553,
      "lng": 127.0271277,
      "phone": "",
      "dong": "논현동"
    },
    {
      "naverPlaceId": "18837566",
      "name": "신사지덕길공영노상주차장",
      "address": "서울특별시 강남구 논현동",
      "roadAddress": "",
      "lat": 37.515821,
      "lng": 127.0205539,
      "phone": "",
      "dong": "논현동"
    },
    {
      "naverPlaceId": "21186020",
      "name": "논현대추나무길공영노상주차장",
      "address": "서울특별시 강남구 논현동",
      "roadAddress": "",
      "lat": 37.5197083,
      "lng": 127.0329875,
      "phone": "",
      "dong": "논현동"
    },
    {
      "naverPlaceId": "1319184845",
      "name": "언주로147길 공영노상주차장",
      "address": "서울특별시 강남구 논현동 63-16",
      "roadAddress": "서울특별시 강남구 언주로147길 18",
      "lat": 37.5196273,
      "lng": 127.0327991,
      "phone": "",
      "dong": "논현동"
    },
    {
      "naverPlaceId": "1064722878",
      "name": "강남대로150길 공영노상주차장",
      "address": "서울특별시 강남구 논현동 1",
      "roadAddress": "서울특별시 강남구 강남대로 606 주변 강남대로150길 공영노상주차장",
      "lat": 37.5158757,
      "lng": 127.0201694,
      "phone": "",
      "dong": "논현동"
    },
    {
      "naverPlaceId": "1371453464",
      "name": "논현로131길 공영노상주차장",
      "address": "서울특별시 강남구 논현동 58 주변 논현로131길 공영노상주차장",
      "roadAddress": "서울특별시 강남구 논현로131길 23 주변 논현로131길 공영노상주차장",
      "lat": 37.5139668,
      "lng": 127.0285406,
      "phone": "1544-3113",
      "dong": "논현동"
    },
    {
      "naverPlaceId": "1843822131",
      "name": "논현초교 공영 주차장입구",
      "address": "서울특별시 강남구 논현동",
      "roadAddress": "",
      "lat": 37.5082115,
      "lng": 127.0269878,
      "phone": "",
      "dong": "논현동"
    },
    {
      "naverPlaceId": "38739954",
      "name": "논현제1 공영주차장 개방화장실",
      "address": "서울특별시 강남구 논현동 123-11",
      "roadAddress": "서울특별시 강남구 학동로6길 19",
      "lat": 37.510677,
      "lng": 127.024588,
      "phone": "02-3423-5963",
      "dong": "논현동"
    },
    {
      "naverPlaceId": "1842027414",
      "name": "논현초교 공영주차장 전기차충전소",
      "address": "서울특별시 강남구 논현동 168",
      "roadAddress": "서울특별시 강남구 강남대로120길 33",
      "lat": 37.5083053,
      "lng": 127.0269352,
      "phone": "1522-2573",
      "dong": "논현동"
    },
    {
      "naverPlaceId": "1504313488",
      "name": "논현문화마루 공영 주차장입출구",
      "address": "서울특별시 강남구 논현동",
      "roadAddress": "",
      "lat": 37.5137147,
      "lng": 127.0270084,
      "phone": "",
      "dong": "논현동"
    },
    {
      "naverPlaceId": "1595572206",
      "name": "논현 1호 공영주차장 전기차충전소",
      "address": "서울특별시 강남구 논현동 123-11",
      "roadAddress": "서울특별시 강남구 학동로6길 19",
      "lat": 37.5106817,
      "lng": 127.0246023,
      "phone": "02-2640-5199",
      "dong": "논현동"
    },
    {
      "naverPlaceId": "1292282138",
      "name": "논현 제2호공영주차장 전기차충전소",
      "address": "서울특별시 강남구 논현동 127-14",
      "roadAddress": "서울특별시 강남구 학동로20길 13",
      "lat": 37.5122321,
      "lng": 127.0285545,
      "phone": "1533-2920",
      "dong": "논현동"
    },
    {
      "naverPlaceId": "1471268093",
      "name": "논현 2호 공영주차장 전기차충전소",
      "address": "서울특별시 강남구 논현동 127-14",
      "roadAddress": "서울특별시 강남구 학동로20길 13",
      "lat": 37.5122073,
      "lng": 127.0285631,
      "phone": "02-2640-5199",
      "dong": "논현동"
    },
    {
      "naverPlaceId": "1151159350",
      "name": "논현초교 공영 주차장입구",
      "address": "서울특별시 강남구 논현동",
      "roadAddress": "",
      "lat": 37.50775,
      "lng": 127.0264251,
      "phone": "",
      "dong": "논현동"
    },
    {
      "naverPlaceId": "1080697633",
      "name": "쏘카 논현초교 공영주차장",
      "address": "서울특별시 강남구 논현동 168",
      "roadAddress": "서울특별시 강남구 강남대로120길 33",
      "lat": 37.508123,
      "lng": 127.026644,
      "phone": "1661-8838",
      "dong": "논현동"
    },
    {
      "naverPlaceId": "1732574009",
      "name": "도곡초교공영주차장",
      "address": "서울특별시 강남구 대치동 924-10 도곡초등학교",
      "roadAddress": "서울특별시 강남구 선릉로64길 33 도곡초등학교",
      "lat": 37.4986744,
      "lng": 127.0551764,
      "phone": "",
      "dong": "대치동"
    },
    {
      "naverPlaceId": "36015855",
      "name": "테헤란로64길노상공영주차장",
      "address": "서울특별시 강남구 대치동 1011-11",
      "roadAddress": "",
      "lat": 37.5045205,
      "lng": 127.0510097,
      "phone": "1544-3113",
      "dong": "대치동"
    },
    {
      "naverPlaceId": "36015861",
      "name": "남부순환로길노상공영주차장",
      "address": "서울특별시 강남구 대치동 600-13",
      "roadAddress": "",
      "lat": 37.4931008,
      "lng": 127.0571392,
      "phone": "1544-3113",
      "dong": "대치동"
    },
    {
      "naverPlaceId": "36015862",
      "name": "대치동507-3 노상공영주차장",
      "address": "서울특별시 강남구 대치동 507-3",
      "roadAddress": "",
      "lat": 37.4934693,
      "lng": 127.0628973,
      "phone": "1544-3113",
      "dong": "대치동"
    },
    {
      "naverPlaceId": "156317093",
      "name": "영동6교밑노상공영주차장",
      "address": "서울특별시 강남구 대치동 513",
      "roadAddress": "",
      "lat": 37.4944267,
      "lng": 127.071309,
      "phone": "",
      "dong": "대치동"
    },
    {
      "naverPlaceId": "1732502756",
      "name": "영동대로 노상공영주차장",
      "address": "서울특별시 강남구 대치동 1012-22",
      "roadAddress": "",
      "lat": 37.5078695,
      "lng": 127.064698,
      "phone": "1544-3113",
      "dong": "대치동"
    },
    {
      "naverPlaceId": "497104745",
      "name": "대치4동 문화센터 주차장",
      "address": "서울특별시 강남구 대치동 1011-66",
      "roadAddress": "",
      "lat": 37.4997266,
      "lng": 127.0580664,
      "phone": "",
      "dong": "대치동"
    },
    {
      "naverPlaceId": "21185927",
      "name": "대치선경길공영주차장",
      "address": "서울특별시 강남구 대치동 506",
      "roadAddress": "서울특별시 강남구 삼성로 151",
      "lat": 37.4933429,
      "lng": 127.062975,
      "phone": "",
      "dong": "대치동"
    },
    {
      "naverPlaceId": "1686954894",
      "name": "대치1동 문화센터 주차장",
      "address": "서울특별시 강남구 대치동 646-2",
      "roadAddress": "서울특별시 강남구 남부순환로391길 19",
      "lat": 37.4932176,
      "lng": 127.0567622,
      "phone": "",
      "dong": "대치동"
    },
    {
      "naverPlaceId": "18555113",
      "name": "언주초등학교공영주차장",
      "address": "서울특별시 강남구 도곡동 922 언주초등학교",
      "roadAddress": "서울특별시 강남구 남부순환로363길 19 언주초등학교",
      "lat": 37.486863,
      "lng": 127.0376799,
      "phone": "",
      "dong": "도곡동"
    },
    {
      "naverPlaceId": "36015857",
      "name": "논현로28길 노상공영주차장",
      "address": "서울특별시 강남구 도곡동 524",
      "roadAddress": "",
      "lat": 37.4834911,
      "lng": 127.0442472,
      "phone": "1544-3113",
      "dong": "도곡동"
    },
    {
      "naverPlaceId": "21186153",
      "name": "도곡샛길공영노외주차장",
      "address": "서울특별시 강남구 도곡동 516-2",
      "roadAddress": "서울특별시 강남구 논현로32길 15",
      "lat": 37.4842763,
      "lng": 127.04345,
      "phone": "",
      "dong": "도곡동"
    },
    {
      "naverPlaceId": "18853791",
      "name": "언주초교공영노외주차장",
      "address": "서울특별시 강남구 도곡동 922 언주초등학교",
      "roadAddress": "서울특별시 강남구 남부순환로363길 19 언주초등학교",
      "lat": 37.486885,
      "lng": 127.0377516,
      "phone": "",
      "dong": "도곡동"
    },
    {
      "naverPlaceId": "169462213",
      "name": "도곡정보문화도서관 주차장",
      "address": "서울특별시 강남구 도곡동 892-6",
      "roadAddress": "서울특별시 강남구 도곡로18길 57",
      "lat": 37.4882373,
      "lng": 127.0392696,
      "phone": "1544-3113",
      "dong": "도곡동"
    },
    {
      "naverPlaceId": "21185770",
      "name": "논현로28길공영노상주차장",
      "address": "서울특별시 강남구 도곡동",
      "roadAddress": "",
      "lat": 37.4828429,
      "lng": 127.043875,
      "phone": "",
      "dong": "도곡동"
    },
    {
      "naverPlaceId": "1115429507",
      "name": "논현로28길 공영노상주차장",
      "address": "서울특별시 강남구 도곡동 517-1",
      "roadAddress": "서울특별시 강남구 논현로30길 36 주변 논현로28길 공영노상주차장",
      "lat": 37.4844585,
      "lng": 127.0446107,
      "phone": "",
      "dong": "도곡동"
    },
    {
      "naverPlaceId": "1962669863",
      "name": "언주초교 공영주차장 전기차충전소",
      "address": "서울특별시 강남구 도곡동 922",
      "roadAddress": "서울특별시 강남구 남부순환로363길 19",
      "lat": 37.4869591,
      "lng": 127.0376861,
      "phone": "1522-2573",
      "dong": "도곡동"
    },
    {
      "naverPlaceId": "1456747959",
      "name": "쏘카 언주초교 공영주차장",
      "address": "서울특별시 강남구 도곡동 922",
      "roadAddress": "서울특별시 강남구 남부순환로363길 19",
      "lat": 37.4869,
      "lng": 127.037788,
      "phone": "1661-8838",
      "dong": "도곡동"
    },
    {
      "naverPlaceId": "1984556790",
      "name": "언주초등학교 공영주차장 전기차충전소",
      "address": "서울특별시 강남구 도곡동 922",
      "roadAddress": "서울특별시 강남구 남부순환로363길 19",
      "lat": 37.4865474,
      "lng": 127.0371721,
      "phone": "1588-5339",
      "dong": "도곡동"
    },
    {
      "naverPlaceId": "1180613590",
      "name": "논현로28길 노상공영주차장 전기차충전소",
      "address": "서울특별시 강남구 도곡동 524",
      "roadAddress": "",
      "lat": 37.4834705,
      "lng": 127.044245,
      "phone": "02-2640-5199",
      "dong": "도곡동"
    },
    {
      "naverPlaceId": "37112751",
      "name": "G car zone 양재역 언주초교 공영주차장",
      "address": "서울특별시 강남구 도곡동 922",
      "roadAddress": "서울특별시 강남구 남부순환로363길 19",
      "lat": 37.4868955,
      "lng": 127.0376621,
      "phone": "1899-1313",
      "dong": "도곡동"
    },
    {
      "naverPlaceId": "1279276776",
      "name": "언주초등학교공영주차장입구",
      "address": "서울특별시 강남구 도곡동",
      "roadAddress": "",
      "lat": 37.486888,
      "lng": 127.0377662,
      "phone": "",
      "dong": "도곡동"
    },
    {
      "naverPlaceId": "1189589942",
      "name": "논현로28길 공영노상주차장",
      "address": "서울특별시 강남구 도곡동 517-11 논현로28길 공영노상주차장",
      "roadAddress": "서울특별시 강남구 논현로28길 29 논현로28길 공영노상주차장",
      "lat": 37.4839036,
      "lng": 127.0444521,
      "phone": "",
      "dong": "도곡동"
    },
    {
      "naverPlaceId": "1653376444",
      "name": "언주초교 공영노외주차장 전기차충전소",
      "address": "서울특별시 강남구 도곡동 922 언주초등학교 ( 922)",
      "roadAddress": "서울특별시 강남구 남부순환로363길 19 언주초등학교 (도곡동 922)",
      "lat": 37.486856,
      "lng": 127.037584,
      "phone": "1661-9408",
      "dong": "도곡동"
    },
    {
      "naverPlaceId": "36010933",
      "name": "강남구청 주차장",
      "address": "서울특별시 강남구 삼성동 16-1 강남구청",
      "roadAddress": "서울특별시 강남구 학동로 426 강남구청",
      "lat": 37.5172003,
      "lng": 127.0479234,
      "phone": "1544-3113",
      "dong": "삼성동"
    },
    {
      "naverPlaceId": "36015858",
      "name": "영동대로길노상공영주차장",
      "address": "서울특별시 강남구 삼성동 172-22",
      "roadAddress": "",
      "lat": 37.5133523,
      "lng": 127.0619045,
      "phone": "1544-3113",
      "dong": "삼성동"
    },
    {
      "naverPlaceId": "18816474",
      "name": "강남구공영노상주차장",
      "address": "서울특별시 강남구 삼성동 172-66",
      "roadAddress": "서울특별시 강남구 테헤란로 421-2",
      "lat": 37.5057555,
      "lng": 127.0524607,
      "phone": "",
      "dong": "삼성동"
    },
    {
      "naverPlaceId": "21185785",
      "name": "삼성한전북길공영노상주차장",
      "address": "서울특별시 강남구 삼성동 172-7",
      "roadAddress": "",
      "lat": 37.5138333,
      "lng": 127.0631749,
      "phone": "",
      "dong": "삼성동"
    },
    {
      "naverPlaceId": "1797534348",
      "name": "논현초교공영",
      "address": "서울특별시 강남구 삼성동 66",
      "roadAddress": "서울특별시 강남구 삼성로 628",
      "lat": 37.5159182,
      "lng": 127.0521609,
      "phone": "",
      "dong": "삼성동"
    },
    {
      "naverPlaceId": "18783553",
      "name": "테헤란로26길주차장",
      "address": "서울특별시 강남구 삼성동 172-99",
      "roadAddress": "",
      "lat": 37.5064009,
      "lng": 127.0525889,
      "phone": "",
      "dong": "삼성동"
    },
    {
      "naverPlaceId": "1752134914",
      "name": "삼성1동문화센터 공영노외주차장",
      "address": "서울특별시 강남구 삼성동 161-2",
      "roadAddress": "서울특별시 강남구 봉은사로 616",
      "lat": 37.5144424,
      "lng": 127.062532,
      "phone": "02-2176-0910",
      "dong": "삼성동"
    },
    {
      "naverPlaceId": "1949575844",
      "name": "영동대로96길 공영노상주차장",
      "address": "서울특별시 강남구 삼성동 169 주변 영동대로96길 공영노상주차장",
      "roadAddress": "서울특별시 강남구 영동대로96길 20 주변 영동대로96길 공영노상주차장",
      "lat": 37.5107837,
      "lng": 127.0642324,
      "phone": "",
      "dong": "삼성동"
    },
    {
      "naverPlaceId": "1232260244",
      "name": "테헤란로69길 공영노상주차장",
      "address": "서울특별시 강남구 삼성동 142",
      "roadAddress": "서울특별시 강남구 테헤란로63길 20 주변 테헤란로69길 공영노상주차장",
      "lat": 37.5065253,
      "lng": 127.0504142,
      "phone": "",
      "dong": "삼성동"
    },
    {
      "naverPlaceId": "1894590481",
      "name": "강남구청 공영주차장 전기차충전소",
      "address": "서울특별시 강남구 삼성동 16-1",
      "roadAddress": "서울특별시 강남구 학동로 426",
      "lat": 37.5175965,
      "lng": 127.0469591,
      "phone": "1899-2100",
      "dong": "삼성동"
    },
    {
      "naverPlaceId": "1451495957",
      "name": "삼성로별관 공영주차장",
      "address": "서울특별시 강남구 삼성동 66 삼성로별관 공영주차장",
      "roadAddress": "서울특별시 강남구 삼성로 628 (삼성동) 삼성로별관 공영주차장",
      "lat": 37.5159182,
      "lng": 127.0521609,
      "phone": "",
      "dong": "삼성동"
    },
    {
      "naverPlaceId": "1183048625",
      "name": "강남구청 부설 공영주차장",
      "address": "서울특별시 강남구 삼성동 16-1 강남구청 부설 공영주차장",
      "roadAddress": "서울특별시 강남구 학동로 426 (삼성동) 강남구청 부설 공영주차장",
      "lat": 37.517305,
      "lng": 127.047502,
      "phone": "",
      "dong": "삼성동"
    },
    {
      "naverPlaceId": "1254488140",
      "name": "쏘카 치매지원센터 공영주차장",
      "address": "서울특별시 강남구 삼성동 113-26",
      "roadAddress": "서울특별시 강남구 선릉로108길 27",
      "lat": 37.510269,
      "lng": 127.046387,
      "phone": "1661-8838",
      "dong": "삼성동"
    },
    {
      "naverPlaceId": "1391558813",
      "name": "밤고개로21길 공영주차장",
      "address": "서울특별시 강남구 율현동 527",
      "roadAddress": "서울특별시 강남구",
      "lat": 37.4736002,
      "lng": 127.114457,
      "phone": "",
      "dong": "율현동"
    },
    {
      "naverPlaceId": "1623780931",
      "name": "자곡문화센터 공영 주차장",
      "address": "서울특별시 강남구 자곡동 628",
      "roadAddress": "서울특별시 강남구 자곡로 100",
      "lat": 37.471493,
      "lng": 127.0945022,
      "phone": "",
      "dong": "자곡동"
    },
    {
      "naverPlaceId": "1981770387",
      "name": "대왕초등학교 공영주차장",
      "address": "서울특별시 강남구 세곡동 517",
      "roadAddress": "서울특별시 강남구 헌릉로618길 8",
      "lat": 37.4646127,
      "lng": 127.1056833,
      "phone": "",
      "dong": "세곡동"
    },
    {
      "naverPlaceId": "1331200472",
      "name": "강남세곡체육공원공영주차장",
      "address": "서울특별시 강남구 세곡동 산1-7 강남세곡체육공원",
      "roadAddress": "서울특별시 강남구 헌릉로 679 강남세곡체육공원",
      "lat": 37.4665691,
      "lng": 127.1140675,
      "phone": "",
      "dong": "세곡동"
    },
    {
      "naverPlaceId": "36015863",
      "name": "헌릉로745 노상공영주차장",
      "address": "서울특별시 강남구 율현동 101-10",
      "roadAddress": "",
      "lat": 37.4699201,
      "lng": 127.1190734,
      "phone": "1544-3113",
      "dong": "율현동"
    },
    {
      "naverPlaceId": "1596312969",
      "name": "헌릉로745번길공영주차장",
      "address": "서울특별시 강남구 율현동 101-10",
      "roadAddress": "",
      "lat": 37.4701879,
      "lng": 127.1179089,
      "phone": "",
      "dong": "율현동"
    },
    {
      "naverPlaceId": "18848834",
      "name": "율현강남자동차길공영노상주차장",
      "address": "서울특별시 강남구 율현동 101-10",
      "roadAddress": "",
      "lat": 37.4703345,
      "lng": 127.1188749,
      "phone": "",
      "dong": "율현동"
    },
    {
      "naverPlaceId": "21185975",
      "name": "강남자동차매매상사주변공영주차장",
      "address": "서울특별시 강남구 율현동",
      "roadAddress": "",
      "lat": 37.4692846,
      "lng": 127.1186,
      "phone": "",
      "dong": "율현동"
    },
    {
      "naverPlaceId": "1138042066",
      "name": "자동차매매센터 주차장",
      "address": "서울특별시 강남구 율현동 101-13",
      "roadAddress": "서울특별시 강남구 헌릉로745길 37",
      "lat": 37.4702759,
      "lng": 127.1187225,
      "phone": "",
      "dong": "율현동"
    },
    {
      "naverPlaceId": "1872061810",
      "name": "밤고개로21길 공영주차장 전기차충전소",
      "address": "서울특별시 강남구 율현동 527",
      "roadAddress": "서울특별시 강남구",
      "lat": 37.4737956,
      "lng": 127.1147588,
      "phone": "1522-2573",
      "dong": "율현동"
    },
    {
      "naverPlaceId": "1975119071",
      "name": "밤고개로21길 공영주차장입구",
      "address": "서울특별시 강남구 율현동",
      "roadAddress": "서울특별시 강남구",
      "lat": 37.4738774,
      "lng": 127.1140359,
      "phone": "",
      "dong": "율현동"
    },
    {
      "naverPlaceId": "1521394122",
      "name": "강남세곡체육공원공영주차장입구",
      "address": "서울특별시 강남구 세곡동",
      "roadAddress": "",
      "lat": 37.4666982,
      "lng": 127.1135051,
      "phone": "",
      "dong": "세곡동"
    },
    {
      "naverPlaceId": "1709040006",
      "name": "대왕초교 공영주차장 전기차충전소",
      "address": "서울특별시 강남구 세곡동 517",
      "roadAddress": "서울특별시 강남구 헌릉로618길 8",
      "lat": 37.4642105,
      "lng": 127.1060641,
      "phone": "1522-2573",
      "dong": "세곡동"
    },
    {
      "naverPlaceId": "1789776156",
      "name": "헌릉로745길 공영노상주차장",
      "address": "서울특별시 강남구 율현동 123-1 헌릉로745길 공영노상주차장",
      "roadAddress": "서울특별시 강남구 헌릉로745길 13 헌릉로745길 공영노상주차장",
      "lat": 37.4685177,
      "lng": 127.118673,
      "phone": "",
      "dong": "율현동"
    },
    {
      "naverPlaceId": "1403560214",
      "name": "헌릉로745길 공영노상주차장 전기차충전소",
      "address": "서울특별시 강남구 율현동 141-1",
      "roadAddress": "서울특별시 강남구 헌릉로745길 49",
      "lat": 37.4702069,
      "lng": 127.1178481,
      "phone": "1522-2573",
      "dong": "율현동"
    },
    {
      "naverPlaceId": "1427395696",
      "name": "수서역 공영주차장 전기차충전소",
      "address": "서울특별시 강남구 수서동 735",
      "roadAddress": "",
      "lat": 37.4873415,
      "lng": 127.1001656,
      "phone": "02-2640-5199",
      "dong": "수서동"
    },
    {
      "naverPlaceId": "1392844744",
      "name": "피플카 수서역 1번출구(수서역 공영주차장)",
      "address": "서울특별시 강남구 수서동 735",
      "roadAddress": "",
      "lat": 37.4873919,
      "lng": 127.100306,
      "phone": "",
      "dong": "수서동"
    },
    {
      "naverPlaceId": "1393546876",
      "name": "수서역공영주차장 채비 전기차충전소",
      "address": "서울특별시 강남구 수서동 735",
      "roadAddress": "",
      "lat": 37.487335,
      "lng": 127.100136,
      "phone": "1522-2573",
      "dong": "수서동"
    },
    {
      "naverPlaceId": "1109006046",
      "name": "수서역공영주차장 해피차저 전기차충전소",
      "address": "서울특별시 강남구 수서동 735",
      "roadAddress": "",
      "lat": 37.4873242,
      "lng": 127.1003387,
      "phone": "1522-1782",
      "dong": "수서동"
    },
    {
      "naverPlaceId": "19474451",
      "name": "수서역공영주차장입출구",
      "address": "서울특별시 강남구 수서동",
      "roadAddress": "",
      "lat": 37.4872015,
      "lng": 127.1004938,
      "phone": "",
      "dong": "수서동"
    },
    {
      "naverPlaceId": "36286387",
      "name": "G car zone 수서역 공영환승주차장",
      "address": "서울특별시 강남구 수서동 735",
      "roadAddress": "",
      "lat": 37.4879299,
      "lng": 127.099928,
      "phone": "1899-1313",
      "dong": "수서동"
    },
    {
      "naverPlaceId": "470613151",
      "name": "대모산자연공원공영주차장",
      "address": "서울특별시 강남구 일원동 산56",
      "roadAddress": "",
      "lat": 37.480384,
      "lng": 127.0810081,
      "phone": "",
      "dong": "일원동"
    },
    {
      "naverPlaceId": "618535781",
      "name": "일원동 맛의 거리 노상공영주차장",
      "address": "서울특별시 강남구 일원동 709-8",
      "roadAddress": "",
      "lat": 37.4905336,
      "lng": 127.085423,
      "phone": "1544-3113",
      "dong": "일원동"
    },
    {
      "naverPlaceId": "36015850",
      "name": "도산대로45길노상공영주차장",
      "address": "서울특별시 강남구 신사동 668-23",
      "roadAddress": "",
      "lat": 37.5230919,
      "lng": 127.0355867,
      "phone": "1544-3113",
      "dong": "신사동"
    },
    {
      "naverPlaceId": "1164186915",
      "name": "신사역 공영주차장",
      "address": "서울특별시 강남구 신사동 667-13",
      "roadAddress": "",
      "lat": 37.5210165,
      "lng": 127.0229007,
      "phone": "",
      "dong": "신사동"
    },
    {
      "naverPlaceId": "21185980",
      "name": "압구정고가 공영주차장",
      "address": "서울특별시 강남구 신사동 668",
      "roadAddress": "서울특별시 강남구 논현로 837-2",
      "lat": 37.5264166,
      "lng": 127.0285,
      "phone": "",
      "dong": "신사동"
    },
    {
      "naverPlaceId": "21186142",
      "name": "신사다모아길공영노상주차장",
      "address": "서울특별시 강남구 신사동 668-11",
      "roadAddress": "",
      "lat": 37.52757,
      "lng": 127.0322769,
      "phone": "",
      "dong": "신사동"
    },
    {
      "naverPlaceId": "773177363",
      "name": "잠원ON앞 공영 주차장",
      "address": "서울특별시 강남구 압구정동 386",
      "roadAddress": "서울특별시 강남구 올림픽대로 2395",
      "lat": 37.5267454,
      "lng": 127.0187893,
      "phone": "02-3780-0841",
      "dong": "압구정동"
    },
    {
      "naverPlaceId": "21185843",
      "name": "공영노상주차장",
      "address": "서울특별시 강남구 신사동",
      "roadAddress": "",
      "lat": 37.5228333,
      "lng": 127.03555,
      "phone": "",
      "dong": "신사동"
    },
    {
      "naverPlaceId": "36015865",
      "name": "압구정로29길 노상공영주차장",
      "address": "서울특별시 강남구 압구정동 453",
      "roadAddress": "",
      "lat": 37.5285153,
      "lng": 127.0280834,
      "phone": "1544-3113",
      "dong": "압구정동"
    },
    {
      "naverPlaceId": "1419879969",
      "name": "압구정로 노상공영주차장",
      "address": "서울특별시 강남구 압구정동",
      "roadAddress": "",
      "lat": 37.5297168,
      "lng": 127.0278537,
      "phone": "02-2174-0907",
      "dong": "압구정동"
    },
    {
      "naverPlaceId": "21185912",
      "name": "압구정현대길공영노상주차장",
      "address": "서울특별시 강남구 압구정동",
      "roadAddress": "",
      "lat": 37.53005,
      "lng": 127.0276,
      "phone": "",
      "dong": "압구정동"
    },
    {
      "naverPlaceId": "1780717169",
      "name": "동호대교남 노상 공영 주차장",
      "address": "서울특별시 강남구 압구정동 435",
      "roadAddress": "",
      "lat": 37.5291959,
      "lng": 127.02639,
      "phone": "",
      "dong": "압구정동"
    },
    {
      "naverPlaceId": "37049195",
      "name": "잠원 리버시티 앞 노상 공영 주차장",
      "address": "서울특별시 강남구 압구정동 386",
      "roadAddress": "서울특별시 강남구 올림픽대로 2395",
      "lat": 37.5287282,
      "lng": 127.0205026,
      "phone": "02-3780-0841",
      "dong": "압구정동"
    },
    {
      "naverPlaceId": "1079415650",
      "name": "도산대로45길 공영노상주차장",
      "address": "서울특별시 강남구 신사동 651",
      "roadAddress": "서울특별시 강남구 도산대로45길 10",
      "lat": 37.5230139,
      "lng": 127.0358,
      "phone": "",
      "dong": "신사동"
    },
    {
      "naverPlaceId": "1389217675",
      "name": "언주로171길 공영노상주차장",
      "address": "서울특별시 강남구 신사동 621 주변 언주로171길 공영노상주차장",
      "roadAddress": "서울특별시 강남구 압구정로36길 17 주변 언주로171길 공영노상주차장",
      "lat": 37.5271728,
      "lng": 127.0322997,
      "phone": "",
      "dong": "신사동"
    },
    {
      "naverPlaceId": "1839086505",
      "name": "압구정로29길 공영노상주차장",
      "address": "서울특별시 강남구 압구정동 453",
      "roadAddress": "",
      "lat": 37.5313783,
      "lng": 127.0273099,
      "phone": "",
      "dong": "압구정동"
    },
    {
      "naverPlaceId": "725621744",
      "name": "신구초교 공영주차장입출구",
      "address": "서울특별시 강남구 신사동",
      "roadAddress": "",
      "lat": 37.5227598,
      "lng": 127.0233962,
      "phone": "",
      "dong": "신사동"
    },
    {
      "naverPlaceId": "1305019549",
      "name": "신구초등학교 공영주차장 전기차충전소",
      "address": "서울특별시 강남구 신사동 550-11",
      "roadAddress": "서울특별시 강남구 압구정로18길 28",
      "lat": 37.523119,
      "lng": 127.0241859,
      "phone": "1588-5339",
      "dong": "신사동"
    },
    {
      "naverPlaceId": "1276914048",
      "name": "쏘카 신구초교공영주차장",
      "address": "서울특별시 강남구 신사동 550-11",
      "roadAddress": "서울특별시 강남구 압구정로14길 21",
      "lat": 37.522713,
      "lng": 127.023575,
      "phone": "1661-8838",
      "dong": "신사동"
    },
    {
      "naverPlaceId": "21185670",
      "name": "공영주차장",
      "address": "서울특별시 강남구 역삼동",
      "roadAddress": "",
      "lat": 37.4952425,
      "lng": 127.0332825,
      "phone": "",
      "dong": "역삼동"
    },
    {
      "naverPlaceId": "21185954",
      "name": "역삼창조길공영노상주차장",
      "address": "서울특별시 강남구 역삼동",
      "roadAddress": "",
      "lat": 37.4996263,
      "lng": 127.035975,
      "phone": "",
      "dong": "역삼동"
    },
    {
      "naverPlaceId": "21185663",
      "name": "역삼화랑길공영주차장",
      "address": "서울특별시 강남구 역삼동",
      "roadAddress": "",
      "lat": 37.4924245,
      "lng": 127.0387397,
      "phone": "",
      "dong": "역삼동"
    },
    {
      "naverPlaceId": "1944704352",
      "name": "역삼문화공원제1호공영주차장입출구",
      "address": "서울특별시 강남구 역삼동",
      "roadAddress": "",
      "lat": 37.5005058,
      "lng": 127.0302578,
      "phone": "",
      "dong": "역삼동"
    },
    {
      "naverPlaceId": "1338634476",
      "name": "역삼문화공원제2호공영주차장입출구",
      "address": "서울특별시 강남구 역삼동",
      "roadAddress": "",
      "lat": 37.5025246,
      "lng": 127.0299047,
      "phone": "",
      "dong": "역삼동"
    },
    {
      "naverPlaceId": "1995767557",
      "name": "역삼문화공원 공영주차장 지하 전기차충전소",
      "address": "서울특별시 강남구 역삼동 635-1",
      "roadAddress": "서울특별시 강남구 테헤란로7길 21",
      "lat": 37.5005631,
      "lng": 127.0300354,
      "phone": "1522-2573",
      "dong": "역삼동"
    },
    {
      "naverPlaceId": "1510132953",
      "name": "역삼1문화센터 공영주차장 전기차충전소",
      "address": "서울특별시 강남구 역삼동 829-20",
      "roadAddress": "서울특별시 강남구 역삼로7길 16",
      "lat": 37.4953732,
      "lng": 127.0332838,
      "phone": "1588-5339",
      "dong": "역삼동"
    },
    {
      "naverPlaceId": "1315145751",
      "name": "역삼문화공원 공영주차장 전기차충전소",
      "address": "서울특별시 강남구 역삼동 635",
      "roadAddress": "서울특별시 강남구 테헤란로7길 32",
      "lat": 37.5022483,
      "lng": 127.0299744,
      "phone": "1588-5339",
      "dong": "역삼동"
    },
    {
      "naverPlaceId": "18794242",
      "name": "도곡로21길7공영주차장입출구",
      "address": "서울특별시 강남구 역삼동",
      "roadAddress": "",
      "lat": 37.4925413,
      "lng": 127.0390162,
      "phone": "",
      "dong": "역삼동"
    },
    {
      "naverPlaceId": "1102995907",
      "name": "도곡로21길 7 공영주차장 전기차충전소",
      "address": "서울특별시 강남구 역삼동 795-25",
      "roadAddress": "서울특별시 강남구 도곡로21길 7",
      "lat": 37.4925942,
      "lng": 127.03887,
      "phone": "1588-5339",
      "dong": "역삼동"
    },
    {
      "naverPlaceId": "1563578416",
      "name": "역삼문화공원제1호공영주차장입구",
      "address": "서울특별시 강남구 역삼동",
      "roadAddress": "",
      "lat": 37.4999107,
      "lng": 127.0297123,
      "phone": "",
      "dong": "역삼동"
    },
    {
      "naverPlaceId": "1877637492",
      "name": "쏘카 역삼1동문화센터 공영주차장",
      "address": "서울특별시 강남구 역삼동 829-20",
      "roadAddress": "서울특별시 강남구 역삼로7길 16",
      "lat": 37.495399,
      "lng": 127.032974,
      "phone": "1661-8838",
      "dong": "역삼동"
    },
    {
      "naverPlaceId": "1940245660",
      "name": "쏘카 도곡로21길7 공영주차장",
      "address": "서울특별시 강남구 역삼동 795-25",
      "roadAddress": "서울특별시 강남구 도곡로21길 7",
      "lat": 37.49255,
      "lng": 127.038857,
      "phone": "1661-8838",
      "dong": "역삼동"
    },
    {
      "naverPlaceId": "1056167054",
      "name": "마루공영주차장",
      "address": "서울특별시 강남구 일원동 580",
      "roadAddress": "서울특별시 강남구 개포로 625",
      "lat": 37.4968002,
      "lng": 127.0828268,
      "phone": "02-445-9705",
      "dong": "일원동"
    },
    {
      "naverPlaceId": "1111812044",
      "name": "일원동 맛의거리 공영노상주차장",
      "address": "서울특별시 강남구 일원동 687 주변 ~ 양재대로55길 3 주변 맛의거리 공영노상주차장",
      "roadAddress": "서울특별시 강남구 일원로 53 주변 ~ 양재대로55길 3 주변 일원동 맛의거리 공영노상주차장",
      "lat": 37.4892734,
      "lng": 127.0818266,
      "phone": "",
      "dong": "일원동"
    },
    {
      "naverPlaceId": "18850450",
      "name": "영희초등학교공영주차장입구",
      "address": "서울특별시 강남구 일원동",
      "roadAddress": "",
      "lat": 37.4922862,
      "lng": 127.0820024,
      "phone": "",
      "dong": "일원동"
    },
    {
      "naverPlaceId": "1827630684",
      "name": "탄천제2공영주차장 전기차 충전소 이노버스 무인회수기 재활용품 회수 거점",
      "address": "서울특별시 강남구 일원동",
      "roadAddress": "서울특별시 강남구",
      "lat": 37.4941225,
      "lng": 127.0874368,
      "phone": "",
      "dong": "일원동"
    },
    {
      "naverPlaceId": "37197171",
      "name": "쏘카 영희초교 공영주차장",
      "address": "서울특별시 강남구 일원동 707-3",
      "roadAddress": "",
      "lat": 37.492203,
      "lng": 127.081833,
      "phone": "1661-8838",
      "dong": "일원동"
    },
    {
      "naverPlaceId": "1390613364",
      "name": "일원역 공영주차장 전기차충전소",
      "address": "서울특별시 강남구 일원동 715",
      "roadAddress": "서울특별시 강남구 일원로 105-2",
      "lat": 37.4847705,
      "lng": 127.0836287,
      "phone": "1661-7766",
      "dong": "일원동"
    },
    {
      "naverPlaceId": "1030424801",
      "name": "일원역공영주차장 전기차충전소",
      "address": "서울특별시 강남구 일원동",
      "roadAddress": "서울특별시 강남구",
      "lat": 37.4846834,
      "lng": 127.0840891,
      "phone": "1522-2573",
      "dong": "일원동"
    },
    {
      "naverPlaceId": "1516173743",
      "name": "탄천제2호 공영주차장 전기차충전소",
      "address": "서울특별시 강남구 일원동 4-49",
      "roadAddress": "",
      "lat": 37.493808,
      "lng": 127.0872546,
      "phone": "1661-9408",
      "dong": "일원동"
    },
    {
      "naverPlaceId": "1760003761",
      "name": "영희초교 공영주차장 전기차충전소",
      "address": "서울특별시 강남구 일원동 617",
      "roadAddress": "서울특별시 강남구 일원로 21",
      "lat": 37.4922984,
      "lng": 127.0818967,
      "phone": "1522-2573",
      "dong": "일원동"
    },
    {
      "naverPlaceId": "1685826292",
      "name": "탄천제2호 공영주차장 전기차충전소",
      "address": "서울특별시 강남구 일원동 4-49",
      "roadAddress": "서울특별시 강남구",
      "lat": 37.4941368,
      "lng": 127.0876941,
      "phone": "1588-5339",
      "dong": "일원동"
    },
    {
      "naverPlaceId": "1300727669",
      "name": "영희초등학교 공영주차장 전기차충전소",
      "address": "서울특별시 강남구 일원동 707-3",
      "roadAddress": "",
      "lat": 37.4922929,
      "lng": 127.0819742,
      "phone": "1588-5339",
      "dong": "일원동"
    },
    {
      "naverPlaceId": "37112661",
      "name": "G car zone 탄천 제2호공영주차장",
      "address": "서울특별시 강남구 일원동 641-3 건너편",
      "roadAddress": "서울특별시 강남구 개포로140길 30 건너편",
      "lat": 37.4941243,
      "lng": 127.0874385,
      "phone": "1899-1313",
      "dong": "일원동"
    },
    {
      "naverPlaceId": "109276510",
      "name": "언북초등학교공영주차장",
      "address": "서울특별시 강남구 청담동 27",
      "roadAddress": "서울특별시 강남구 삼성로135길 42",
      "lat": 37.52025,
      "lng": 127.046313,
      "phone": "",
      "dong": "청담동"
    },
    {
      "naverPlaceId": "36015852",
      "name": "선릉로길노상공영주차장",
      "address": "서울특별시 강남구 청담동 77-27",
      "roadAddress": "",
      "lat": 37.5218269,
      "lng": 127.0405546,
      "phone": "1544-3113",
      "dong": "청담동"
    },
    {
      "naverPlaceId": "21185877",
      "name": "청담청아길공영노상주차장",
      "address": "서울특별시 강남구 청담동 77-84",
      "roadAddress": "서울특별시 강남구 선릉로132길 12-2",
      "lat": 37.5180999,
      "lng": 127.0421874,
      "phone": "",
      "dong": "청담동"
    },
    {
      "naverPlaceId": "1232341674",
      "name": "선릉로132길 공영노상주차장",
      "address": "서울특별시 강남구 청담동 42 주변 선릉로132길 공영노상주차장",
      "roadAddress": "서울특별시 강남구 학동로 405 주변 선릉로132길 공영노상주차장",
      "lat": 37.5180938,
      "lng": 127.0425931,
      "phone": "",
      "dong": "청담동"
    },
    {
      "naverPlaceId": "1366174279",
      "name": "선릉로146길 공영노상주차장",
      "address": "서울특별시 강남구 청담동 23",
      "roadAddress": "서울특별시 강남구 선릉로 748",
      "lat": 37.5215553,
      "lng": 127.0407662,
      "phone": "",
      "dong": "청담동"
    },
    {
      "naverPlaceId": "18808105",
      "name": "언북초등학교공영주차장입구",
      "address": "서울특별시 강남구 청담동",
      "roadAddress": "",
      "lat": 37.5204797,
      "lng": 127.0465246,
      "phone": "",
      "dong": "청담동"
    },
    {
      "naverPlaceId": "1302802639",
      "name": "언북초등학교 공영주차장 지하1층~2층 대피소",
      "address": "서울특별시 강남구 청담동 27",
      "roadAddress": "서울특별시 강남구 삼성로135길 42",
      "lat": 37.5196123,
      "lng": 127.0459428,
      "phone": "",
      "dong": "청담동"
    },
    {
      "naverPlaceId": "1002940720",
      "name": "언북초등학교 공영주차장 전기차충전소",
      "address": "서울특별시 강남구 청담동 27",
      "roadAddress": "서울특별시 강남구 삼성로135길 42",
      "lat": 37.5201251,
      "lng": 127.0447158,
      "phone": "1588-5339",
      "dong": "청담동"
    },
    {
      "naverPlaceId": "444432686",
      "name": "언북초등학교공영주차장출구",
      "address": "서울특별시 강남구 청담동",
      "roadAddress": "",
      "lat": 37.5200039,
      "lng": 127.0467086,
      "phone": "",
      "dong": "청담동"
    },
    {
      "naverPlaceId": "1876552584",
      "name": "언북초교 공영주차장 전기차충전소",
      "address": "서울특별시 강남구 청담동 27",
      "roadAddress": "서울특별시 강남구 삼성로135길 42",
      "lat": 37.5203479,
      "lng": 127.0463994,
      "phone": "1522-2573",
      "dong": "청담동"
    },
    {
      "naverPlaceId": "37112753",
      "name": "G car zone 언북초등학교 공영주차장",
      "address": "서울특별시 강남구 청담동 27",
      "roadAddress": "서울특별시 강남구 삼성로135길 42",
      "lat": 37.5203287,
      "lng": 127.0464995,
      "phone": "1899-1313",
      "dong": "청담동"
    },
    {
      "naverPlaceId": "1900796784",
      "name": "언북초등학교공영주차장입구",
      "address": "서울특별시 강남구 청담동",
      "roadAddress": "",
      "lat": 37.5202142,
      "lng": 127.0465783,
      "phone": "",
      "dong": "청담동"
    }
  ],
  "sido": "서울특별시",
  "sigungu": "강남구",
  "totalCount": 211,
  "source": "naver-map",
  "scrapedAt": "2026-02-10"
}