{
  "items": [
    {
      "naverPlaceId": "21185570",
      "name": "천호지하주차장",
      "address": "서울특별시 강동구 성내동 산18-4",
      "roadAddress": "",
      "lat": 37.5371833,
      "lng": 127.1282125,
      "phone": "02-2290-6201",
      "dong": "강동"
    },
    {
      "naverPlaceId": "21186035",
      "name": "명일동공영주차장",
      "address": "서울특별시 강동구 명일동 312-250",
      "roadAddress": "서울특별시 강동구 구천면로 395",
      "lat": 37.5511434,
      "lng": 127.1428633,
      "phone": "02-442-6124",
      "dong": "강동"
    },
    {
      "naverPlaceId": "21185772",
      "name": "천호1동공영주차장",
      "address": "서울특별시 강동구 천호동 87-26",
      "roadAddress": "서울특별시 강동구 구천면로42길 60",
      "lat": 37.5447499,
      "lng": 127.1366499,
      "phone": "02-487-0073",
      "dong": "강동"
    },
    {
      "naverPlaceId": "1247601563",
      "name": "천호3동제2공영주차장",
      "address": "서울특별시 강동구 천호동 174-1",
      "roadAddress": "서울특별시 강동구 성안로31마길 1",
      "lat": 37.5407664,
      "lng": 127.134007,
      "phone": "",
      "dong": "강동"
    },
    {
      "naverPlaceId": "1964689517",
      "name": "안말 공영 주차장",
      "address": "서울특별시 강동구 성내동 512",
      "roadAddress": "서울특별시 강동구 풍성로45길 11",
      "lat": 37.5312571,
      "lng": 127.1299172,
      "phone": "",
      "dong": "강동"
    },
    {
      "naverPlaceId": "21185848",
      "name": "천호유수지공영주차장",
      "address": "서울특별시 강동구 천호동 329",
      "roadAddress": "서울특별시 강동구 선사로 70",
      "lat": 37.5448582,
      "lng": 127.1221249,
      "phone": "02-473-3124",
      "dong": "강동"
    },
    {
      "naverPlaceId": "18648714",
      "name": "암사1동공영주차장",
      "address": "서울특별시 강동구 암사동 산59-2",
      "roadAddress": "서울특별시 강동구 고덕로28길 36",
      "lat": 37.5529833,
      "lng": 127.1377124,
      "phone": "02-428-2431",
      "dong": "강동"
    },
    {
      "naverPlaceId": "21186193",
      "name": "강일동공영주차장",
      "address": "서울특별시 강동구 강일동 665-4",
      "roadAddress": "서울특별시 강동구 아리수로91길 54",
      "lat": 37.565969,
      "lng": 127.1722618,
      "phone": "02-427-6124",
      "dong": "강동"
    },
    {
      "naverPlaceId": "522696897",
      "name": "강일동 노상 공영 주차장",
      "address": "서울특별시 강동구 강일동 688",
      "roadAddress": "",
      "lat": 37.565591,
      "lng": 127.1733791,
      "phone": "",
      "dong": "강동"
    },
    {
      "naverPlaceId": "18894078",
      "name": "주양쇼핑옆공영노상주차장",
      "address": "서울특별시 강동구 명일동 47-21",
      "roadAddress": "",
      "lat": 37.5527916,
      "lng": 127.1529875,
      "phone": "",
      "dong": "강동"
    },
    {
      "naverPlaceId": "21185942",
      "name": "주양쇼핑앞공영노상주차장",
      "address": "서울특별시 강동구 명일동 48-26",
      "roadAddress": "서울특별시 강동구 동남로71길 56",
      "lat": 37.5518917,
      "lng": 127.1533124,
      "phone": "",
      "dong": "강동"
    },
    {
      "naverPlaceId": "1813071897",
      "name": "온조대왕옆공영주차장",
      "address": "서울특별시 강동구 고덕동 302",
      "roadAddress": "서울특별시 강동구 동남로 960",
      "lat": 37.559185,
      "lng": 127.1568527,
      "phone": "",
      "dong": "강동"
    },
    {
      "naverPlaceId": "47594852",
      "name": "고분다리 전통시장 공영 주차장",
      "address": "서울특별시 강동구 천호동 280-9",
      "roadAddress": "서울특별시 강동구 구천면로 258-6",
      "lat": 37.5429732,
      "lng": 127.1322399,
      "phone": "",
      "dong": "강동"
    },
    {
      "naverPlaceId": "36015869",
      "name": "천호2동공영주차장",
      "address": "서울특별시 강동구 천호동 457-7",
      "roadAddress": "",
      "lat": 37.5403394,
      "lng": 127.1230036,
      "phone": "",
      "dong": "강동"
    },
    {
      "naverPlaceId": "36015866",
      "name": "천호2동제2노상공영주차장",
      "address": "서울특별시 강동구 천호동 458-26",
      "roadAddress": "",
      "lat": 37.5392972,
      "lng": 127.1225319,
      "phone": "",
      "dong": "강동"
    },
    {
      "naverPlaceId": "37483658",
      "name": "강일동공영노상주차장",
      "address": "서울특별시 강동구 강일동 677",
      "roadAddress": "서울특별시 강동구 아리수로91길 24-9",
      "lat": 37.5654025,
      "lng": 127.1734463,
      "phone": "",
      "dong": "강동"
    },
    {
      "naverPlaceId": "18925342",
      "name": "강동공영차고지",
      "address": "서울특별시 강동구 강일동 682",
      "roadAddress": "서울특별시 강동구 아리수로 426",
      "lat": 37.5638127,
      "lng": 127.1748849,
      "phone": "",
      "dong": "강동"
    },
    {
      "naverPlaceId": "1564494118",
      "name": "강일동 공영주차장 전기차충전소",
      "address": "서울특별시 강동구 강일동 665-4",
      "roadAddress": "서울특별시 강동구 아리수로91길 54",
      "lat": 37.565982,
      "lng": 127.1722779,
      "phone": "1588-5339",
      "dong": "강동"
    },
    {
      "naverPlaceId": "31978334",
      "name": "강동아트센터주차장",
      "address": "서울특별시 강동구 상일동 477",
      "roadAddress": "서울특별시 강동구 동남로 870",
      "lat": 37.5515887,
      "lng": 127.1573808,
      "phone": "02-440-0591",
      "dong": "강동"
    },
    {
      "naverPlaceId": "1199176068",
      "name": "민속의 집 공영 주차장",
      "address": "서울특별시 강동구 고덕동 215",
      "roadAddress": "서울특별시 강동구 고덕로83길 55",
      "lat": 37.5596921,
      "lng": 127.1684137,
      "phone": "",
      "dong": "강동"
    },
    {
      "naverPlaceId": "36015868",
      "name": "주양쇼핑옆노상공영주차장",
      "address": "서울특별시 강동구 명일2동 47-21",
      "roadAddress": "",
      "lat": 37.5529397,
      "lng": 127.1530755,
      "phone": "",
      "dong": "강동"
    },
    {
      "naverPlaceId": "35977145",
      "name": "명일파출소공영주차장",
      "address": "서울특별시 강동구 명일동 47-9",
      "roadAddress": "",
      "lat": 37.5535891,
      "lng": 127.1559059,
      "phone": "",
      "dong": "강동"
    },
    {
      "naverPlaceId": "36015867",
      "name": "주양쇼핑앞노상공영주차장",
      "address": "서울특별시 강동구 명일동 48-26",
      "roadAddress": "서울특별시 강동구 동남로71길 56",
      "lat": 37.5518434,
      "lng": 127.1547175,
      "phone": "",
      "dong": "강동"
    },
    {
      "naverPlaceId": "13501980",
      "name": "볕우물 공영주차장",
      "address": "서울특별시 강동구 암사동 473-3",
      "roadAddress": "서울특별시 강동구 고덕로24길 50",
      "lat": 37.5523531,
      "lng": 127.1350769,
      "phone": "02-3405-4595",
      "dong": "강동"
    },
    {
      "naverPlaceId": "1075330263",
      "name": "명일동 주차장",
      "address": "서울특별시 강동구 명일동 312-250",
      "roadAddress": "서울특별시 강동구 구천면로 395",
      "lat": 37.550996,
      "lng": 127.142704,
      "phone": "",
      "dong": "강동"
    },
    {
      "naverPlaceId": "1010329454",
      "name": "명일2동 주민센터 주차장",
      "address": "서울특별시 강동구 명일동 223-7",
      "roadAddress": "서울특별시 강동구 상암로 260",
      "lat": 37.5463223,
      "lng": 127.1513484,
      "phone": "",
      "dong": "강동"
    },
    {
      "naverPlaceId": "1247033824",
      "name": "둔촌역전통시장 공영주차장",
      "address": "서울특별시 강동구 성내동 417-34",
      "roadAddress": "서울특별시 강동구 풍성로54길 19",
      "lat": 37.5285658,
      "lng": 127.1337073,
      "phone": "02-478-6147",
      "dong": "강동"
    },
    {
      "naverPlaceId": "1535940197",
      "name": "성내전통시장 공영주차장",
      "address": "서울특별시 강동구 성내동 224-14 31-10,",
      "roadAddress": "서울특별시 강동구 풍성로37가길 31-9 31-10,",
      "lat": 37.533397,
      "lng": 127.128266,
      "phone": "02-478-6147",
      "dong": "강동"
    },
    {
      "naverPlaceId": "1142477168",
      "name": "암사1동 노상 공영 주차장",
      "address": "서울특별시 강동구 암사동 501-10",
      "roadAddress": "서울특별시 강동구 올림픽로98길 8",
      "lat": 37.5511332,
      "lng": 127.1284387,
      "phone": "",
      "dong": "강동"
    },
    {
      "naverPlaceId": "18924449",
      "name": "천호3동공영지하주차장",
      "address": "서울특별시 강동구 천호동",
      "roadAddress": "",
      "lat": 37.5389261,
      "lng": 127.1331767,
      "phone": "",
      "dong": "강동"
    },
    {
      "naverPlaceId": "36010935",
      "name": "천호3동공영주차장",
      "address": "서울특별시 강동구 천호동 167-195 공영주차장",
      "roadAddress": "서울특별시 강동구 진황도로29길 34 천호동공영주차장",
      "lat": 37.5389261,
      "lng": 127.1331767,
      "phone": "02-472-0066",
      "dong": "강동"
    },
    {
      "naverPlaceId": "1950689318",
      "name": "성내3동 주민센터 주차장",
      "address": "서울특별시 강동구 성내동 430-29",
      "roadAddress": "서울특별시 강동구 강동대로53길 76",
      "lat": 37.5260027,
      "lng": 127.1328729,
      "phone": "",
      "dong": "강동"
    },
    {
      "naverPlaceId": "1787145572",
      "name": "천호2동복합청사공영주차장",
      "address": "서울특별시 강동구 천호동 422-12",
      "roadAddress": "서울특별시 강동구 올림픽로80길 60",
      "lat": 37.5421394,
      "lng": 127.1283033,
      "phone": "",
      "dong": "강동"
    },
    {
      "naverPlaceId": "1382745952",
      "name": "천호3동복합청사공영주차장",
      "address": "서울특별시 강동구 천호동 555",
      "roadAddress": "서울특별시 강동구 진황도로23길 7",
      "lat": 37.5399434,
      "lng": 127.1298032,
      "phone": "",
      "dong": "강동"
    },
    {
      "naverPlaceId": "36271667",
      "name": "강동구립성내도서관주차장",
      "address": "서울특별시 강동구 성내동 385 성내구립도서관",
      "roadAddress": "서울특별시 강동구 성안로 106-1 성내구립도서관",
      "lat": 37.5328413,
      "lng": 127.1333581,
      "phone": "",
      "dong": "강동"
    },
    {
      "naverPlaceId": "1289787694",
      "name": "효성해링턴타워더퍼스트 주차장",
      "address": "서울특별시 강동구 명일동 46-2",
      "roadAddress": "서울특별시 강동구 고덕로 262",
      "lat": 37.5547469,
      "lng": 127.1546612,
      "phone": "",
      "dong": "강동"
    },
    {
      "naverPlaceId": "21185655",
      "name": "공영노상주차장",
      "address": "서울특별시 강동구 명일동 47-21",
      "roadAddress": "",
      "lat": 37.5529397,
      "lng": 127.1530755,
      "phone": "",
      "dong": "강동"
    },
    {
      "naverPlaceId": "38739581",
      "name": "명일동공영주차장 개방화장실",
      "address": "서울특별시 강동구 명일동 312-250",
      "roadAddress": "서울특별시 강동구 구천면로 395",
      "lat": 37.5510395,
      "lng": 127.1428863,
      "phone": "02-2045-7743",
      "dong": "강동"
    },
    {
      "naverPlaceId": "282043890",
      "name": "주양쇼핑옆공영노상주차장",
      "address": "서울특별시 강동구 명일동",
      "roadAddress": "",
      "lat": 37.5529667,
      "lng": 127.153075,
      "phone": "",
      "dong": "강동"
    },
    {
      "naverPlaceId": "1161006316",
      "name": "강동명일동 공영주차장 전기차충전소",
      "address": "서울특별시 강동구 명일동 312-250",
      "roadAddress": "서울특별시 강동구 구천면로 395",
      "lat": 37.5508929,
      "lng": 127.142629,
      "phone": "1522-2573",
      "dong": "강동"
    },
    {
      "naverPlaceId": "1021021304",
      "name": "명일동 공영주차장(지하1,2,3층) 대피소",
      "address": "서울특별시 강동구 명일동 312-250",
      "roadAddress": "서울특별시 강동구 구천면로 395",
      "lat": 37.5510387,
      "lng": 127.1429102,
      "phone": "",
      "dong": "강동"
    },
    {
      "naverPlaceId": "1134307903",
      "name": "명일동 공영주차장 한국전력 전기차충전소",
      "address": "서울특별시 강동구 명일동 312-250",
      "roadAddress": "서울특별시 강동구 구천면로 395",
      "lat": 37.5510592,
      "lng": 127.1427233,
      "phone": "1899-2100",
      "dong": "강동"
    },
    {
      "naverPlaceId": "1118370226",
      "name": "명일동공영주차장입구",
      "address": "서울특별시 강동구 명일동",
      "roadAddress": "",
      "lat": 37.5536048,
      "lng": 127.1558233,
      "phone": "",
      "dong": "강동"
    },
    {
      "naverPlaceId": "1111112392",
      "name": "명일동 공영주차장 보타리에너지 전기차충전소",
      "address": "서울특별시 강동구 명일동 312-250",
      "roadAddress": "서울특별시 강동구 구천면로 395",
      "lat": 37.5510407,
      "lng": 127.1429044,
      "phone": "1588-5339",
      "dong": "강동"
    },
    {
      "naverPlaceId": "18917375",
      "name": "강동구청옆공영노상주차장",
      "address": "서울특별시 강동구 성내동 583",
      "roadAddress": "",
      "lat": 37.5301156,
      "lng": 127.1231873,
      "phone": "",
      "dong": "강동"
    },
    {
      "naverPlaceId": "34353181",
      "name": "천호공영주차장 강동입구",
      "address": "서울특별시 강동구 성내동",
      "roadAddress": "",
      "lat": 37.536518,
      "lng": 127.130991,
      "phone": "",
      "dong": "강동"
    },
    {
      "naverPlaceId": "1628733469",
      "name": "안말어린이공원 공영주차장(지하1~3층) 대피소",
      "address": "서울특별시 강동구 성내동 512",
      "roadAddress": "서울특별시 강동구 풍성로45길 11",
      "lat": 37.5312326,
      "lng": 127.1298581,
      "phone": "",
      "dong": "강동"
    },
    {
      "naverPlaceId": "1547980281",
      "name": "피플카 천호역 6번출구(천호지하공영주차장)",
      "address": "서울특별시 강동구 성내동 62-1",
      "roadAddress": "서울특별시 강동구 천호대로 1026-1",
      "lat": 37.5379322,
      "lng": 127.1233041,
      "phone": "",
      "dong": "강동"
    },
    {
      "naverPlaceId": "1828304877",
      "name": "천호역 공영주차장 전기차충전소",
      "address": "서울특별시 강동구 성내동 62-1",
      "roadAddress": "서울특별시 강동구 천호대로 1026-1",
      "lat": 37.5378192,
      "lng": 127.1256663,
      "phone": "02-2640-5199",
      "dong": "강동"
    },
    {
      "naverPlaceId": "20620980",
      "name": "천호공영주차장 강동출구",
      "address": "서울특별시 강동구 성내동",
      "roadAddress": "",
      "lat": 37.5364436,
      "lng": 127.1299306,
      "phone": "",
      "dong": "강동"
    },
    {
      "naverPlaceId": "1162185460",
      "name": "서울시 천호역공영주차장(급속) 전기차충전소",
      "address": "서울특별시 강동구 성내동 62-1",
      "roadAddress": "서울특별시 강동구 천호대로 1026-1",
      "lat": 37.5379186,
      "lng": 127.1251609,
      "phone": "1661-7766",
      "dong": "강동"
    },
    {
      "naverPlaceId": "38739808",
      "name": "안말공영주차장 개방화장실",
      "address": "서울특별시 강동구 성내동 512",
      "roadAddress": "서울특별시 강동구 풍성로45길 11",
      "lat": 37.5312545,
      "lng": 127.1298969,
      "phone": "02-2045-7743",
      "dong": "강동"
    },
    {
      "naverPlaceId": "1545835287",
      "name": "둔촌역전통시장 공영주차장입출구",
      "address": "서울특별시 강동구 성내동",
      "roadAddress": "",
      "lat": 37.5285791,
      "lng": 127.1336329,
      "phone": "",
      "dong": "강동"
    },
    {
      "naverPlaceId": "1395103510",
      "name": "천호역공영주차장 해피차저 전기차충전소",
      "address": "서울특별시 강동구 성내동 62-1",
      "roadAddress": "서울특별시 강동구 천호대로 1026-1",
      "lat": 37.537917,
      "lng": 127.1251499,
      "phone": "1522-1782",
      "dong": "강동"
    },
    {
      "naverPlaceId": "1397877911",
      "name": "안말공영주차장 전기차충전소",
      "address": "서울특별시 강동구 성내동 512",
      "roadAddress": "서울특별시 강동구 풍성로45길 11",
      "lat": 37.5312572,
      "lng": 127.1299156,
      "phone": "1588-5339",
      "dong": "강동"
    },
    {
      "naverPlaceId": "1834839964",
      "name": "성내전통시장 공영주차장입출구",
      "address": "서울특별시 강동구 성내동",
      "roadAddress": "",
      "lat": 37.5330076,
      "lng": 127.1281735,
      "phone": "",
      "dong": "강동"
    },
    {
      "naverPlaceId": "35977260",
      "name": "암사나들목노상공영주차장",
      "address": "서울특별시 강동구 암사동 613-11",
      "roadAddress": "",
      "lat": 37.5546515,
      "lng": 127.1235586,
      "phone": "",
      "dong": "강동"
    },
    {
      "naverPlaceId": "1740536184",
      "name": "암사1동공영주차장 지하주차장 전층(지하1~3층) 대피소",
      "address": "서울특별시 강동구 암사동 산59-2",
      "roadAddress": "서울특별시 강동구 고덕로28길 36",
      "lat": 37.5530546,
      "lng": 127.1377392,
      "phone": "",
      "dong": "강동"
    },
    {
      "naverPlaceId": "1217986314",
      "name": "암사1동공영주차장입출구",
      "address": "서울특별시 강동구 암사동",
      "roadAddress": "",
      "lat": 37.5530526,
      "lng": 127.1378076,
      "phone": "",
      "dong": "강동"
    },
    {
      "naverPlaceId": "1338290411",
      "name": "암사1동 공영주차장 대한송유관공사 전기차충전소",
      "address": "서울특별시 강동구 암사동 산59-2",
      "roadAddress": "서울특별시 강동구 고덕로28길 36",
      "lat": 37.552723,
      "lng": 127.1382437,
      "phone": "",
      "dong": "강동"
    },
    {
      "naverPlaceId": "772883785",
      "name": "볕우물 공영주차장입출구",
      "address": "서울특별시 강동구 암사동",
      "roadAddress": "서울특별시 강동구",
      "lat": 37.5525382,
      "lng": 127.1349836,
      "phone": "",
      "dong": "강동"
    },
    {
      "naverPlaceId": "1000461763",
      "name": "암사1동 공영주차장 보타리에너지 전기차충전소",
      "address": "서울특별시 강동구 암사동 산59-2",
      "roadAddress": "서울특별시 강동구 고덕로28길 36",
      "lat": 37.5527078,
      "lng": 127.1379968,
      "phone": "1588-5339",
      "dong": "강동"
    },
    {
      "naverPlaceId": "1700099677",
      "name": "천호유수지공영주차장 개방화장실",
      "address": "서울특별시 강동구 천호동 329",
      "roadAddress": "서울특별시 강동구 선사로 70",
      "lat": 37.5448256,
      "lng": 127.1221418,
      "phone": "",
      "dong": "강동"
    },
    {
      "naverPlaceId": "18922286",
      "name": "천호유수지공영주차장입구",
      "address": "서울특별시 강동구 천호동",
      "roadAddress": "",
      "lat": 37.5443074,
      "lng": 127.1212206,
      "phone": "",
      "dong": "강동"
    },
    {
      "naverPlaceId": "1917570443",
      "name": "천호3동 공영주차장 개방화장실",
      "address": "서울특별시 강동구 천호동 170-2",
      "roadAddress": "서울특별시 강동구 성안로25길 40",
      "lat": 37.5386888,
      "lng": 127.1333137,
      "phone": "",
      "dong": "강동"
    },
    {
      "naverPlaceId": "38739398",
      "name": "천호 공영주차장 개방화장실",
      "address": "서울특별시 강동구 천호동 452",
      "roadAddress": "서울특별시 강동구 천호대로 1045",
      "lat": 37.5371564,
      "lng": 127.1282192,
      "phone": "",
      "dong": "강동"
    },
    {
      "naverPlaceId": "1518112088",
      "name": "천호3동제2 공영주차장 개방화장실",
      "address": "서울특별시 강동구 천호동 174-1",
      "roadAddress": "서울특별시 강동구 성안로31마길 1",
      "lat": 37.5407529,
      "lng": 127.1340168,
      "phone": "",
      "dong": "강동"
    },
    {
      "naverPlaceId": "1513587594",
      "name": "천호역공영주차장 채비 전기차충전소",
      "address": "서울특별시 강동구 천호동 455",
      "roadAddress": "서울특별시 강동구 천호대로 1015",
      "lat": 37.538494,
      "lng": 127.1251089,
      "phone": "1522-2573",
      "dong": "강동"
    },
    {
      "naverPlaceId": "1770494776",
      "name": "천호2동복합청사공영주차장입출구",
      "address": "서울특별시 강동구 천호동",
      "roadAddress": "서울특별시 강동구",
      "lat": 37.5416967,
      "lng": 127.1283961,
      "phone": "",
      "dong": "강동"
    },
    {
      "naverPlaceId": "1867492984",
      "name": "천호3동 제2공영주차장 전기차충전소",
      "address": "서울특별시 강동구 천호동 174-4",
      "roadAddress": "",
      "lat": 37.5405232,
      "lng": 127.1340815,
      "phone": "1600-4047",
      "dong": "강동"
    },
    {
      "naverPlaceId": "1001670442",
      "name": "천호역공영주차장화장실",
      "address": "서울특별시 강동구 천호동 455",
      "roadAddress": "서울특별시 강동구 천호대로 1015",
      "lat": 37.538507,
      "lng": 127.125128,
      "phone": "",
      "dong": "강동"
    },
    {
      "naverPlaceId": "1155276210",
      "name": "천호2동복합청사공영주차장입출구",
      "address": "서울특별시 강동구 천호동",
      "roadAddress": "서울특별시 강동구",
      "lat": 37.5425296,
      "lng": 127.128535,
      "phone": "",
      "dong": "강동"
    }
  ],
  "sido": "서울특별시",
  "sigungu": "강동구",
  "totalCount": 72,
  "source": "naver-map",
  "scrapedAt": "2026-02-10"
}