{
  "items": [
    {
      "naverPlaceId": "1840861471",
      "name": "가로공원로 지하공영주차장 전기차충전소",
      "address": "서울특별시 강서구 화곡동 662-15",
      "roadAddress": "서울특별시 강서구 가로공원로 189",
      "lat": 37.5374794,
      "lng": 126.8394781,
      "phone": "",
      "dong": "화곡동"
    },
    {
      "naverPlaceId": "35896060",
      "name": "개화역 환승 공영 주차장",
      "address": "서울특별시 강서구 개화동 663",
      "roadAddress": "서울특별시 강서구 개화동로8길 17",
      "lat": 37.5779064,
      "lng": 126.7985166,
      "phone": "02-2290-6312",
      "dong": "개화동"
    },
    {
      "naverPlaceId": "36015781",
      "name": "개화산역환승공영주차장",
      "address": "서울특별시 강서구 방화동 845",
      "roadAddress": "",
      "lat": 37.5721975,
      "lng": 126.8051901,
      "phone": "02-2290-6064",
      "dong": "방화동"
    },
    {
      "naverPlaceId": "18931605",
      "name": "화곡6-1공영주차장",
      "address": "서울특별시 강서구 화곡동 1103-6",
      "roadAddress": "서울특별시 강서구 우장산로 114",
      "lat": 37.5531227,
      "lng": 126.8482531,
      "phone": "",
      "dong": "화곡동"
    },
    {
      "naverPlaceId": "36060698",
      "name": "배다리서길 노상 공영 주차장",
      "address": "서울특별시 강서구 화곡동 949-8",
      "roadAddress": "",
      "lat": 37.5284258,
      "lng": 126.8439511,
      "phone": "",
      "dong": "화곡동"
    },
    {
      "naverPlaceId": "36010760",
      "name": "곰달래문화복지센터 공영 주차장",
      "address": "서울특별시 강서구 화곡동 890 복지문화센터및공영주차장",
      "roadAddress": "서울특별시 강서구 강서로5길 50 복지문화센터및공영주차장",
      "lat": 37.5289114,
      "lng": 126.8491874,
      "phone": "02-2690-2818",
      "dong": "화곡동"
    },
    {
      "naverPlaceId": "37038758",
      "name": "볏골어린이공원주차장",
      "address": "서울특별시 강서구 화곡동 98-99 볏골공원 지하주차장",
      "roadAddress": "서울특별시 강서구 까치산로4길 22 볏골공원 지하주차장",
      "lat": 37.5415917,
      "lng": 126.8444374,
      "phone": "02-2065-1575",
      "dong": "화곡동"
    },
    {
      "naverPlaceId": "21185627",
      "name": "화곡4-1공영주차장",
      "address": "서울특별시 강서구 화곡동 809-26",
      "roadAddress": "서울특별시 강서구 곰달래로57가길 20",
      "lat": 37.5343009,
      "lng": 126.8610436,
      "phone": "02-2645-1574",
      "dong": "화곡동"
    },
    {
      "naverPlaceId": "1248702511",
      "name": "서울식물원 제2 공영 주차장",
      "address": "서울특별시 강서구 마곡동 811-5",
      "roadAddress": "서울특별시 강서구 양천로 291",
      "lat": 37.572117,
      "lng": 126.8354695,
      "phone": "",
      "dong": "마곡동"
    },
    {
      "naverPlaceId": "1399253541",
      "name": "신방화역 환승 공영주차장",
      "address": "서울특별시 강서구 마곡동 739",
      "roadAddress": "서울특별시 강서구 마곡서1로 111-12",
      "lat": 37.5667867,
      "lng": 126.8177874,
      "phone": "02-3405-4581",
      "dong": "마곡동"
    },
    {
      "naverPlaceId": "18383492",
      "name": "등촌2-1공영주차장",
      "address": "서울특별시 강서구 등촌동 531-5",
      "roadAddress": "서울특별시 강서구 등촌로55길 33-16",
      "lat": 37.5498059,
      "lng": 126.8613097,
      "phone": "",
      "dong": "등촌동"
    },
    {
      "naverPlaceId": "1761424169",
      "name": "화곡8-2 공영 주차장",
      "address": "서울특별시 강서구 화곡동 410-4",
      "roadAddress": "서울특별시 강서구 초록마을로 126",
      "lat": 37.5376777,
      "lng": 126.8503525,
      "phone": "",
      "dong": "화곡동"
    },
    {
      "naverPlaceId": "1002102378",
      "name": "화곡본-2 공영 주차장",
      "address": "서울특별시 강서구 화곡동 46-127",
      "roadAddress": "서울특별시 강서구 초록마을로5길 43",
      "lat": 37.5443209,
      "lng": 126.8484472,
      "phone": "",
      "dong": "화곡동"
    },
    {
      "naverPlaceId": "37911163",
      "name": "화곡3-1공영주차장",
      "address": "서울특별시 강서구 화곡동 1045 화곡3-1지구공영주차장",
      "roadAddress": "서울특별시 강서구 화곡로15길 40 화곡3-1지구공영주차장",
      "lat": 37.5418166,
      "lng": 126.834675,
      "phone": "02-2603-1573",
      "dong": "화곡동"
    },
    {
      "naverPlaceId": "37416197",
      "name": "화곡1-1공영주차장",
      "address": "서울특별시 강서구 화곡동 424-94 화곡 1-1 공영주차장",
      "roadAddress": "서울특별시 강서구 곰달래로15길 28 화곡 1-1 공영주차장",
      "lat": 37.5314545,
      "lng": 126.8398078,
      "phone": "02-2699-3993",
      "dong": "화곡동"
    },
    {
      "naverPlaceId": "1353441727",
      "name": "화곡본-1 공영주차장",
      "address": "서울특별시 강서구 화곡동 56-127 화곡본-1 공영주차장",
      "roadAddress": "서울특별시 강서구 초록마을로26길 48 (화곡동) 화곡본-1 공영주차장",
      "lat": 37.5397352,
      "lng": 126.8497846,
      "phone": "",
      "dong": "화곡동"
    },
    {
      "naverPlaceId": "37416198",
      "name": "화곡7-1공영주차장",
      "address": "서울특별시 강서구 화곡동 370-63 화곡7-1공영주차장",
      "roadAddress": "서울특별시 강서구 월정로32길 68 화곡7-1공영주차장",
      "lat": 37.5359868,
      "lng": 126.8391608,
      "phone": "02-2699-8671",
      "dong": "화곡동"
    },
    {
      "naverPlaceId": "1016143511",
      "name": "제물포로 노상 공영 주차장",
      "address": "서울특별시 강서구 화곡동 947-3",
      "roadAddress": "",
      "lat": 37.5277046,
      "lng": 126.8466577,
      "phone": "",
      "dong": "화곡동"
    },
    {
      "naverPlaceId": "1030008074",
      "name": "쏘카 영보빌딩 공영주차장",
      "address": "서울특별시 강서구 가양동 1480",
      "roadAddress": "서울특별시 강서구 양천로57길 16",
      "lat": 37.563374,
      "lng": 126.852484,
      "phone": "1661-8838",
      "dong": "가양동"
    },
    {
      "naverPlaceId": "1710486666",
      "name": "방화역 서 공영 주차장",
      "address": "서울특별시 강서구 방화동 829-1",
      "roadAddress": "",
      "lat": 37.5773201,
      "lng": 126.8119666,
      "phone": "",
      "dong": "방화동"
    },
    {
      "naverPlaceId": "1352895110",
      "name": "방화역 동 공영 주차장",
      "address": "서울특별시 강서구 방화동 830-4",
      "roadAddress": "",
      "lat": 37.5773027,
      "lng": 126.8133258,
      "phone": "",
      "dong": "방화동"
    },
    {
      "naverPlaceId": "36010750",
      "name": "꿈나무길노상공영주차장",
      "address": "서울특별시 강서구 등촌동 709-16",
      "roadAddress": "",
      "lat": 37.5600516,
      "lng": 126.8464914,
      "phone": "",
      "dong": "등촌동"
    },
    {
      "naverPlaceId": "36005576",
      "name": "화곡8-1공영주차장",
      "address": "서울특별시 강서구 화곡동 410-60 화곡8-1지구 공영주차장",
      "roadAddress": "서울특별시 강서구 초록마을로22길 57-11 화곡8-1지구 공영주차장",
      "lat": 37.5385283,
      "lng": 126.8488223,
      "phone": "02-2608-1572",
      "dong": "화곡동"
    },
    {
      "naverPlaceId": "849366479",
      "name": "방화로 노상 공영 주차장",
      "address": "서울특별시 강서구 공항동 796",
      "roadAddress": "",
      "lat": 37.553997,
      "lng": 126.81642,
      "phone": "",
      "dong": "공항동"
    },
    {
      "naverPlaceId": "18392715",
      "name": "화곡2-1공영주차장",
      "address": "서울특별시 강서구 화곡동 167-10",
      "roadAddress": "서울특별시 강서구 강서로18아길 26-15",
      "lat": 37.5360037,
      "lng": 126.8525844,
      "phone": "02-2607-1419",
      "dong": "화곡동"
    },
    {
      "naverPlaceId": "1350804161",
      "name": "봉제산근린공원공영주차장",
      "address": "서울특별시 강서구 화곡동 산41-15",
      "roadAddress": "",
      "lat": 37.5417014,
      "lng": 126.8512885,
      "phone": "",
      "dong": "화곡동"
    },
    {
      "naverPlaceId": "1375316868",
      "name": "가양 3동 공영 주차장",
      "address": "서울특별시 강서구 가양동 1488-12",
      "roadAddress": "",
      "lat": 37.5604892,
      "lng": 126.8593908,
      "phone": "",
      "dong": "가양동"
    },
    {
      "naverPlaceId": "36046308",
      "name": "방죽길노상공영주차장",
      "address": "서울특별시 강서구 화곡동 1111-8",
      "roadAddress": "",
      "lat": 37.5538856,
      "lng": 126.8520589,
      "phone": "",
      "dong": "화곡동"
    },
    {
      "naverPlaceId": "36010749",
      "name": "등촌3동구암길노상공영주차장",
      "address": "서울특별시 강서구 등촌동 695 등촌5단지주공아파트",
      "roadAddress": "서울특별시 강서구 공항대로39길 74 등촌5단지주공아파트",
      "lat": 37.5610043,
      "lng": 126.8459556,
      "phone": "",
      "dong": "등촌동"
    },
    {
      "naverPlaceId": "1062702413",
      "name": "가양라이품 공영 주차장",
      "address": "서울특별시 강서구 가양동 1457-1",
      "roadAddress": "서울특별시 강서구 강서로 515",
      "lat": 37.5715047,
      "lng": 126.841624,
      "phone": "",
      "dong": "가양동"
    },
    {
      "naverPlaceId": "36010748",
      "name": "화곡6동신학대길노상공영주차장",
      "address": "서울특별시 강서구 화곡6동",
      "roadAddress": "",
      "lat": 37.5517566,
      "lng": 126.8500661,
      "phone": "",
      "dong": ""
    },
    {
      "naverPlaceId": "1253053357",
      "name": "달구지길 노상주차장",
      "address": "서울특별시 강서구 화곡동 359-3",
      "roadAddress": "서울특별시 강서구 월정로28길 20",
      "lat": 37.5331002,
      "lng": 126.8376726,
      "phone": "",
      "dong": "화곡동"
    },
    {
      "naverPlaceId": "36029397",
      "name": "화곡5-2공영주차장",
      "address": "서울특별시 강서구 화곡동 1056-2 화곡5-2공영주차장",
      "roadAddress": "서울특별시 강서구 강서로34길 41-21 화곡5-2공영주차장",
      "lat": 37.5442589,
      "lng": 126.8407517,
      "phone": "02-2604-8688",
      "dong": "화곡동"
    },
    {
      "naverPlaceId": "36010755",
      "name": "화곡5-1공영주차장",
      "address": "서울특별시 강서구 화곡동 1030-33 화곡5-1공영주차장",
      "roadAddress": "서울특별시 강서구 강서로36길 21 화곡5-1공영주차장",
      "lat": 37.543919,
      "lng": 126.8398249,
      "phone": "",
      "dong": "화곡동"
    },
    {
      "naverPlaceId": "945124430",
      "name": "화곡5-3공영주차장",
      "address": "서울특별시 강서구 화곡동 1060-18 화곡5-3공영주차장",
      "roadAddress": "서울특별시 강서구 화곡로27가길 38 화곡5-3공영주차장",
      "lat": 37.5433723,
      "lng": 126.8423279,
      "phone": "",
      "dong": "화곡동"
    },
    {
      "naverPlaceId": "1867848858",
      "name": "화곡1-2공영주차장",
      "address": "서울특별시 강서구 화곡동 354-4 39",
      "roadAddress": "서울특별시 강서구 가로공원로76가길 38 39",
      "lat": 37.5338096,
      "lng": 126.8410263,
      "phone": "",
      "dong": "화곡동"
    },
    {
      "naverPlaceId": "1429187172",
      "name": "가양역 공영 주차장",
      "address": "서울특별시 강서구 가양동 1480-10",
      "roadAddress": "",
      "lat": 37.5635526,
      "lng": 126.8526035,
      "phone": "",
      "dong": "가양동"
    },
    {
      "naverPlaceId": "21185844",
      "name": "공영주차장",
      "address": "서울특별시 강서구 가양동 1480-10",
      "roadAddress": "",
      "lat": 37.5633805,
      "lng": 126.8530168,
      "phone": "",
      "dong": "가양동"
    },
    {
      "naverPlaceId": "1280850033",
      "name": "가양3동공영주차장",
      "address": "서울특별시 강서구 가양동 1488-12",
      "roadAddress": "",
      "lat": 37.5603745,
      "lng": 126.8598277,
      "phone": "",
      "dong": "가양동"
    },
    {
      "naverPlaceId": "1487918551",
      "name": "가양3동 주민센터 주차장",
      "address": "서울특별시 강서구 가양동 1488-1",
      "roadAddress": "서울특별시 강서구 허준로 202",
      "lat": 37.5609466,
      "lng": 126.8607346,
      "phone": "",
      "dong": "가양동"
    },
    {
      "naverPlaceId": "1727245306",
      "name": "라이품공영주차장앞자전거대여소",
      "address": "서울특별시 강서구 가양동",
      "roadAddress": "",
      "lat": 37.5707306,
      "lng": 126.8415662,
      "phone": "",
      "dong": "가양동"
    },
    {
      "naverPlaceId": "1253039232",
      "name": "가양 라이품 공영 주차장입출구",
      "address": "서울특별시 강서구 가양동",
      "roadAddress": "서울특별시 강서구",
      "lat": 37.5718515,
      "lng": 126.8415592,
      "phone": "",
      "dong": "가양동"
    },
    {
      "naverPlaceId": "1831226967",
      "name": "피플카 가양역 1번출구(가양역 공영주차장)",
      "address": "서울특별시 강서구 가양동 1480-10",
      "roadAddress": "",
      "lat": 37.5633289,
      "lng": 126.8530538,
      "phone": "",
      "dong": "가양동"
    },
    {
      "naverPlaceId": "18945743",
      "name": "공영주차장입구",
      "address": "서울특별시 강서구 가양동",
      "roadAddress": "",
      "lat": 37.5635688,
      "lng": 126.8525658,
      "phone": "",
      "dong": "가양동"
    },
    {
      "naverPlaceId": "1667012741",
      "name": "우장산 근린 공원 공영 주차장",
      "address": "서울특별시 강서구 내발산동 산4-5 4-5",
      "roadAddress": "서울특별시 강서구 내발산동 공항대로42길 23-19",
      "lat": 37.5545386,
      "lng": 126.8437998,
      "phone": "",
      "dong": "내발산동"
    },
    {
      "naverPlaceId": "1659758151",
      "name": "퀸즈파크일레븐 주차장",
      "address": "서울특별시 강서구 마곡동 800-1",
      "roadAddress": "서울특별시 강서구 공항대로 212",
      "lat": 37.5588247,
      "lng": 126.8310077,
      "phone": "",
      "dong": "마곡동"
    },
    {
      "naverPlaceId": "1523339736",
      "name": "강서구민회관 공영 주차장",
      "address": "서울특별시 강서구 내발산동 산19-1",
      "roadAddress": "서울특별시 강서구 우장산로 66",
      "lat": 37.5535805,
      "lng": 126.8434525,
      "phone": "",
      "dong": "내발산동"
    },
    {
      "naverPlaceId": "21186066",
      "name": "공항중학교공영주차장",
      "address": "서울특별시 강서구 공항동 12-3 공항중학교",
      "roadAddress": "서울특별시 강서구 방화대로 241 공항중학교",
      "lat": 37.562675,
      "lng": 126.814725,
      "phone": "",
      "dong": "공항동"
    },
    {
      "naverPlaceId": "1456067878",
      "name": "쏘카 공항중학교 공영주차장",
      "address": "서울특별시 강서구 공항동 12-3 공항중학교",
      "roadAddress": "서울특별시 강서구 방화대로 241 공항중학교",
      "lat": 37.56279,
      "lng": 126.814587,
      "phone": "1661-8838",
      "dong": "공항동"
    },
    {
      "naverPlaceId": "1572259002",
      "name": "방화로 노상공영주차장 전기차충전소",
      "address": "서울특별시 강서구 공항동 796",
      "roadAddress": "",
      "lat": 37.5527764,
      "lng": 126.8163489,
      "phone": "02-2640-5199",
      "dong": "공항동"
    },
    {
      "naverPlaceId": "21185557",
      "name": "개화산역환승주차장",
      "address": "서울특별시 강서구 방화동 845",
      "roadAddress": "",
      "lat": 37.5722311,
      "lng": 126.8052131,
      "phone": "",
      "dong": "방화동"
    },
    {
      "naverPlaceId": "36046307",
      "name": "방신전통시장고객노상공영주차장",
      "address": "서울특별시 강서구 방화동 578-8",
      "roadAddress": "",
      "lat": 37.5719321,
      "lng": 126.8132634,
      "phone": "",
      "dong": "방화동"
    },
    {
      "naverPlaceId": "1080690301",
      "name": "방화2동 주민센터 주차장",
      "address": "서울특별시 강서구 방화동 909-1",
      "roadAddress": "서울특별시 강서구 개화동로21길 52 방화2동 주민센터",
      "lat": 37.5718272,
      "lng": 126.8055755,
      "phone": "",
      "dong": "방화동"
    },
    {
      "naverPlaceId": "21186884",
      "name": "우장산 근린 공원 공영 주차장입구",
      "address": "서울특별시 강서구 내발산동",
      "roadAddress": "",
      "lat": 37.5541711,
      "lng": 126.8435713,
      "phone": "",
      "dong": "내발산동"
    },
    {
      "naverPlaceId": "1362837083",
      "name": "가로공원공영주차장",
      "address": "서울특별시 강서구 화곡동 368-2",
      "roadAddress": "서울특별시 강서구 가로공원로 214-1",
      "lat": 37.5372669,
      "lng": 126.8398384,
      "phone": "",
      "dong": "화곡동"
    },
    {
      "naverPlaceId": "1701181174",
      "name": "가로공원 공영 주차장",
      "address": "서울특별시 강서구 화곡동 662-15",
      "roadAddress": "서울특별시 강서구 가로공원로 189",
      "lat": 37.5374589,
      "lng": 126.8391879,
      "phone": "",
      "dong": "화곡동"
    },
    {
      "naverPlaceId": "1273021544",
      "name": "등촌2-1 공영주차장",
      "address": "서울특별시 강서구 등촌동 531-5 등촌2-1 공영주차장",
      "roadAddress": "서울특별시 강서구 등촌로55길 33-16 (등촌동) 등촌2-1 공영주차장",
      "lat": 37.5497992,
      "lng": 126.8613253,
      "phone": "",
      "dong": "등촌동"
    },
    {
      "naverPlaceId": "1600620910",
      "name": "등촌2 1 공영주차장 전기차충전소",
      "address": "서울특별시 강서구 등촌동 531-5",
      "roadAddress": "서울특별시 강서구 등촌로55길 33-16",
      "lat": 37.5498025,
      "lng": 126.8613225,
      "phone": "1566-1704",
      "dong": "등촌동"
    },
    {
      "naverPlaceId": "1401991504",
      "name": "서울 강서구 등촌2-1공영주차장 전기차충전소",
      "address": "서울특별시 강서구 등촌동 531-5",
      "roadAddress": "서울특별시 강서구 등촌로55길 33-16",
      "lat": 37.54978,
      "lng": 126.861352,
      "phone": "1833-9131",
      "dong": "등촌동"
    },
    {
      "naverPlaceId": "1583637519",
      "name": "서울강서 꿈나무길공영주차장 전기차충전소",
      "address": "서울특별시 강서구 등촌동 701",
      "roadAddress": "서울특별시 강서구 공항대로 351-21",
      "lat": 37.5600964,
      "lng": 126.8470723,
      "phone": "1877-6546",
      "dong": "등촌동"
    },
    {
      "naverPlaceId": "1821863679",
      "name": "등촌2-1공영주차장입출구 서측",
      "address": "서울특별시 강서구 등촌동",
      "roadAddress": "",
      "lat": 37.5498914,
      "lng": 126.8609796,
      "phone": "",
      "dong": "등촌동"
    },
    {
      "naverPlaceId": "18928598",
      "name": "등촌2-1공영주차장입출구 동측",
      "address": "서울특별시 강서구 등촌동",
      "roadAddress": "",
      "lat": 37.5497383,
      "lng": 126.8616771,
      "phone": "",
      "dong": "등촌동"
    },
    {
      "naverPlaceId": "1595949392",
      "name": "강서구 서울식물원 제2공영주차장 전기차충전소",
      "address": "서울특별시 강서구 마곡동 811-5",
      "roadAddress": "서울특별시 강서구 양천로 291",
      "lat": 37.5718308,
      "lng": 126.8356434,
      "phone": "1833-9131",
      "dong": "마곡동"
    },
    {
      "naverPlaceId": "1532418603",
      "name": "서울식물원 제2 공영 주차장입출구",
      "address": "서울특별시 강서구 마곡동",
      "roadAddress": "",
      "lat": 37.5723134,
      "lng": 126.8349143,
      "phone": "",
      "dong": "마곡동"
    },
    {
      "naverPlaceId": "36022321",
      "name": "방화역공영주차장",
      "address": "서울특별시 강서구 방화동 829-1",
      "roadAddress": "",
      "lat": 37.5775604,
      "lng": 126.8121746,
      "phone": "02-2664-6209",
      "dong": "방화동"
    },
    {
      "naverPlaceId": "21185871",
      "name": "방화역공영주차장",
      "address": "서울특별시 강서구 방화동 830-4",
      "roadAddress": "",
      "lat": 37.5772921,
      "lng": 126.8133274,
      "phone": "",
      "dong": "방화동"
    },
    {
      "naverPlaceId": "695058628",
      "name": "강서 한강공원 공영 주차장",
      "address": "서울특별시 강서구 방화동 748",
      "roadAddress": "",
      "lat": 37.585303,
      "lng": 126.8191219,
      "phone": "070-7545-7464",
      "dong": "방화동"
    },
    {
      "naverPlaceId": "21185585",
      "name": "유료공영주차장",
      "address": "서울특별시 강서구 방화동 824",
      "roadAddress": "",
      "lat": 37.5796339,
      "lng": 126.8146629,
      "phone": "",
      "dong": "방화동"
    },
    {
      "naverPlaceId": "1594775822",
      "name": "서울시 개화산역공영주차장 전기차충전소",
      "address": "서울특별시 강서구 방화동 516-2",
      "roadAddress": "",
      "lat": 37.5724113,
      "lng": 126.8048302,
      "phone": "1661-7766",
      "dong": "방화동"
    },
    {
      "naverPlaceId": "1773893045",
      "name": "개화산역 환승공영주차장 전기차충전소",
      "address": "서울특별시 강서구 방화동 516-2",
      "roadAddress": "",
      "lat": 37.5724131,
      "lng": 126.804504,
      "phone": "1566-1704",
      "dong": "방화동"
    },
    {
      "naverPlaceId": "1015386477",
      "name": "개화산역 공영주차장 시그넷 전기차충전소",
      "address": "서울특별시 강서구 방화동 844",
      "roadAddress": "서울특별시 강서구 양천로 12",
      "lat": 37.5724072,
      "lng": 126.8050694,
      "phone": "1661-7737",
      "dong": "방화동"
    },
    {
      "naverPlaceId": "20767426",
      "name": "강서 한강공원 공영 주차장입구",
      "address": "서울특별시 강서구 방화동",
      "roadAddress": "",
      "lat": 37.5851273,
      "lng": 126.8192103,
      "phone": "",
      "dong": "방화동"
    },
    {
      "naverPlaceId": "1382345447",
      "name": "개화산역 공영주차장 서울시 전기차충전소",
      "address": "서울특별시 강서구 방화동 516-2",
      "roadAddress": "",
      "lat": 37.5723937,
      "lng": 126.8048792,
      "phone": "02-2640-5199",
      "dong": "방화동"
    },
    {
      "naverPlaceId": "1434237739",
      "name": "쏘카 방화역(서) 공영주차장",
      "address": "서울특별시 강서구 방화3동 829-1 지상 1층",
      "roadAddress": "",
      "lat": 37.577572,
      "lng": 126.812178,
      "phone": "1661-8838",
      "dong": ""
    },
    {
      "naverPlaceId": "1123944716",
      "name": "방화역 공영주차장 (서) 전기차충전소",
      "address": "서울특별시 강서구 방화동 829-15",
      "roadAddress": "서울특별시 강서구 금낭화로 132",
      "lat": 37.5770031,
      "lng": 126.8126299,
      "phone": "1533-0702",
      "dong": "방화동"
    },
    {
      "naverPlaceId": "1752009707",
      "name": "쏘카 방화역(동) 공영주차장",
      "address": "서울특별시 강서구 방화동 830-4",
      "roadAddress": "",
      "lat": 37.5772509,
      "lng": 126.813286,
      "phone": "1661-8838",
      "dong": "방화동"
    },
    {
      "naverPlaceId": "1242439389",
      "name": "방화역 공영주차장 (동) 전기차충전소",
      "address": "서울특별시 강서구 방화동 829-15",
      "roadAddress": "서울특별시 강서구 금낭화로 132",
      "lat": 37.5770031,
      "lng": 126.8126299,
      "phone": "1533-0702",
      "dong": "방화동"
    },
    {
      "naverPlaceId": "1336567625",
      "name": "방화역공영주차장입구",
      "address": "서울특별시 강서구 방화동",
      "roadAddress": "",
      "lat": 37.577046,
      "lng": 126.813313,
      "phone": "",
      "dong": "방화동"
    },
    {
      "naverPlaceId": "36060696",
      "name": "남부골목시장고객공영주차장",
      "address": "서울특별시 강서구 화곡동 797-7 남부골목시장 주차장",
      "roadAddress": "서울특별시 강서구 곰달래로55길 4 남부골목시장 주차장",
      "lat": 37.5323337,
      "lng": 126.8608675,
      "phone": "",
      "dong": "화곡동"
    },
    {
      "naverPlaceId": "36010746",
      "name": "화곡6동방죽길노상공영주차장",
      "address": "서울특별시 강서구 화곡6동 1002-7",
      "roadAddress": "",
      "lat": 37.5520235,
      "lng": 126.8507674,
      "phone": "",
      "dong": ""
    },
    {
      "naverPlaceId": "36060700",
      "name": "배다리동길 노상 공영 주차장",
      "address": "서울특별시 강서구 화곡동 949-5",
      "roadAddress": "",
      "lat": 37.5288736,
      "lng": 126.8502558,
      "phone": "",
      "dong": "화곡동"
    }
  ],
  "sido": "서울특별시",
  "sigungu": "강서구",
  "totalCount": 81,
  "source": "naver-map",
  "scrapedAt": "2026-02-10"
}