{
  "items": [
    {
      "naverPlaceId": "1202222282",
      "name": "신림동제1 공영 주차장",
      "address": "서울특별시 관악구 신림동 1456-3",
      "roadAddress": "서울특별시 관악구 관천로 98",
      "lat": 37.4873933,
      "lng": 126.9232297,
      "phone": "",
      "dong": "신림동"
    },
    {
      "naverPlaceId": "21185736",
      "name": "관악구원신공영주차장",
      "address": "서울특별시 관악구 신림동 366",
      "roadAddress": "서울특별시 관악구 양지길 63",
      "lat": 37.4701307,
      "lng": 126.9293069,
      "phone": "02-889-3064",
      "dong": "신림동"
    },
    {
      "naverPlaceId": "1248956914",
      "name": "당곡중공영주차장",
      "address": "서울특별시 관악구 봉천동 682 1",
      "roadAddress": "서울특별시 관악구 봉천로13길 101 (봉천동) 1",
      "lat": 37.4924431,
      "lng": 126.933197,
      "phone": "",
      "dong": "봉천동"
    },
    {
      "naverPlaceId": "1760697619",
      "name": "관악초공영주차장",
      "address": "서울특별시 관악구 봉천동 920 서울관악초등학교",
      "roadAddress": "서울특별시 관악구 청룡4길 49 서울관악초등학교",
      "lat": 37.4809278,
      "lng": 126.9439282,
      "phone": "02-2081-2686",
      "dong": "봉천동"
    },
    {
      "naverPlaceId": "21185874",
      "name": "행운동제1공영주차장",
      "address": "서울특별시 관악구 봉천동 1677-10",
      "roadAddress": "서울특별시 관악구 행운4길 21",
      "lat": 37.4798807,
      "lng": 126.9606123,
      "phone": "02-2081-2683",
      "dong": "봉천동"
    },
    {
      "naverPlaceId": "283621761",
      "name": "남부초 공영 주차장",
      "address": "서울특별시 관악구 신림동 467 서울남부초등학교",
      "roadAddress": "서울특별시 관악구 남부순환로163길 14 서울남부초등학교",
      "lat": 37.4851211,
      "lng": 126.9221826,
      "phone": "02-866-3065",
      "dong": "신림동"
    },
    {
      "naverPlaceId": "36010763",
      "name": "보라매제1공영주차장",
      "address": "서울특별시 관악구 봉천동 산110-4",
      "roadAddress": "서울특별시 관악구 봉천로21길 38",
      "lat": 37.4885771,
      "lng": 126.9345103,
      "phone": "02-2081-2680",
      "dong": "봉천동"
    },
    {
      "naverPlaceId": "21185882",
      "name": "난곡동제1공영주차장",
      "address": "서울특별시 관악구 신림동 626",
      "roadAddress": "서울특별시 관악구 난곡로34나길 14",
      "lat": 37.4721387,
      "lng": 126.923092,
      "phone": "02-2081-2680",
      "dong": "신림동"
    },
    {
      "naverPlaceId": "1073876116",
      "name": "난곡스마트 공영주차장",
      "address": "서울특별시 관악구 신림동 646-170",
      "roadAddress": "서울특별시 관악구 난곡로26길 94",
      "lat": 37.4688858,
      "lng": 126.9242908,
      "phone": "02-2081-2686",
      "dong": "신림동"
    },
    {
      "naverPlaceId": "21185999",
      "name": "조원동제1공영주차장",
      "address": "서울특별시 관악구 신림동 571-6 조원동제1공영주차장",
      "roadAddress": "서울특별시 관악구 조원중앙로2길 19 조원동제1공영주차장",
      "lat": 37.4810122,
      "lng": 126.9057684,
      "phone": "",
      "dong": "신림동"
    },
    {
      "naverPlaceId": "1369869175",
      "name": "남현동소공원공영주차장",
      "address": "서울특별시 관악구 남현동 1063-1",
      "roadAddress": "서울특별시 관악구 남현1길 28",
      "lat": 37.4756755,
      "lng": 126.9792935,
      "phone": "",
      "dong": "남현동"
    },
    {
      "naverPlaceId": "1536797570",
      "name": "관악구 미성동 제4공영주차장 전기차충전소",
      "address": "서울특별시 관악구 신림동 597-1",
      "roadAddress": "서울특별시 관악구 난우10가길 2",
      "lat": 37.476433,
      "lng": 126.9197203,
      "phone": "1833-9131",
      "dong": "신림동"
    },
    {
      "naverPlaceId": "36010769",
      "name": "삼성동 제1 노상 공영 주차장",
      "address": "서울특별시 관악구 신림동 808-500",
      "roadAddress": "",
      "lat": 37.4688927,
      "lng": 126.9313509,
      "phone": "",
      "dong": "신림동"
    },
    {
      "naverPlaceId": "1716855892",
      "name": "쏘카 난우중 공영주차장",
      "address": "서울특별시 관악구 신림동 652-156",
      "roadAddress": "서울특별시 관악구 난곡로16길 32",
      "lat": 37.466541,
      "lng": 126.922348,
      "phone": "1661-8838",
      "dong": "신림동"
    },
    {
      "naverPlaceId": "21185903",
      "name": "삼성동제2공영주차장",
      "address": "서울특별시 관악구 신림동 306-59",
      "roadAddress": "서울특별시 관악구 호암로16길 36",
      "lat": 37.4642317,
      "lng": 126.9333536,
      "phone": "",
      "dong": "신림동"
    },
    {
      "naverPlaceId": "32960672",
      "name": "신원시장공영주차장2",
      "address": "서울특별시 관악구 신림동 1587-38",
      "roadAddress": "",
      "lat": 37.4823509,
      "lng": 126.9276499,
      "phone": "",
      "dong": "신림동"
    },
    {
      "naverPlaceId": "1004834560",
      "name": "민방위교육장공영주차장",
      "address": "서울특별시 관악구 신림동 737",
      "roadAddress": "서울특별시 관악구 문성로16다길 135",
      "lat": 37.4692865,
      "lng": 126.9112718,
      "phone": "02-2081-2670",
      "dong": "신림동"
    },
    {
      "naverPlaceId": "1970600504",
      "name": "난곡마당공영주차창",
      "address": "서울특별시 관악구 신림동 652-63",
      "roadAddress": "",
      "lat": 37.4677455,
      "lng": 126.922524,
      "phone": "",
      "dong": "신림동"
    },
    {
      "naverPlaceId": "1091142409",
      "name": "신사동제1공영주차장",
      "address": "서울특별시 관악구 신림동 511-1 신사동공영주차장",
      "roadAddress": "서울특별시 관악구 남부순환로153길 51 신사동공영주차장",
      "lat": 37.4843952,
      "lng": 126.9155049,
      "phone": "02-2081-2600",
      "dong": "신림동"
    },
    {
      "naverPlaceId": "1641465283",
      "name": "신림동제3공영주차장",
      "address": "서울특별시 관악구 신림동 1439-3",
      "roadAddress": "서울특별시 관악구 신림동길 14",
      "lat": 37.4874005,
      "lng": 126.9271256,
      "phone": "02-2081-2686",
      "dong": "신림동"
    },
    {
      "naverPlaceId": "36010771",
      "name": "신림동 제2 노상 공영 주차장",
      "address": "서울특별시 관악구 신림동 1471-5",
      "roadAddress": "",
      "lat": 37.484197,
      "lng": 126.9262449,
      "phone": "02-2081-2686",
      "dong": "신림동"
    },
    {
      "naverPlaceId": "36010770",
      "name": "조원동제2공영주차장",
      "address": "서울특별시 관악구 신림동 1675-8",
      "roadAddress": "",
      "lat": 37.4835646,
      "lng": 126.9026625,
      "phone": "02-2081-2678",
      "dong": "신림동"
    },
    {
      "naverPlaceId": "36010768",
      "name": "서원동 제1공영주차장",
      "address": "서울특별시 관악구 신림동 1642-7",
      "roadAddress": "",
      "lat": 37.4830958,
      "lng": 126.9274732,
      "phone": "02-2081-2678",
      "dong": "신림동"
    },
    {
      "naverPlaceId": "21185622",
      "name": "남현동제2공영주차장",
      "address": "서울특별시 관악구 남현동",
      "roadAddress": "서울특별시 관악구",
      "lat": 37.4752595,
      "lng": 126.9771375,
      "phone": "",
      "dong": "남현동"
    },
    {
      "naverPlaceId": "21185890",
      "name": "신원동제1공영주차장",
      "address": "서울특별시 관악구 신림동 1585-7",
      "roadAddress": "서울특별시 관악구",
      "lat": 37.4829358,
      "lng": 126.9251614,
      "phone": "02-2081-2680",
      "dong": "신림동"
    },
    {
      "naverPlaceId": "1903855869",
      "name": "낙성대제2공영주차장",
      "address": "서울특별시 관악구 봉천동 220-2",
      "roadAddress": "서울특별시 관악구 낙성대로3길 20 낙성대제2공영주차장",
      "lat": 37.4745331,
      "lng": 126.9598537,
      "phone": "02-2081-2670",
      "dong": "봉천동"
    },
    {
      "naverPlaceId": "1414439358",
      "name": "난향동공영주차장",
      "address": "서울특별시 관악구 신림동 675-272",
      "roadAddress": "서울특별시 관악구 난향7길 14",
      "lat": 37.4620479,
      "lng": 126.915594,
      "phone": "",
      "dong": "신림동"
    },
    {
      "naverPlaceId": "21186060",
      "name": "미성동 제2공영주차장",
      "address": "서울특별시 관악구 신림동 1481-23",
      "roadAddress": "",
      "lat": 37.4797429,
      "lng": 126.913875,
      "phone": "",
      "dong": "신림동"
    },
    {
      "naverPlaceId": "36010766",
      "name": "낙성대제1노상공영주차장",
      "address": "서울특별시 관악구 봉천동 1693-46",
      "roadAddress": "",
      "lat": 37.4780743,
      "lng": 126.9587179,
      "phone": "",
      "dong": "봉천동"
    },
    {
      "naverPlaceId": "1035407004",
      "name": "피플카 조원동 제3공영주차장",
      "address": "서울특별시 관악구 신림동 1653-7",
      "roadAddress": "",
      "lat": 37.4830412,
      "lng": 126.904659,
      "phone": "",
      "dong": "신림동"
    },
    {
      "naverPlaceId": "1223156970",
      "name": "미성동제3공영주차장",
      "address": "서울특별시 관악구 신림동 758-8",
      "roadAddress": "",
      "lat": 37.4756491,
      "lng": 126.915573,
      "phone": "",
      "dong": "신림동"
    },
    {
      "naverPlaceId": "1716063739",
      "name": "관악신사시장 공영 주차장",
      "address": "서울특별시 관악구 신림동 494-33",
      "roadAddress": "",
      "lat": 37.48681,
      "lng": 126.9171664,
      "phone": "02-2081-2686",
      "dong": "신림동"
    },
    {
      "naverPlaceId": "2146446582",
      "name": "서림동제1공영주차장",
      "address": "서울특별시 관악구 신림동 103-36",
      "roadAddress": "서울특별시 관악구 서림7길 31",
      "lat": 37.4732725,
      "lng": 126.9407667,
      "phone": "",
      "dong": "신림동"
    },
    {
      "naverPlaceId": "2146158224",
      "name": "신원동제2공영주차장",
      "address": "서울특별시 관악구 신림동 412-84",
      "roadAddress": "",
      "lat": 37.4767378,
      "lng": 126.9293629,
      "phone": "",
      "dong": "신림동"
    },
    {
      "naverPlaceId": "2146964223",
      "name": "난곡동제2공영주차장",
      "address": "서울특별시 관악구 신림동 713-7",
      "roadAddress": "서울특별시 관악구 난곡로31길 45",
      "lat": 37.4701706,
      "lng": 126.9179169,
      "phone": "",
      "dong": "신림동"
    },
    {
      "naverPlaceId": "2143177804",
      "name": "낙성대제3공영주차장",
      "address": "서울특별시 관악구 봉천동 1510-10",
      "roadAddress": "서울특별시 관악구 낙성대역6길 20",
      "lat": 37.4743395,
      "lng": 126.9618088,
      "phone": "",
      "dong": "봉천동"
    },
    {
      "naverPlaceId": "2143228317",
      "name": "대학동제1공영주차장",
      "address": "서울특별시 관악구 신림동 251-289",
      "roadAddress": "서울특별시 관악구 신림로11길 109-7",
      "lat": 37.4659095,
      "lng": 126.9392557,
      "phone": "",
      "dong": "신림동"
    },
    {
      "naverPlaceId": "2143740723",
      "name": "미성동제1공영주차장",
      "address": "서울특별시 관악구 신림동 1566-1",
      "roadAddress": "서울특별시 관악구 난곡로64가길 39",
      "lat": 37.4795892,
      "lng": 126.9157167,
      "phone": "",
      "dong": "신림동"
    },
    {
      "naverPlaceId": "1194449710",
      "name": "모래내공원공영주차장",
      "address": "서울특별시 관악구 봉천동 1613-19 모래내공원공영주차장",
      "roadAddress": "서울특별시 관악구 남부순환로230길 47 모래내공원공영주차장",
      "lat": 37.4779314,
      "lng": 126.9554695,
      "phone": "02-2081-2685",
      "dong": "봉천동"
    },
    {
      "naverPlaceId": "1983893840",
      "name": "인헌시장공영주차장",
      "address": "서울특별시 관악구 봉천동 1693-66",
      "roadAddress": "서울특별시 관악구",
      "lat": 37.4757869,
      "lng": 126.9650247,
      "phone": "02-2081-2603",
      "dong": "봉천동"
    },
    {
      "naverPlaceId": "31683872",
      "name": "당곡공영주차장",
      "address": "서울특별시 관악구 봉천동",
      "roadAddress": "",
      "lat": 37.491646,
      "lng": 126.9324476,
      "phone": "",
      "dong": "봉천동"
    },
    {
      "naverPlaceId": "1851844137",
      "name": "은천동 공영주차장",
      "address": "서울특별시 관악구 봉천동 635-663",
      "roadAddress": "서울특별시 관악구 국회단지4길 32",
      "lat": 37.4870504,
      "lng": 126.9415956,
      "phone": "",
      "dong": "봉천동"
    },
    {
      "naverPlaceId": "21186058",
      "name": "공영주차장",
      "address": "서울특별시 관악구 봉천동 1717-11",
      "roadAddress": "",
      "lat": 37.4894178,
      "lng": 126.9596624,
      "phone": "",
      "dong": "봉천동"
    },
    {
      "naverPlaceId": "1655515475",
      "name": "공영주차장",
      "address": "서울특별시 관악구 봉천동 976-13",
      "roadAddress": "",
      "lat": 37.4889014,
      "lng": 126.9295545,
      "phone": "",
      "dong": "봉천동"
    },
    {
      "naverPlaceId": "1884212325",
      "name": "상도근린공원공영주차장(2026년12월예정)",
      "address": "서울특별시 관악구 봉천동 산103-61 국사봉공원 공중화장실",
      "roadAddress": "서울특별시 관악구 국회단지길 143-2 국사봉공원 공중화장실",
      "lat": 37.4913337,
      "lng": 126.9408854,
      "phone": "",
      "dong": "봉천동"
    },
    {
      "naverPlaceId": "1130728289",
      "name": "관악초공영주차장입구",
      "address": "서울특별시 관악구 봉천동",
      "roadAddress": "",
      "lat": 37.4809594,
      "lng": 126.9439949,
      "phone": "",
      "dong": "봉천동"
    },
    {
      "naverPlaceId": "1709429445",
      "name": "서울 관악구 행운동 공영주차장 전기차충전소",
      "address": "서울특별시 관악구 봉천동 1677-10",
      "roadAddress": "서울특별시 관악구 행운4길 21",
      "lat": 37.479733,
      "lng": 126.960573,
      "phone": "1833-9131",
      "dong": "봉천동"
    },
    {
      "naverPlaceId": "1518867875",
      "name": "낙성대제1공영주차장",
      "address": "서울특별시 관악구 봉천동 1620-38",
      "roadAddress": "서울특별시 관악구 봉천로62길 2 (봉천동) 봉천로 62길 일대",
      "lat": 37.4781189,
      "lng": 126.9584299,
      "phone": "",
      "dong": "봉천동"
    },
    {
      "naverPlaceId": "1857811268",
      "name": "관악구 당곡중학교 공영주차장 전기차충전소",
      "address": "서울특별시 관악구 봉천동 682",
      "roadAddress": "서울특별시 관악구 봉천로13길 101",
      "lat": 37.4920597,
      "lng": 126.9331288,
      "phone": "1833-9131",
      "dong": "봉천동"
    },
    {
      "naverPlaceId": "1347768081",
      "name": "낙성대제2공영주차장",
      "address": "서울특별시 관악구 봉천동 218-6 봉천동 220-8",
      "roadAddress": "서울특별시 관악구 낙성대역4길 23",
      "lat": 37.4746231,
      "lng": 126.9609686,
      "phone": "",
      "dong": "봉천동"
    },
    {
      "naverPlaceId": "1702737878",
      "name": "관악구 보라매 제1공영주차장 전기차충전소",
      "address": "서울특별시 관악구 봉천동 산110-4",
      "roadAddress": "서울특별시 관악구 봉천로21길 38",
      "lat": 37.4885158,
      "lng": 126.9345036,
      "phone": "1833-9131",
      "dong": "봉천동"
    },
    {
      "naverPlaceId": "1631900830",
      "name": "보라매제1공영주차장",
      "address": "서울특별시 관악구 봉천동 산110-4 보라매제1공영주차장",
      "roadAddress": "서울특별시 관악구 봉천로21길 38 (봉천동) 보라매제1공영주차장",
      "lat": 37.4885771,
      "lng": 126.9345103,
      "phone": "",
      "dong": "봉천동"
    },
    {
      "naverPlaceId": "35977155",
      "name": "신대방역 공영주차장",
      "address": "서울특별시 관악구 신림동 498",
      "roadAddress": "",
      "lat": 37.487528,
      "lng": 126.913461,
      "phone": "02-858-6417",
      "dong": "신림동"
    },
    {
      "naverPlaceId": "1891740730",
      "name": "신원시장 노상 공영 주차장",
      "address": "서울특별시 관악구 신림동 1587-38",
      "roadAddress": "",
      "lat": 37.4825515,
      "lng": 126.9273782,
      "phone": "02-2081-2686",
      "dong": "신림동"
    },
    {
      "naverPlaceId": "32960677",
      "name": "신원시장공영주차장1",
      "address": "서울특별시 관악구 신림동 1587-38",
      "roadAddress": "",
      "lat": 37.48326,
      "lng": 126.926469,
      "phone": "02-2081-2686",
      "dong": "신림동"
    },
    {
      "naverPlaceId": "1197592854",
      "name": "관악문화관도서관 주차장",
      "address": "서울특별시 관악구 신림동 209-1",
      "roadAddress": "서울특별시 관악구 신림로3길 35",
      "lat": 37.4675185,
      "lng": 126.9448533,
      "phone": "",
      "dong": "신림동"
    },
    {
      "naverPlaceId": "1278029898",
      "name": "남현동제2공영주차장입구",
      "address": "서울특별시 관악구 남현동",
      "roadAddress": "서울특별시 관악구",
      "lat": 37.4750947,
      "lng": 126.9769727,
      "phone": "",
      "dong": "남현동"
    },
    {
      "naverPlaceId": "1755603434",
      "name": "남현소공원 공영주차장 전기차충전소",
      "address": "서울특별시 관악구 남현동 1063-1",
      "roadAddress": "서울특별시 관악구 남현1길 28",
      "lat": 37.475704,
      "lng": 126.979292,
      "phone": "1522-2573",
      "dong": "남현동"
    },
    {
      "naverPlaceId": "2146035526",
      "name": "남현동제2공영주차장출구",
      "address": "서울특별시 관악구 남현동",
      "roadAddress": "서울특별시 관악구",
      "lat": 37.4757893,
      "lng": 126.9774002,
      "phone": "",
      "dong": "남현동"
    }
  ],
  "sido": "서울특별시",
  "sigungu": "관악구",
  "totalCount": 59,
  "source": "naver-map",
  "scrapedAt": "2026-02-10"
}