{
  "items": [
    {
      "naverPlaceId": "1818015545",
      "name": "자양유수지 노상 공영 주차장",
      "address": "서울특별시 광진구 자양동 594",
      "roadAddress": "서울특별시 광진구 뚝섬로52길 74-1",
      "lat": 37.5296746,
      "lng": 127.0776666,
      "phone": "02-2049-4540",
      "dong": "자양동"
    },
    {
      "naverPlaceId": "35992895",
      "name": "구의1동공영주차장",
      "address": "서울특별시 광진구 구의동 243-78",
      "roadAddress": "서울특별시 광진구 자양로18길 78",
      "lat": 37.5383242,
      "lng": 127.0878866,
      "phone": "",
      "dong": "구의동"
    },
    {
      "naverPlaceId": "1006965782",
      "name": "중곡3동1마을공원공영주차장",
      "address": "서울특별시 광진구 중곡동 195-1",
      "roadAddress": "서울특별시 광진구 용마산로33길 25",
      "lat": 37.5700888,
      "lng": 127.0845467,
      "phone": "",
      "dong": "중곡동"
    },
    {
      "naverPlaceId": "18816578",
      "name": "구의3동공영주차장",
      "address": "서울특별시 광진구 구의동 219-15",
      "roadAddress": "서울특별시 광진구 광나루로52길 83",
      "lat": 37.5391857,
      "lng": 127.0914082,
      "phone": "",
      "dong": "구의동"
    },
    {
      "naverPlaceId": "226115480",
      "name": "구의2동주택가공동주차장",
      "address": "서울특별시 광진구 구의동 30-9",
      "roadAddress": "서울특별시 광진구 자양로 307",
      "lat": 37.5529766,
      "lng": 127.0928143,
      "phone": "02-2049-4595",
      "dong": "구의동"
    },
    {
      "naverPlaceId": "21185991",
      "name": "자양4동공영주차장",
      "address": "서울특별시 광진구 자양동 5-5",
      "roadAddress": "",
      "lat": 37.5386904,
      "lng": 127.0681855,
      "phone": "02-2049-4595",
      "dong": "자양동"
    },
    {
      "naverPlaceId": "1055480485",
      "name": "구의2동 복합청사 지하주차장",
      "address": "서울특별시 광진구 구의동 63-6",
      "roadAddress": "서울특별시 광진구 천호대로136길 55",
      "lat": 37.5471482,
      "lng": 127.0899571,
      "phone": "",
      "dong": "구의동"
    },
    {
      "naverPlaceId": "18810610",
      "name": "능동공영주차장",
      "address": "서울특별시 광진구 능동 205",
      "roadAddress": "서울특별시 광진구 천호대로112길 56",
      "lat": 37.5540552,
      "lng": 127.0803494,
      "phone": "02-2049-4595",
      "dong": "능동"
    },
    {
      "naverPlaceId": "2145499999",
      "name": "화양동 공영주차장",
      "address": "서울특별시 광진구 화양동 63-2",
      "roadAddress": "서울특별시 광진구 군자로 22",
      "lat": 37.5452699,
      "lng": 127.0711495,
      "phone": "",
      "dong": "화양동"
    },
    {
      "naverPlaceId": "21185766",
      "name": "광진광장공영주차장",
      "address": "서울특별시 광진구 군자동 374-4",
      "roadAddress": "서울특별시 광진구 광나루로 389",
      "lat": 37.547756,
      "lng": 127.0731127,
      "phone": "02-465-2026",
      "dong": "군자동"
    },
    {
      "naverPlaceId": "21185648",
      "name": "동서울공영주차장",
      "address": "서울특별시 광진구 구의동 598-1",
      "roadAddress": "",
      "lat": 37.5335289,
      "lng": 127.0913307,
      "phone": "",
      "dong": "구의동"
    },
    {
      "naverPlaceId": "1856068086",
      "name": "동서울 노상 공영 주차장",
      "address": "서울특별시 광진구 구의동 609",
      "roadAddress": "",
      "lat": 37.533734,
      "lng": 127.091331,
      "phone": "",
      "dong": "구의동"
    },
    {
      "naverPlaceId": "36003301",
      "name": "동서울호텔길 B 노상 공영 주차장",
      "address": "서울특별시 광진구 구의동 599-8",
      "roadAddress": "서울특별시 광진구 구의강변로 22",
      "lat": 37.5329155,
      "lng": 127.0918788,
      "phone": "02-2049-4540",
      "dong": "구의동"
    },
    {
      "naverPlaceId": "1695429934",
      "name": "구의3동 주민센터 주차장",
      "address": "서울특별시 광진구 구의동 587-29",
      "roadAddress": "서울특별시 광진구 강변역로 17",
      "lat": 37.538145,
      "lng": 127.0919087,
      "phone": "",
      "dong": "구의동"
    },
    {
      "naverPlaceId": "1633671365",
      "name": "구의2동공영주차장 무인안심택배함",
      "address": "서울특별시 광진구 구의동 30-15",
      "roadAddress": "서울특별시 광진구 자양로 309",
      "lat": 37.5530791,
      "lng": 127.0930949,
      "phone": "",
      "dong": "구의동"
    },
    {
      "naverPlaceId": "1760216696",
      "name": "구의1동공영주차장 안심택배함",
      "address": "서울특별시 광진구 구의동 243-78",
      "roadAddress": "서울특별시 광진구 자양로18길 78",
      "lat": 37.5382527,
      "lng": 127.0878489,
      "phone": "",
      "dong": "구의동"
    },
    {
      "naverPlaceId": "1723357837",
      "name": "구의1동 공영주차장 개방화장실",
      "address": "서울특별시 광진구 구의동 243-78",
      "roadAddress": "서울특별시 광진구 자양로18길 78",
      "lat": 37.5382957,
      "lng": 127.0878804,
      "phone": "02-2049-4534",
      "dong": "구의동"
    },
    {
      "naverPlaceId": "1745436266",
      "name": "구의3동 공영주차장 전기차충전소",
      "address": "서울특별시 광진구 구의동 219-15",
      "roadAddress": "서울특별시 광진구 광나루로52길 83",
      "lat": 37.539152,
      "lng": 127.091363,
      "phone": "1522-2573",
      "dong": "구의동"
    },
    {
      "naverPlaceId": "18813019",
      "name": "구의1동공영주차장입구",
      "address": "서울특별시 광진구 구의동",
      "roadAddress": "",
      "lat": 37.5383726,
      "lng": 127.0876831,
      "phone": "",
      "dong": "구의동"
    },
    {
      "naverPlaceId": "1508881252",
      "name": "동서울노상공영주차장",
      "address": "서울특별시 광진구 구의동 598 동서울노상공영주차장",
      "roadAddress": "서울특별시 광진구 구의강변로 31 (구의동) 동서울노상공영주차장",
      "lat": 37.5336702,
      "lng": 127.0912954,
      "phone": "",
      "dong": "구의동"
    },
    {
      "naverPlaceId": "1627836769",
      "name": "쏘카 동서울 노상공영주차장(유료24)",
      "address": "서울특별시 광진구 구의동 625-3 동서울길 노상공영주차장",
      "roadAddress": "",
      "lat": 37.532253,
      "lng": 127.091854,
      "phone": "1661-8838",
      "dong": "구의동"
    },
    {
      "naverPlaceId": "1486674279",
      "name": "구의3동 공영주차장 개방화장실",
      "address": "서울특별시 광진구 구의동 219-15",
      "roadAddress": "서울특별시 광진구 광나루로52길 83",
      "lat": 37.5391258,
      "lng": 127.091365,
      "phone": "02-2049-4540",
      "dong": "구의동"
    },
    {
      "naverPlaceId": "1232579126",
      "name": "광진 구의3동 공영주차장 전기차충전소",
      "address": "서울특별시 광진구 구의동 219-15",
      "roadAddress": "서울특별시 광진구 광나루로52길 83",
      "lat": 37.5391154,
      "lng": 127.091361,
      "phone": "1833-8777",
      "dong": "구의동"
    },
    {
      "naverPlaceId": "1955845203",
      "name": "구의1동공영주차장출구",
      "address": "서울특별시 광진구 구의동",
      "roadAddress": "",
      "lat": 37.5384675,
      "lng": 127.0879665,
      "phone": "",
      "dong": "구의동"
    },
    {
      "naverPlaceId": "1421272412",
      "name": "서울시 광진구 동서울길공영주차장 전기차충전소",
      "address": "서울특별시 광진구 구의동 598-1",
      "roadAddress": "",
      "lat": 37.5335301,
      "lng": 127.0913291,
      "phone": "1600-4047",
      "dong": "구의동"
    },
    {
      "naverPlaceId": "1388117200",
      "name": "동서울공영주차장입구",
      "address": "서울특별시 광진구 구의동",
      "roadAddress": "",
      "lat": 37.5335713,
      "lng": 127.0915146,
      "phone": "",
      "dong": "구의동"
    },
    {
      "naverPlaceId": "1453777774",
      "name": "구의3동공영주차장입구",
      "address": "서울특별시 광진구 구의동",
      "roadAddress": "",
      "lat": 37.5392672,
      "lng": 127.0913662,
      "phone": "",
      "dong": "구의동"
    },
    {
      "naverPlaceId": "1053188520",
      "name": "군자동 공영주차장 지하1층 대피소",
      "address": "서울특별시 광진구 군자동 2-55",
      "roadAddress": "서울특별시 광진구 능동로27길 12",
      "lat": 37.5538744,
      "lng": 127.0768264,
      "phone": "",
      "dong": "군자동"
    },
    {
      "naverPlaceId": "18836572",
      "name": "광진광장공영주차장입구",
      "address": "서울특별시 광진구 군자동",
      "roadAddress": "",
      "lat": 37.547884,
      "lng": 127.0729347,
      "phone": "",
      "dong": "군자동"
    },
    {
      "naverPlaceId": "1476820294",
      "name": "쏘카 광진광장 공영주차장",
      "address": "서울특별시 광진구 군자동 374-4 광진광장 지상 1층",
      "roadAddress": "서울특별시 광진구 광나루로 389 광진광장 지상 1층",
      "lat": 37.547792,
      "lng": 127.073136,
      "phone": "1661-8838",
      "dong": "군자동"
    },
    {
      "naverPlaceId": "36028596",
      "name": "중곡제일골목시장공영주차장",
      "address": "서울특별시 광진구 중곡동 221-16",
      "roadAddress": "",
      "lat": 37.5639728,
      "lng": 127.081933,
      "phone": "",
      "dong": "중곡동"
    },
    {
      "naverPlaceId": "1285302417",
      "name": "중곡1동공영주차장",
      "address": "서울특별시 광진구 중곡동 230-13",
      "roadAddress": "서울특별시 광진구 면목로 128",
      "lat": 37.5646507,
      "lng": 127.0807181,
      "phone": "02-3405-4530",
      "dong": "중곡동"
    },
    {
      "naverPlaceId": "1891113511",
      "name": "한전부지 임시 공영주차장",
      "address": "서울특별시 광진구 중곡동 168-2",
      "roadAddress": "서울특별시 광진구 능동로 427",
      "lat": 37.5674532,
      "lng": 127.0848415,
      "phone": "",
      "dong": "중곡동"
    },
    {
      "naverPlaceId": "1389507922",
      "name": "능동 주민센터 주차장",
      "address": "서울특별시 광진구 능동 232-4",
      "roadAddress": "서울특별시 광진구 천호대로112길 55",
      "lat": 37.5537167,
      "lng": 127.0805313,
      "phone": "",
      "dong": "능동"
    },
    {
      "naverPlaceId": "1788056139",
      "name": "능동공영주차장 개방화장실",
      "address": "서울특별시 광진구 능동 205",
      "roadAddress": "서울특별시 광진구 천호대로112길 56",
      "lat": 37.5540383,
      "lng": 127.0803441,
      "phone": "02-2049-4534",
      "dong": "능동"
    },
    {
      "naverPlaceId": "1305631399",
      "name": "광진 능동 공영주차장 전기차충전소",
      "address": "서울특별시 광진구 능동 205",
      "roadAddress": "서울특별시 광진구 천호대로112길 56",
      "lat": 37.5540417,
      "lng": 127.0802433,
      "phone": "1833-8777",
      "dong": "능동"
    },
    {
      "naverPlaceId": "1539878724",
      "name": "서울광진 능동공영주차장 전기차충전소",
      "address": "서울특별시 광진구 능동 205",
      "roadAddress": "서울특별시 광진구 천호대로112길 56",
      "lat": 37.5540363,
      "lng": 127.0802669,
      "phone": "1877-6546",
      "dong": "능동"
    },
    {
      "naverPlaceId": "38416175",
      "name": "구의문주차장앞자전거대여소",
      "address": "서울특별시 광진구 능동",
      "roadAddress": "",
      "lat": 37.5452916,
      "lng": 127.0846066,
      "phone": "",
      "dong": "능동"
    },
    {
      "naverPlaceId": "21185733",
      "name": "공영주차장",
      "address": "서울특별시 광진구 중곡동 69-2",
      "roadAddress": "",
      "lat": 37.5592215,
      "lng": 127.092173,
      "phone": "",
      "dong": "중곡동"
    },
    {
      "naverPlaceId": "35977264",
      "name": "뚝섬 안내센터 앞 공영 주차장",
      "address": "서울특별시 광진구 자양동 435",
      "roadAddress": "",
      "lat": 37.5290689,
      "lng": 127.073523,
      "phone": "02-3780-0841",
      "dong": "자양동"
    },
    {
      "naverPlaceId": "35977209",
      "name": "뚝섬청담대교밑 공영 주차장",
      "address": "서울특별시 광진구 자양동 97-5",
      "roadAddress": "서울특별시 광진구 강변북로 2202",
      "lat": 37.5312587,
      "lng": 127.0653231,
      "phone": "02-3780-0841",
      "dong": "자양동"
    },
    {
      "naverPlaceId": "37049189",
      "name": "뚝섬윈드서핑장옆 공영 주차장",
      "address": "서울특별시 광진구 자양동 409",
      "roadAddress": "",
      "lat": 37.5276111,
      "lng": 127.0783641,
      "phone": "02-3780-0841",
      "dong": "자양동"
    },
    {
      "naverPlaceId": "1034447587",
      "name": "송림식당길 노상공영주차장",
      "address": "서울특별시 광진구 자양동 712",
      "roadAddress": "",
      "lat": 37.5344551,
      "lng": 127.0760659,
      "phone": "",
      "dong": "자양동"
    },
    {
      "naverPlaceId": "2142748603",
      "name": "자양5구역공영주차장(2026년02월예정)",
      "address": "서울특별시 광진구 자양동 680-81",
      "roadAddress": "서울특별시 광진구 자양로 72",
      "lat": 37.5342156,
      "lng": 127.0869869,
      "phone": "",
      "dong": "자양동"
    },
    {
      "naverPlaceId": "1802112664",
      "name": "송림기사식당길 노상 공영 주차장",
      "address": "서울특별시 광진구 자양동 794-10",
      "roadAddress": "",
      "lat": 37.5377459,
      "lng": 127.0769137,
      "phone": "",
      "dong": "자양동"
    },
    {
      "naverPlaceId": "2143397416",
      "name": "50 동부캠퍼스 공영주차장",
      "address": "서울특별시 광진구 자양동 57-153",
      "roadAddress": "서울특별시 광진구 능동로3길 73",
      "lat": 37.5340629,
      "lng": 127.0633107,
      "phone": "",
      "dong": "자양동"
    },
    {
      "naverPlaceId": "1488689066",
      "name": "자양4동공영주차장입출구",
      "address": "서울특별시 광진구 자양동",
      "roadAddress": "",
      "lat": 37.5384279,
      "lng": 127.068256,
      "phone": "",
      "dong": "자양동"
    },
    {
      "naverPlaceId": "1092716481",
      "name": "서울광진 광진구 자양4동 전통시장 공영주차장 1 전기차충전소",
      "address": "서울특별시 광진구 자양동 43-44",
      "roadAddress": "서울특별시 광진구 뚝섬로 481",
      "lat": 37.5366545,
      "lng": 127.0641742,
      "phone": "1661-7766",
      "dong": "자양동"
    },
    {
      "naverPlaceId": "1168999453",
      "name": "광진구 자양4동 공영주차장 전기차충전소",
      "address": "서울특별시 광진구 자양동 5-5",
      "roadAddress": "",
      "lat": 37.5386773,
      "lng": 127.0681886,
      "phone": "1833-9131",
      "dong": "자양동"
    },
    {
      "naverPlaceId": "1715082737",
      "name": "송림식당길노상공영주차장",
      "address": "서울특별시 광진구 자양동 611-3 송림식당길노상공영주차장",
      "roadAddress": "서울특별시 광진구 자양번영로 60 (자양동) 송림식당길노상공영주차장",
      "lat": 37.5347466,
      "lng": 127.0764415,
      "phone": "",
      "dong": "자양동"
    },
    {
      "naverPlaceId": "1326785233",
      "name": "광진 자양유수지 공영주차장 전기차충전소",
      "address": "서울특별시 광진구 자양동 594",
      "roadAddress": "서울특별시 광진구 뚝섬로52길 58",
      "lat": 37.5295368,
      "lng": 127.0782846,
      "phone": "1833-8777",
      "dong": "자양동"
    },
    {
      "naverPlaceId": "1378192753",
      "name": "자양4동 전통시장 공영주차장 전기차충전소",
      "address": "서울특별시 광진구 자양동 43-44",
      "roadAddress": "서울특별시 광진구 뚝섬로 481",
      "lat": 37.536788,
      "lng": 127.064486,
      "phone": "1522-2573",
      "dong": "자양동"
    },
    {
      "naverPlaceId": "1793151370",
      "name": "자양유수지 노상 공영 주차장 전기차충전소",
      "address": "서울특별시 광진구 자양동 594",
      "roadAddress": "서울특별시 광진구 뚝섬로52길 74",
      "lat": 37.5299304,
      "lng": 127.0770995,
      "phone": "1661-9408",
      "dong": "자양동"
    },
    {
      "naverPlaceId": "1379682802",
      "name": "쏘카 자양4동 공영주차장",
      "address": "서울특별시 광진구 자양동 5-5",
      "roadAddress": "",
      "lat": 37.538675,
      "lng": 127.068254,
      "phone": "1661-8838",
      "dong": "자양동"
    },
    {
      "naverPlaceId": "1279302351",
      "name": "자양유수지 공영주차장 전기차충전소",
      "address": "서울특별시 광진구 자양동 594",
      "roadAddress": "서울특별시 광진구 뚝섬로52길 74",
      "lat": 37.5296547,
      "lng": 127.0776158,
      "phone": "1522-1782",
      "dong": "자양동"
    },
    {
      "naverPlaceId": "1832419813",
      "name": "서울광진 자양4동 공영주차장 전기차충전소",
      "address": "서울특별시 광진구 자양동 5-12",
      "roadAddress": "서울특별시 광진구 동일로18길 101",
      "lat": 37.5384802,
      "lng": 127.0683755,
      "phone": "1877-6546",
      "dong": "자양동"
    },
    {
      "naverPlaceId": "1078698479",
      "name": "중곡3동 공영 주차장",
      "address": "서울특별시 광진구 중곡동 200",
      "roadAddress": "",
      "lat": 37.5702526,
      "lng": 127.0844855,
      "phone": "",
      "dong": "중곡동"
    },
    {
      "naverPlaceId": "1073254891",
      "name": "신성전통시장 노상 공영 주차장",
      "address": "서울특별시 광진구 중곡동 453",
      "roadAddress": "",
      "lat": 37.5573097,
      "lng": 127.0898993,
      "phone": "",
      "dong": "중곡동"
    },
    {
      "naverPlaceId": "21185821",
      "name": "중곡복개천길공영노상주차장",
      "address": "서울특별시 광진구 중곡동 277-1",
      "roadAddress": "",
      "lat": 37.5613167,
      "lng": 127.0842375,
      "phone": "",
      "dong": "중곡동"
    },
    {
      "naverPlaceId": "1981856353",
      "name": "중곡복개천길노상공영주차장",
      "address": "서울특별시 광진구 중곡동 277-2",
      "roadAddress": "",
      "lat": 37.5617438,
      "lng": 127.0831584,
      "phone": "",
      "dong": "중곡동"
    },
    {
      "naverPlaceId": "1749083986",
      "name": "배나무터공원공영주차장",
      "address": "서울특별시 광진구 중곡동 684-11",
      "roadAddress": "",
      "lat": 37.5686819,
      "lng": 127.0801214,
      "phone": "",
      "dong": "중곡동"
    },
    {
      "naverPlaceId": "2144027923",
      "name": "소아청소년부지임시공영주차장",
      "address": "서울특별시 광진구 중곡동",
      "roadAddress": "서울특별시 광진구",
      "lat": 37.5662183,
      "lng": 127.0860912,
      "phone": "",
      "dong": "중곡동"
    },
    {
      "naverPlaceId": "18800272",
      "name": "중곡3동 공영 주차장입출구",
      "address": "서울특별시 광진구 중곡동",
      "roadAddress": "",
      "lat": 37.5702531,
      "lng": 127.0845896,
      "phone": "",
      "dong": "중곡동"
    },
    {
      "naverPlaceId": "1733962197",
      "name": "광진 한전부지 임시공영주차장 전기차충전소",
      "address": "서울특별시 광진구 중곡동 168-2",
      "roadAddress": "서울특별시 광진구 능동로 427",
      "lat": 37.5671212,
      "lng": 127.0845998,
      "phone": "1833-8777",
      "dong": "중곡동"
    },
    {
      "naverPlaceId": "1319429881",
      "name": "중곡복개천길노상공영주차장",
      "address": "서울특별시 광진구 중곡동 43-5 중곡복개천길노상공영주차장",
      "roadAddress": "서울특별시 광진구 긴고랑로 68 (중곡동) 중곡복개천길노상공영주차장",
      "lat": 37.5615359,
      "lng": 127.083282,
      "phone": "",
      "dong": "중곡동"
    },
    {
      "naverPlaceId": "1652452604",
      "name": "중곡제일골목시장공영주차장입구",
      "address": "서울특별시 광진구 중곡동",
      "roadAddress": "",
      "lat": 37.5637697,
      "lng": 127.0822499,
      "phone": "",
      "dong": "중곡동"
    },
    {
      "naverPlaceId": "1064174710",
      "name": "배나무터 공영주차장 전기차충전소",
      "address": "서울특별시 광진구 중곡동 695-1 20",
      "roadAddress": "서울특별시 광진구 동일로76나길 18 20",
      "lat": 37.5684756,
      "lng": 127.0802645,
      "phone": "02-2059-1177",
      "dong": "중곡동"
    },
    {
      "naverPlaceId": "1397278773",
      "name": "긴고랑길공영주차장 전기차충전소",
      "address": "서울특별시 광진구 중곡동 72-61",
      "roadAddress": "서울특별시 광진구 긴고랑로45길 7",
      "lat": 37.5605333,
      "lng": 127.0947913,
      "phone": "1600-4047",
      "dong": "중곡동"
    },
    {
      "naverPlaceId": "1039592660",
      "name": "서울광진 중곡3동 마을공원 공영주차장 전기차충전소",
      "address": "서울특별시 광진구 중곡동 195-1",
      "roadAddress": "서울특별시 광진구 용마산로33길 25",
      "lat": 37.5699205,
      "lng": 127.0846837,
      "phone": "1877-6546",
      "dong": "중곡동"
    },
    {
      "naverPlaceId": "1043866495",
      "name": "배나무터공원공영주차장입구",
      "address": "서울특별시 광진구 중곡동",
      "roadAddress": "",
      "lat": 37.5687488,
      "lng": 127.0799549,
      "phone": "",
      "dong": "중곡동"
    },
    {
      "naverPlaceId": "1207290000",
      "name": "중곡동 복개천 노상공영주차장(중곡동우체국 앞) 전기차충전소",
      "address": "서울특별시 광진구 중곡동 277-2",
      "roadAddress": "",
      "lat": 37.5617062,
      "lng": 127.083212,
      "phone": "02-2640-5199",
      "dong": "중곡동"
    }
  ],
  "sido": "서울특별시",
  "sigungu": "광진구",
  "totalCount": 71,
  "source": "naver-map",
  "scrapedAt": "2026-02-10"
}