{
  "items": [
    {
      "naverPlaceId": "37866007",
      "name": "구로아트밸리 공영주차장",
      "address": "서울특별시 구로구 구로동 102 구로구민회관",
      "roadAddress": "서울특별시 구로구 가마산로25길 21 구로구민회관",
      "lat": 37.4969039,
      "lng": 126.889948,
      "phone": "02-839-4875",
      "dong": "구로동"
    },
    {
      "naverPlaceId": "35977161",
      "name": "구로디지털단지역 공영주차장",
      "address": "서울특별시 구로구 구로동 810-3",
      "roadAddress": "서울특별시 구로구 도림천로 477",
      "lat": 37.4849282,
      "lng": 126.9016937,
      "phone": "02-2290-6034",
      "dong": "구로동"
    },
    {
      "naverPlaceId": "21186015",
      "name": "고척1동마을 공영주차장",
      "address": "서울특별시 구로구 고척동 52-54",
      "roadAddress": "서울특별시 구로구 중앙로8길 16",
      "lat": 37.502375,
      "lng": 126.8638499,
      "phone": "02-839-4875",
      "dong": "고척동"
    },
    {
      "naverPlaceId": "36046294",
      "name": "천왕역 공영 주차장",
      "address": "서울특별시 구로구 천왕동 14-38",
      "roadAddress": "",
      "lat": 37.4871767,
      "lng": 126.8391959,
      "phone": "02-2290-6343",
      "dong": "천왕동"
    },
    {
      "naverPlaceId": "1051376431",
      "name": "오류1동텃골 공영주차장",
      "address": "서울특별시 구로구 오류동 6-11 오류1동텃골 공영주차장",
      "roadAddress": "서울특별시 구로구 경인로15길 22 오류1동텃골 공영주차장",
      "lat": 37.495482,
      "lng": 126.8391808,
      "phone": "02-839-4875",
      "dong": "오류동"
    },
    {
      "naverPlaceId": "1146322125",
      "name": "오류동역 공영 주차장",
      "address": "서울특별시 구로구 오류동 66-10",
      "roadAddress": "",
      "lat": 37.494768,
      "lng": 126.8433491,
      "phone": "",
      "dong": "오류동"
    },
    {
      "naverPlaceId": "38301029",
      "name": "구로4동 공동주차장",
      "address": "서울특별시 구로구 구로동 741-27 구로구시설관리공단",
      "roadAddress": "서울특별시 구로구 구로동로26길 54 구로구시설관리공단",
      "lat": 37.4897349,
      "lng": 126.886938,
      "phone": "02-839-4875",
      "dong": "구로동"
    },
    {
      "naverPlaceId": "1242657199",
      "name": "구로미래도서관공영주차장",
      "address": "서울특별시 구로구 구로동 1-4",
      "roadAddress": "서울특별시 구로구 새말로 111",
      "lat": 37.5074017,
      "lng": 126.8913575,
      "phone": "02-839-4875",
      "dong": "구로동"
    },
    {
      "naverPlaceId": "38277399",
      "name": "고척근린공원지하 공영주차장",
      "address": "서울특별시 구로구 고척동 산9-14",
      "roadAddress": "서울특별시 구로구 고척로45길 1",
      "lat": 37.5040898,
      "lng": 126.852548,
      "phone": "02-839-4875",
      "dong": "고척동"
    },
    {
      "naverPlaceId": "21185845",
      "name": "온수역 노상 공영 주차장",
      "address": "서울특별시 구로구 온수동 119 7호선 온수역",
      "roadAddress": "서울특별시 구로구 경인로3길 64 7호선 온수역",
      "lat": 37.4918926,
      "lng": 126.8241885,
      "phone": "",
      "dong": "온수동"
    },
    {
      "naverPlaceId": "18959591",
      "name": "구로2동 마을공동 공영주차장",
      "address": "서울특별시 구로구 구로동 317-187",
      "roadAddress": "서울특별시 구로구 구로동로28길 81",
      "lat": 37.4914186,
      "lng": 126.8883198,
      "phone": "02-839-4875",
      "dong": "구로동"
    },
    {
      "naverPlaceId": "2144729654",
      "name": "개봉고가 공영주차장",
      "address": "서울특별시 구로구 개봉동 403-10",
      "roadAddress": "",
      "lat": 37.494164,
      "lng": 126.8561912,
      "phone": "02-850-0919",
      "dong": "개봉동"
    },
    {
      "naverPlaceId": "36060690",
      "name": "개봉1동노외 공영주차장",
      "address": "서울특별시 구로구 개봉동 134-8 개봉1동 주민센터",
      "roadAddress": "서울특별시 구로구 경인로33길 51 개봉1동 주민센터",
      "lat": 37.4999248,
      "lng": 126.8510306,
      "phone": "02-839-4875",
      "dong": "개봉동"
    },
    {
      "naverPlaceId": "37020627",
      "name": "구로구청 주차장",
      "address": "서울특별시 구로구 구로동 435 구로구청",
      "roadAddress": "서울특별시 구로구 가마산로 245 구로구청",
      "lat": 37.4951277,
      "lng": 126.8875981,
      "phone": "02-839-4875",
      "dong": "구로동"
    },
    {
      "naverPlaceId": "36060650",
      "name": "구로리공원지하 공영주차장",
      "address": "서울특별시 구로구 구로동 139-82 구로리공원",
      "roadAddress": "서울특별시 구로구 구로중앙로 13 구로리공원",
      "lat": 37.4911762,
      "lng": 126.8917124,
      "phone": "02-839-4875",
      "dong": "구로동"
    },
    {
      "naverPlaceId": "36046295",
      "name": "하늘공원 공영주차장",
      "address": "서울특별시 구로구 가리봉동 1-11",
      "roadAddress": "서울특별시 구로구 벚꽃로 370",
      "lat": 37.4872035,
      "lng": 126.8807388,
      "phone": "02-839-4875",
      "dong": "가리봉동"
    },
    {
      "naverPlaceId": "21185680",
      "name": "오류역앞공영노상주차장",
      "address": "서울특별시 구로구 오류동",
      "roadAddress": "",
      "lat": 37.4927013,
      "lng": 126.8420125,
      "phone": "",
      "dong": "오류동"
    },
    {
      "naverPlaceId": "1193800007",
      "name": "가리봉통합지원센터 공영주차장",
      "address": "서울특별시 구로구 가리봉동 118-11",
      "roadAddress": "서울특별시 구로구 우마2길 35",
      "lat": 37.4824688,
      "lng": 126.8897986,
      "phone": "02-839-4875",
      "dong": "가리봉동"
    },
    {
      "naverPlaceId": "1259947379",
      "name": "고척리본타운 공영주차장",
      "address": "서울특별시 구로구 고척동 156",
      "roadAddress": "서울특별시 구로구 고척로52나길 25",
      "lat": 37.5051267,
      "lng": 126.8573601,
      "phone": "02-839-4875",
      "dong": "고척동"
    },
    {
      "naverPlaceId": "1305668184",
      "name": "구로2동소공원 공영주차장",
      "address": "서울특별시 구로구 구로동 454-1",
      "roadAddress": "서울특별시 구로구 구로동로42길 48-4",
      "lat": 37.4974801,
      "lng": 126.8839014,
      "phone": "02-839-4875",
      "dong": "구로동"
    },
    {
      "naverPlaceId": "1317833012",
      "name": "하늘공원 공영주차장 한국전력 전기차충전소",
      "address": "서울특별시 구로구 가리봉동 1-11",
      "roadAddress": "서울특별시 구로구 벚꽃로 370",
      "lat": 37.4871673,
      "lng": 126.880783,
      "phone": "1899-2100",
      "dong": "가리봉동"
    },
    {
      "naverPlaceId": "1135674692",
      "name": "하늘공원 공영주차장 스타코프 전기차충전소",
      "address": "서울특별시 구로구 가리봉동 1-11",
      "roadAddress": "서울특별시 구로구 벚꽃로 370",
      "lat": 37.4871768,
      "lng": 126.8807968,
      "phone": "02-1833-4903",
      "dong": "가리봉동"
    },
    {
      "naverPlaceId": "1301013658",
      "name": "하늘공원 공영 주차장입구",
      "address": "서울특별시 구로구 가리봉동",
      "roadAddress": "",
      "lat": 37.4870898,
      "lng": 126.8806791,
      "phone": "",
      "dong": "가리봉동"
    },
    {
      "naverPlaceId": "38277398",
      "name": "개봉1동마을공동 공영주차장",
      "address": "서울특별시 구로구 개봉동 416-2",
      "roadAddress": "",
      "lat": 37.5056739,
      "lng": 126.8448303,
      "phone": "02-839-4875",
      "dong": "개봉동"
    },
    {
      "naverPlaceId": "1375908371",
      "name": "개봉1동 주민센터 옆 공영주차장 전기차충전소",
      "address": "서울특별시 구로구 개봉동 134-8 개봉1동 주민센터 ( 134-8)",
      "roadAddress": "서울특별시 구로구 경인로33길 51 개봉1동 주민센터 (개봉동 134-8)",
      "lat": 37.4999081,
      "lng": 126.8513474,
      "phone": "1661-9408",
      "dong": "개봉동"
    },
    {
      "naverPlaceId": "1296518763",
      "name": "개봉1동 공영주차장 전기차충전소",
      "address": "서울특별시 구로구 개봉동 416-2",
      "roadAddress": "",
      "lat": 37.5056692,
      "lng": 126.8448459,
      "phone": "1600-4047",
      "dong": "개봉동"
    },
    {
      "naverPlaceId": "1190566842",
      "name": "쏘카 개봉1동 노외공영주차장",
      "address": "서울특별시 구로구 개봉동 134-8",
      "roadAddress": "서울특별시 구로구 경인로33길 51",
      "lat": 37.500031,
      "lng": 126.851112,
      "phone": "1661-8838",
      "dong": "개봉동"
    },
    {
      "naverPlaceId": "1349889692",
      "name": "개봉1동 노외공영주차장 전기차충전소",
      "address": "서울특별시 구로구 개봉동 134-8",
      "roadAddress": "서울특별시 구로구 경인로33길 51",
      "lat": 37.4999921,
      "lng": 126.8510371,
      "phone": "02-2640-5199",
      "dong": "개봉동"
    },
    {
      "naverPlaceId": "1825100280",
      "name": "개봉1동 마을공동 공영 주차장입구",
      "address": "서울특별시 구로구 개봉동",
      "roadAddress": "",
      "lat": 37.5058042,
      "lng": 126.8448441,
      "phone": "",
      "dong": "개봉동"
    },
    {
      "naverPlaceId": "2140962438",
      "name": "개봉고가 공영주차장입구",
      "address": "서울특별시 구로구 개봉동",
      "roadAddress": "서울특별시 구로구",
      "lat": 37.4947704,
      "lng": 126.8562998,
      "phone": "",
      "dong": "개봉동"
    },
    {
      "naverPlaceId": "34354556",
      "name": "개봉1동공영주차장입구",
      "address": "서울특별시 구로구 개봉동",
      "roadAddress": "",
      "lat": 37.500123,
      "lng": 126.8512909,
      "phone": "",
      "dong": "개봉동"
    },
    {
      "naverPlaceId": "1851665529",
      "name": "고척근린시장공영주차장",
      "address": "서울특별시 구로구 고척동 253-124",
      "roadAddress": "",
      "lat": 37.5019207,
      "lng": 126.8499172,
      "phone": "02-839-4875",
      "dong": "고척동"
    },
    {
      "naverPlaceId": "1121452690",
      "name": "고척동 삼덕마을 공영주차장",
      "address": "서울특별시 구로구 고척동 241-21",
      "roadAddress": "",
      "lat": 37.5066821,
      "lng": 126.8484402,
      "phone": "02-839-4875",
      "dong": "고척동"
    },
    {
      "naverPlaceId": "1930206886",
      "name": "고척동 소규모 공영주차장",
      "address": "서울특별시 구로구 고척동 241-349",
      "roadAddress": "",
      "lat": 37.5059315,
      "lng": 126.8495417,
      "phone": "02-839-4876",
      "dong": "고척동"
    },
    {
      "naverPlaceId": "1404192823",
      "name": "고척 1동 마을공영 주차장 전기차충전소",
      "address": "서울특별시 구로구 고척동 52-54",
      "roadAddress": "서울특별시 구로구 중앙로8길 16",
      "lat": 37.5023063,
      "lng": 126.8638902,
      "phone": "02-1833-4903",
      "dong": "고척동"
    },
    {
      "naverPlaceId": "1840185334",
      "name": "고척근린공원지하 공영주차장입구",
      "address": "서울특별시 구로구 고척동",
      "roadAddress": "",
      "lat": 37.5041881,
      "lng": 126.8528218,
      "phone": "",
      "dong": "고척동"
    },
    {
      "naverPlaceId": "1291301689",
      "name": "고척근린공원 공영주차장 전기차충전소",
      "address": "서울특별시 구로구 고척동 산9-14",
      "roadAddress": "서울특별시 구로구 고척로45길 1",
      "lat": 37.504549,
      "lng": 126.852206,
      "phone": "02-1833-4903",
      "dong": "고척동"
    },
    {
      "naverPlaceId": "1088386138",
      "name": "쏘카 고척1동마을 공영주차장",
      "address": "서울특별시 구로구 고척동 52-54",
      "roadAddress": "서울특별시 구로구 중앙로8길 16",
      "lat": 37.5023229,
      "lng": 126.863892,
      "phone": "1661-8838",
      "dong": "고척동"
    },
    {
      "naverPlaceId": "1181640222",
      "name": "고척1동 마을 공영주차장 전기차충전소",
      "address": "서울특별시 구로구 고척동 52-54",
      "roadAddress": "서울특별시 구로구 중앙로8길 16",
      "lat": 37.5023065,
      "lng": 126.863891,
      "phone": "02-2640-5199",
      "dong": "고척동"
    },
    {
      "naverPlaceId": "1033326374",
      "name": "동구로 공영주차장",
      "address": "서울특별시 구로구 구로동 94-1",
      "roadAddress": "서울특별시 구로구 가마산로26길 27",
      "lat": 37.4949898,
      "lng": 126.8917925,
      "phone": "",
      "dong": "구로동"
    },
    {
      "naverPlaceId": "1330740302",
      "name": "구로5동마을공동공영주차장",
      "address": "서울특별시 구로구 구로동 549-73",
      "roadAddress": "",
      "lat": 37.500865,
      "lng": 126.8861715,
      "phone": "",
      "dong": "구로동"
    },
    {
      "naverPlaceId": "21185753",
      "name": "대림공영주차장",
      "address": "서울특별시 구로구 구로동 120-5",
      "roadAddress": "서울특별시 구로구 구로중앙로8길 50",
      "lat": 37.4928219,
      "lng": 126.8942719,
      "phone": "",
      "dong": "구로동"
    },
    {
      "naverPlaceId": "36005601",
      "name": "가마산고가밑노상공영주차장",
      "address": "서울특별시 구로구 구로동 414-32",
      "roadAddress": "",
      "lat": 37.4928808,
      "lng": 126.8825772,
      "phone": "",
      "dong": "구로동"
    },
    {
      "naverPlaceId": "35977625",
      "name": "구로3동마을 공동주차장",
      "address": "서울특별시 구로구 구로동 797-1",
      "roadAddress": "서울특별시 구로구 도림로6길 30",
      "lat": 37.4850328,
      "lng": 126.8884419,
      "phone": "02-839-4875",
      "dong": "구로동"
    },
    {
      "naverPlaceId": "36005600",
      "name": "제방도로노상공영주차장",
      "address": "서울특별시 구로구 구로동 58-11",
      "roadAddress": "",
      "lat": 37.499532,
      "lng": 126.8928571,
      "phone": "",
      "dong": "구로동"
    },
    {
      "naverPlaceId": "36005599",
      "name": "대림역2노상공영주차장",
      "address": "서울특별시 구로구 구로동 71-11",
      "roadAddress": "",
      "lat": 37.4953417,
      "lng": 126.8939262,
      "phone": "",
      "dong": "구로동"
    },
    {
      "naverPlaceId": "1808353809",
      "name": "공영주차장",
      "address": "서울특별시 구로구 구로동 1204 대림역",
      "roadAddress": "서울특별시 구로구 도림천로 351 대림역",
      "lat": 37.4939686,
      "lng": 126.8943393,
      "phone": "",
      "dong": "구로동"
    },
    {
      "naverPlaceId": "37160387",
      "name": "대림공영주차장",
      "address": "서울특별시 구로구 구로동 120-3 서울메트로",
      "roadAddress": "서울특별시 구로구 도림천로 352 서울메트로",
      "lat": 37.4933439,
      "lng": 126.8938783,
      "phone": "02-868-6417",
      "dong": "구로동"
    },
    {
      "naverPlaceId": "476705153",
      "name": "구로역직원전용주차장",
      "address": "서울특별시 구로구 구로동 585-3",
      "roadAddress": "서울특별시 구로구 구로중앙로 174",
      "lat": 37.501831,
      "lng": 126.88183,
      "phone": "",
      "dong": "구로동"
    },
    {
      "naverPlaceId": "37597022",
      "name": "구로아트밸리예술극장공영주차장입구",
      "address": "서울특별시 구로구 구로동",
      "roadAddress": "",
      "lat": 37.4969958,
      "lng": 126.8900969,
      "phone": "",
      "dong": "구로동"
    },
    {
      "naverPlaceId": "21187758",
      "name": "구로리어린이공원지하공영주차장입구",
      "address": "서울특별시 구로구 구로동",
      "roadAddress": "",
      "lat": 37.49139,
      "lng": 126.8916435,
      "phone": "",
      "dong": "구로동"
    },
    {
      "naverPlaceId": "1840755401",
      "name": "오류1동텃골공영주차장 안심택배함",
      "address": "서울특별시 구로구 오류동 6-11",
      "roadAddress": "서울특별시 구로구 경인로15길 22",
      "lat": 37.4954536,
      "lng": 126.8391665,
      "phone": "",
      "dong": "오류동"
    },
    {
      "naverPlaceId": "1550668535",
      "name": "구로구 오류1동 텃골공영주차장 전기차충전소",
      "address": "서울특별시 구로구 오류동 6-11",
      "roadAddress": "서울특별시 구로구 경인로15길 22",
      "lat": 37.4954724,
      "lng": 126.8391495,
      "phone": "1833-9131",
      "dong": "오류동"
    },
    {
      "naverPlaceId": "1367770321",
      "name": "쏘카 온수역(남) 노상공영주차장",
      "address": "서울특별시 구로구 온수동 51-26",
      "roadAddress": "서울특별시 구로구 경인로3길 64",
      "lat": 37.49184,
      "lng": 126.824012,
      "phone": "1661-8838",
      "dong": "온수동"
    },
    {
      "naverPlaceId": "37112716",
      "name": "G car zone 온수역 공영주차장",
      "address": "서울특별시 구로구 온수동 45-32 지하64()",
      "roadAddress": "서울특별시 구로구 경인로 5 지하64(온수동)",
      "lat": 37.491903,
      "lng": 126.8241375,
      "phone": "1899-1313",
      "dong": "온수동"
    },
    {
      "naverPlaceId": "1197652240",
      "name": "천왕역 공영 주차장입출구",
      "address": "서울특별시 구로구 천왕동",
      "roadAddress": "",
      "lat": 37.4874246,
      "lng": 126.839409,
      "phone": "",
      "dong": "천왕동"
    },
    {
      "naverPlaceId": "1426499666",
      "name": "서울시 천왕역공영주차장(급속) 전기차충전소",
      "address": "서울특별시 구로구 천왕동 280-11",
      "roadAddress": "서울특별시 구로구 오리로 1156",
      "lat": 37.487264,
      "lng": 126.8391489,
      "phone": "1661-7766",
      "dong": "천왕동"
    },
    {
      "naverPlaceId": "1607415574",
      "name": "천왕역 공영 주차장입구",
      "address": "서울특별시 구로구 천왕동",
      "roadAddress": "",
      "lat": 37.4872338,
      "lng": 126.8386833,
      "phone": "",
      "dong": "천왕동"
    },
    {
      "naverPlaceId": "1931882859",
      "name": "천왕역 공영 주차장입구",
      "address": "서울특별시 구로구 천왕동",
      "roadAddress": "",
      "lat": 37.4867784,
      "lng": 126.8391254,
      "phone": "",
      "dong": "천왕동"
    }
  ],
  "sido": "서울특별시",
  "sigungu": "구로구",
  "totalCount": 59,
  "source": "naver-map",
  "scrapedAt": "2026-02-10"
}