{
  "items": [
    {
      "naverPlaceId": "1854607593",
      "name": "[전기차충전소] 가산디지털서측  노외공영주차장",
      "address": "서울특별시 금천구 가산동 505-3 가산디지털서측 노외공영주차장",
      "roadAddress": "서울특별시 금천구 가산디지털1로 230",
      "lat": 37.4856898,
      "lng": 126.8795914,
      "phone": "",
      "dong": "가산동"
    },
    {
      "naverPlaceId": "1945402549",
      "name": "[금천구 노상주차장] 가산동 공영주차장",
      "address": "서울특별시 금천구 가산동 148-28 공영주차장",
      "roadAddress": "서울특별시 금천구 시흥대로153길 53 (가산동) 가산동 공영주차장",
      "lat": 37.476677,
      "lng": 126.8955791,
      "phone": "",
      "dong": "가산동"
    },
    {
      "naverPlaceId": "37662764",
      "name": "가산동 공영 주차장",
      "address": "서울특별시 금천구 가산동 148-28 공영주차장",
      "roadAddress": "서울특별시 금천구 시흥대로153길 53 가산동 공영주차장",
      "lat": 37.4767346,
      "lng": 126.8955125,
      "phone": "02-809-8573",
      "dong": "가산동"
    },
    {
      "naverPlaceId": "37197180",
      "name": "쏘카 남부여성발전센터 공영주차장",
      "address": "서울특별시 금천구 시흥동 산139-2",
      "roadAddress": "서울특별시 금천구 독산로50길 23",
      "lat": 37.4627,
      "lng": 126.906441,
      "phone": "1661-8838",
      "dong": "시흥동"
    },
    {
      "naverPlaceId": "1683764502",
      "name": "[금천구 노상주차장] 시흥4동 공영주차장(신흥초교 지하)",
      "address": "서울특별시 금천구 시흥동 704-56 시흥4동 공영주차장(신흥초교 지하)",
      "roadAddress": "서울특별시 금천구 독산로36나길 21 (시흥동) 시흥4동 공영주차장(신흥초교 지하)",
      "lat": 37.4596985,
      "lng": 126.9086187,
      "phone": "",
      "dong": "시흥동"
    },
    {
      "naverPlaceId": "1535268138",
      "name": "[금천구 노상주차장] 시흥1동 공영주차장",
      "address": "서울특별시 금천구 시흥동 555-3 시흥1동 공영주차장",
      "roadAddress": "서울특별시 금천구 시흥대로51길 93 (시흥동) 시흥1동 공영주차장",
      "lat": 37.4507084,
      "lng": 126.8966738,
      "phone": "",
      "dong": "시흥동"
    },
    {
      "naverPlaceId": "1741519647",
      "name": "서울 금천구 독산2동 마을공원 공영주차장 전기차충전소",
      "address": "서울특별시 금천구 독산동 1056-5",
      "roadAddress": "서울특별시 금천구 시흥대로98길 27",
      "lat": 37.4638037,
      "lng": 126.8993095,
      "phone": "1833-9131",
      "dong": "독산동"
    },
    {
      "naverPlaceId": "1603402154",
      "name": "시흥1동 공영주차장",
      "address": "서울특별시 금천구 시흥동 886-14",
      "roadAddress": "서울특별시 금천구 금하로14길 6-16",
      "lat": 37.4532772,
      "lng": 126.9029666,
      "phone": "",
      "dong": "시흥동"
    },
    {
      "naverPlaceId": "21185841",
      "name": "시흥4동 효봉 공영 주차장",
      "address": "서울특별시 금천구 시흥4동 3-129",
      "roadAddress": "서울특별시 금천구 독산로50마길 6",
      "lat": 37.4608513,
      "lng": 126.9110125,
      "phone": "02-809-8573",
      "dong": ""
    },
    {
      "naverPlaceId": "21185887",
      "name": "독산1동공영주차장",
      "address": "서울특별시 금천구 독산동 1006-94 독산1동 공영주차장",
      "roadAddress": "서울특별시 금천구 범안로12가길 65 독산1동 공영주차장",
      "lat": 37.4649702,
      "lng": 126.8947618,
      "phone": "02-808-5115",
      "dong": "독산동"
    },
    {
      "naverPlaceId": "21185970",
      "name": "독산2동공영주차장",
      "address": "서울특별시 금천구 독산2동 1050-17",
      "roadAddress": "서울특별시 금천구 시흥대로98길 36",
      "lat": 37.4638429,
      "lng": 126.9000375,
      "phone": "02-808-2211",
      "dong": ""
    },
    {
      "naverPlaceId": "1205549992",
      "name": "독산4동 공영 주차장",
      "address": "서울특별시 금천구 독산동 187-40",
      "roadAddress": "서울특별시 금천구 독산로78다길 9",
      "lat": 37.4694323,
      "lng": 126.9045092,
      "phone": "02-809-8573",
      "dong": "독산동"
    },
    {
      "naverPlaceId": "36010776",
      "name": "견인보관소공영주차장",
      "address": "서울특별시 금천구 가산동 614-34",
      "roadAddress": "서울특별시 금천구 가산디지털2로 169-34",
      "lat": 37.4831961,
      "lng": 126.8757743,
      "phone": "",
      "dong": "가산동"
    },
    {
      "naverPlaceId": "35992930",
      "name": "삼성공영주차장",
      "address": "서울특별시 금천구 시흥동 171-1 삼성체육공원 공영주차장",
      "roadAddress": "서울특별시 금천구 독산로24마길 30 삼성체육공원 공영주차장",
      "lat": 37.4547429,
      "lng": 126.9091875,
      "phone": "02-809-8573",
      "dong": "시흥동"
    },
    {
      "naverPlaceId": "21185870",
      "name": "독산3동공영주차장",
      "address": "서울특별시 금천구 독산3동 898-24",
      "roadAddress": "서울특별시 금천구 독산로108길 44",
      "lat": 37.479529,
      "lng": 126.9064809,
      "phone": "02-809-8573",
      "dong": ""
    },
    {
      "naverPlaceId": "330061530",
      "name": "독산본동 다목적 공영 주차장",
      "address": "서울특별시 금천구 가산동 151-33",
      "roadAddress": "서울특별시 금천구 가산로 118-6",
      "lat": 37.4763283,
      "lng": 126.8930987,
      "phone": "",
      "dong": "가산동"
    },
    {
      "naverPlaceId": "1029448647",
      "name": "다목적 공영 주차장",
      "address": "서울특별시 금천구 독산동 971",
      "roadAddress": "서울특별시 금천구 시흥대로150길 56",
      "lat": 37.4763346,
      "lng": 126.9019072,
      "phone": "",
      "dong": "독산동"
    },
    {
      "naverPlaceId": "21185820",
      "name": "시흥3동공영주차장",
      "address": "서울특별시 금천구 시흥동 942-6",
      "roadAddress": "서울특별시 금천구 시흥대로28길 35-9",
      "lat": 37.442909,
      "lng": 126.9057819,
      "phone": "02-809-8573",
      "dong": "시흥동"
    },
    {
      "naverPlaceId": "36046314",
      "name": "가산디지털환승노상공영주차장",
      "address": "서울특별시 금천구 가산동 35-2",
      "roadAddress": "",
      "lat": 37.4842833,
      "lng": 126.8816162,
      "phone": "",
      "dong": "가산동"
    },
    {
      "naverPlaceId": "21186061",
      "name": "금천교노상공영주차장",
      "address": "서울특별시 금천구 가산동 677",
      "roadAddress": "",
      "lat": 37.4660429,
      "lng": 126.8874125,
      "phone": "031-405-8808",
      "dong": "가산동"
    },
    {
      "naverPlaceId": "36010782",
      "name": "범일운수 뒤 노상 공영 주차장",
      "address": "서울특별시 금천구 독산동 1082-4",
      "roadAddress": "",
      "lat": 37.4672775,
      "lng": 126.8903283,
      "phone": "",
      "dong": "독산동"
    },
    {
      "naverPlaceId": "1247025046",
      "name": "SJ테크노빌 노상 공영 주차장",
      "address": "서울특별시 금천구 가산동 60-35",
      "roadAddress": "",
      "lat": 37.4792637,
      "lng": 126.8838938,
      "phone": "",
      "dong": "가산동"
    },
    {
      "naverPlaceId": "36010788",
      "name": "LG전자 앞 노상 공영 주차장",
      "address": "서울특별시 금천구 가산동 219-18",
      "roadAddress": "",
      "lat": 37.4751028,
      "lng": 126.8880051,
      "phone": "",
      "dong": "가산동"
    },
    {
      "naverPlaceId": "36010783",
      "name": "사조냉장 옆 노상 공영 주차장",
      "address": "서울특별시 금천구 독산동 302-12",
      "roadAddress": "",
      "lat": 37.4710867,
      "lng": 126.8913853,
      "phone": "",
      "dong": "독산동"
    },
    {
      "naverPlaceId": "36010795",
      "name": "모아래 노상 공영 주차장",
      "address": "서울특별시 금천구 독산1동 335-17",
      "roadAddress": "",
      "lat": 37.4720825,
      "lng": 126.8904838,
      "phone": "",
      "dong": ""
    },
    {
      "naverPlaceId": "21186067",
      "name": "금천교노상공영주차장",
      "address": "서울특별시 금천구 독산동 1081-4",
      "roadAddress": "",
      "lat": 37.4665096,
      "lng": 126.8899874,
      "phone": "031-405-8808",
      "dong": "독산동"
    },
    {
      "naverPlaceId": "1567331499",
      "name": "독산3동 구룡 공영 주차장",
      "address": "서울특별시 금천구 독산동 964",
      "roadAddress": "서울특별시 금천구 독산로107길 13",
      "lat": 37.4780425,
      "lng": 126.9028428,
      "phone": "",
      "dong": "독산동"
    },
    {
      "naverPlaceId": "36010778",
      "name": "현대시장공영주차장",
      "address": "서울특별시 금천구 시흥동 848-31 현대시장고객주민편의시설",
      "roadAddress": "서울특별시 금천구 독산로27길 52 현대시장고객주민편의시설",
      "lat": 37.457702,
      "lng": 126.9047777,
      "phone": "",
      "dong": "시흥동"
    },
    {
      "naverPlaceId": "36010775",
      "name": "가산디지털서측공영주차장",
      "address": "서울특별시 금천구 가산동 505-1",
      "roadAddress": "",
      "lat": 37.4857469,
      "lng": 126.8798249,
      "phone": "",
      "dong": "가산동"
    },
    {
      "naverPlaceId": "1496522573",
      "name": "가산동삼거리노상공영주차장",
      "address": "서울특별시 금천구 가산동 60-32",
      "roadAddress": "서울특별시 금천구 가산로9길 87",
      "lat": 37.4746884,
      "lng": 126.887425,
      "phone": "",
      "dong": "가산동"
    },
    {
      "naverPlaceId": "1314178704",
      "name": "노상주차장13",
      "address": "서울특별시 금천구 가산동 34-91",
      "roadAddress": "",
      "lat": 37.482989,
      "lng": 126.8824716,
      "phone": "02-809-0062",
      "dong": "가산동"
    },
    {
      "naverPlaceId": "1113662991",
      "name": "가산동공영주차장공중화장실",
      "address": "서울특별시 금천구 가산동 148-28",
      "roadAddress": "서울특별시 금천구 시흥대로153길 53",
      "lat": 37.4766272,
      "lng": 126.8955605,
      "phone": "",
      "dong": "가산동"
    },
    {
      "naverPlaceId": "1961504769",
      "name": "가산 공영주차장 전기차충전소",
      "address": "서울특별시 금천구 가산동 148-28",
      "roadAddress": "서울특별시 금천구 시흥대로153길 53",
      "lat": 37.476677,
      "lng": 126.8955792,
      "phone": "02-2640-5199",
      "dong": "가산동"
    },
    {
      "naverPlaceId": "1031307387",
      "name": "[전기차충전소] 가산동노외 공영 주차장",
      "address": "서울특별시 금천구 가산동 614-34 가산동노외 공영 주차장",
      "roadAddress": "서울특별시 금천구 가산디지털2로 169-34",
      "lat": 37.4831792,
      "lng": 126.8758116,
      "phone": "",
      "dong": "가산동"
    },
    {
      "naverPlaceId": "1159657406",
      "name": "전기차충전소 (가산동 공영주차장)",
      "address": "서울특별시 금천구 가산동 148-28 공영주차장",
      "roadAddress": "서울특별시 금천구 시흥대로153길 53 (가산동) 가산동 공영주차장",
      "lat": 37.476677,
      "lng": 126.8955791,
      "phone": "",
      "dong": "가산동"
    },
    {
      "naverPlaceId": "38740392",
      "name": "가산동공영주차장 개방화장실",
      "address": "서울특별시 금천구 가산동 148-28",
      "roadAddress": "서울특별시 금천구 시흥대로153길 53",
      "lat": 37.4766757,
      "lng": 126.8955648,
      "phone": "02-809-0061",
      "dong": "가산동"
    },
    {
      "naverPlaceId": "1737703727",
      "name": "[전기차충전소] 가산동 노상공영주차장",
      "address": "서울특별시 금천구 가산동 239-26 노상 공영주차장",
      "roadAddress": "서울특별시 금천구 가산로9길 97 가산동노상 공영주차장",
      "lat": 37.4745441,
      "lng": 126.8872569,
      "phone": "",
      "dong": "가산동"
    },
    {
      "naverPlaceId": "1937155605",
      "name": "가산동 삼거리 노상 공영주차장 전기차충전소",
      "address": "서울특별시 금천구 가산동 60-36",
      "roadAddress": "",
      "lat": 37.4745814,
      "lng": 126.8869345,
      "phone": "1566-1704",
      "dong": "가산동"
    },
    {
      "naverPlaceId": "37112718",
      "name": "G car zone 가산동금천교 공영주차장",
      "address": "서울특별시 금천구 가산동 677",
      "roadAddress": "",
      "lat": 37.4659954,
      "lng": 126.8876353,
      "phone": "1899-1313",
      "dong": "가산동"
    },
    {
      "naverPlaceId": "1111756483",
      "name": "쏘카 가산동금천교 노상공영주차장",
      "address": "서울특별시 금천구 가산동 677",
      "roadAddress": "",
      "lat": 37.465932,
      "lng": 126.887386,
      "phone": "1661-8838",
      "dong": "가산동"
    },
    {
      "naverPlaceId": "1841169495",
      "name": "독산2동지하공영주차장",
      "address": "서울특별시 금천구 독산동 1056-5",
      "roadAddress": "서울특별시 금천구 시흥대로98길 27",
      "lat": 37.4638973,
      "lng": 126.899333,
      "phone": "",
      "dong": "독산동"
    },
    {
      "naverPlaceId": "613616102",
      "name": "구룡공원공영주차장",
      "address": "서울특별시 금천구 독산동 964",
      "roadAddress": "서울특별시 금천구 독산로107길 13",
      "lat": 37.4780054,
      "lng": 126.902865,
      "phone": "02-830-2323",
      "dong": "독산동"
    },
    {
      "naverPlaceId": "21185771",
      "name": "독산본동공영주차장",
      "address": "서울특별시 금천구 독산동",
      "roadAddress": "",
      "lat": 37.4740796,
      "lng": 126.8988693,
      "phone": "",
      "dong": "독산동"
    },
    {
      "naverPlaceId": "18988797",
      "name": "독산2동공영주차장",
      "address": "서울특별시 금천구 독산동 1040-58",
      "roadAddress": "",
      "lat": 37.4657551,
      "lng": 126.9032952,
      "phone": "",
      "dong": "독산동"
    },
    {
      "naverPlaceId": "1940118446",
      "name": "독산1동공영주차장",
      "address": "서울특별시 금천구 독산동 1121-1",
      "roadAddress": "",
      "lat": 37.4526388,
      "lng": 126.8916733,
      "phone": "",
      "dong": "독산동"
    },
    {
      "naverPlaceId": "1772304301",
      "name": "금천세무서주차장",
      "address": "서울특별시 금천구 독산동 1156 금천롯데캐슬골드파크4차",
      "roadAddress": "서울특별시 금천구 시흥대로 315 금천롯데캐슬골드파크4차",
      "lat": 37.4610145,
      "lng": 126.8970752,
      "phone": "",
      "dong": "독산동"
    },
    {
      "naverPlaceId": "1297389999",
      "name": "독산3동 소규모공영주차장",
      "address": "서울특별시 금천구 독산동 992-41",
      "roadAddress": "",
      "lat": 37.4735141,
      "lng": 126.9047419,
      "phone": "",
      "dong": "독산동"
    },
    {
      "naverPlaceId": "1546410889",
      "name": "독산2동소규모공영주차장",
      "address": "서울특별시 금천구 독산동 376-11",
      "roadAddress": "",
      "lat": 37.4672353,
      "lng": 126.9062937,
      "phone": "",
      "dong": "독산동"
    },
    {
      "naverPlaceId": "1635621710",
      "name": "독산3동공영주차장 개방화장실",
      "address": "서울특별시 금천구 독산동 161-23",
      "roadAddress": "서울특별시 금천구 시흥대로138길 10-11",
      "lat": 37.4721642,
      "lng": 126.8992688,
      "phone": "02-839-6931",
      "dong": "독산동"
    },
    {
      "naverPlaceId": "38740420",
      "name": "구룡공영주차장 개방화장실",
      "address": "서울특별시 금천구 독산동 964",
      "roadAddress": "서울특별시 금천구 독산로107길 13",
      "lat": 37.4778845,
      "lng": 126.902751,
      "phone": "02-809-0061",
      "dong": "독산동"
    }
  ],
  "sido": "서울특별시",
  "sigungu": "금천구",
  "totalCount": 50,
  "source": "naver-map",
  "scrapedAt": "2026-02-10"
}