{
  "items": [
    {
      "naverPlaceId": "1035781410",
      "name": "마들스타디움 근린공원 주차장",
      "address": "서울특별시 노원구 상계6.7동 770-2",
      "roadAddress": "서울특별시 노원구 덕릉로 450",
      "lat": 37.6448936,
      "lng": 127.0583268,
      "phone": "02-2289-6736",
      "dong": ""
    },
    {
      "naverPlaceId": "36010824",
      "name": "노원골 노상 공영 주차장",
      "address": "서울특별시 노원구 상계동 1120-72",
      "roadAddress": "",
      "lat": 37.6751379,
      "lng": 127.0574146,
      "phone": "02-2289-6720",
      "dong": "상계동"
    },
    {
      "naverPlaceId": "1668120574",
      "name": "등나무근린공원 공영주차장",
      "address": "서울특별시 노원구 중계동 508-1",
      "roadAddress": "",
      "lat": 37.640796,
      "lng": 127.0674491,
      "phone": "1661-8838",
      "dong": "중계동"
    },
    {
      "naverPlaceId": "1739042847",
      "name": "건영백화점 앞 공영주차장",
      "address": "서울특별시 노원구 중계동 507",
      "roadAddress": "서울특별시 노원구 동일로203가길 2-2",
      "lat": 37.6405103,
      "lng": 127.0647226,
      "phone": "",
      "dong": "중계동"
    },
    {
      "naverPlaceId": "1029910854",
      "name": "하계동 한글비 공영 주차장",
      "address": "서울특별시 노원구 하계동 256-1",
      "roadAddress": "",
      "lat": 37.6440038,
      "lng": 127.0760472,
      "phone": "",
      "dong": "하계동"
    },
    {
      "naverPlaceId": "18646988",
      "name": "상계2동공영주차장",
      "address": "서울특별시 노원구 상계동 373-13",
      "roadAddress": "서울특별시 노원구 상계로10길 14",
      "lat": 37.6568343,
      "lng": 127.0676393,
      "phone": "02-931-2758",
      "dong": "상계동"
    },
    {
      "naverPlaceId": "21186070",
      "name": "상계주공7단지아파트공영주차장",
      "address": "서울특별시 노원구 상계동 692",
      "roadAddress": "서울특별시 노원구 동일로 1456",
      "lat": 37.6563632,
      "lng": 127.0609971,
      "phone": "",
      "dong": "상계동"
    },
    {
      "naverPlaceId": "36010807",
      "name": "불암산공영주차장",
      "address": "서울특별시 노원구 중계동 산26",
      "roadAddress": "서울특별시 노원구 덕릉로94길 73",
      "lat": 37.6614653,
      "lng": 127.0792624,
      "phone": "",
      "dong": "중계동"
    },
    {
      "naverPlaceId": "21185652",
      "name": "공릉동 공영 주차장",
      "address": "서울특별시 노원구 공릉동 633-19",
      "roadAddress": "",
      "lat": 37.6201403,
      "lng": 127.0774375,
      "phone": "",
      "dong": "공릉동"
    },
    {
      "naverPlaceId": "37020624",
      "name": "노원구청 주차장",
      "address": "서울특별시 노원구 상계동 701-1",
      "roadAddress": "서울특별시 노원구 노해로 437",
      "lat": 37.6538856,
      "lng": 127.0569339,
      "phone": "02-2116-4229",
      "dong": "상계동"
    },
    {
      "naverPlaceId": "35977137",
      "name": "석계역공영주차장",
      "address": "서울특별시 노원구 월계동 50-9",
      "roadAddress": "서울특별시 노원구 석계로9길 66",
      "lat": 37.6153172,
      "lng": 127.0629741,
      "phone": "",
      "dong": "월계동"
    },
    {
      "naverPlaceId": "21187058",
      "name": "중계문화공원주차장",
      "address": "서울특별시 노원구 중계동",
      "roadAddress": "",
      "lat": 37.6395186,
      "lng": 127.0650912,
      "phone": "",
      "dong": "중계동"
    },
    {
      "naverPlaceId": "36010814",
      "name": "북부지원 주변 노상 공영 주차장",
      "address": "서울특별시 노원구 공릉동 629-1",
      "roadAddress": "",
      "lat": 37.6192909,
      "lng": 127.0775476,
      "phone": "02-2289-6720",
      "dong": "공릉동"
    },
    {
      "naverPlaceId": "1747481069",
      "name": "(구)북부지법주변 공영주차장",
      "address": "서울특별시 노원구 공릉동 622 구북부지법주변 공영주차장",
      "roadAddress": "서울특별시 노원구 동일로174길 27 (구)북부지법주변 공영주차장",
      "lat": 37.619616,
      "lng": 127.0767952,
      "phone": "",
      "dong": "공릉동"
    },
    {
      "naverPlaceId": "21185860",
      "name": "석계역 공영 주차장",
      "address": "서울특별시 노원구 월계동 65-1",
      "roadAddress": "",
      "lat": 37.6162398,
      "lng": 127.0648684,
      "phone": "070-7119-2792",
      "dong": "월계동"
    },
    {
      "naverPlaceId": "21185822",
      "name": "등나무문화공원공영주차장1",
      "address": "서울특별시 노원구 중계동 508-1",
      "roadAddress": "",
      "lat": 37.641174,
      "lng": 127.0673855,
      "phone": "02-949-7706",
      "dong": "중계동"
    },
    {
      "naverPlaceId": "37829445",
      "name": "가재울 공영 주차장",
      "address": "서울특별시 노원구 하계동 252-6",
      "roadAddress": "서울특별시 노원구 한글비석로 98",
      "lat": 37.6374649,
      "lng": 127.0731588,
      "phone": "02-974-8810",
      "dong": "하계동"
    },
    {
      "naverPlaceId": "1697932673",
      "name": "건영백화점 주차장",
      "address": "서울특별시 노원구 중계동 507",
      "roadAddress": "서울특별시 노원구 동일로203가길 2-2",
      "lat": 37.6395727,
      "lng": 127.0651776,
      "phone": "02-2289-6720",
      "dong": "중계동"
    },
    {
      "naverPlaceId": "35824427",
      "name": "주공6단지 노상 공영 주차장",
      "address": "서울특별시 노원구 상계동 723-2",
      "roadAddress": "서울특별시 노원구 동일로218길 44-2",
      "lat": 37.6537938,
      "lng": 127.0621293,
      "phone": "02-2289-6720",
      "dong": "상계동"
    },
    {
      "naverPlaceId": "21185734",
      "name": "노외공영주차장",
      "address": "서울특별시 노원구 중계동 508-1",
      "roadAddress": "",
      "lat": 37.6400207,
      "lng": 127.0678309,
      "phone": "",
      "dong": "중계동"
    },
    {
      "naverPlaceId": "21185873",
      "name": "노상공영주차장",
      "address": "서울특별시 노원구 상계동 765",
      "roadAddress": "서울특별시 노원구 동일로213길 21",
      "lat": 37.6482947,
      "lng": 127.0617485,
      "phone": "",
      "dong": "상계동"
    },
    {
      "naverPlaceId": "462420372",
      "name": "상계역공영주차장",
      "address": "서울특별시 노원구 상계동 169-409",
      "roadAddress": "서울특별시 노원구 상계로23다길 49",
      "lat": 37.6600557,
      "lng": 127.0710459,
      "phone": "",
      "dong": "상계동"
    },
    {
      "naverPlaceId": "35824658",
      "name": "당고개아래 공영 주차장",
      "address": "서울특별시 노원구 상계동 65-41",
      "roadAddress": "서울특별시 노원구 상계로 307-3",
      "lat": 37.6687411,
      "lng": 127.0778095,
      "phone": "02-930-0853",
      "dong": "상계동"
    },
    {
      "naverPlaceId": "1121144957",
      "name": "상계중앙시장공영주차장",
      "address": "서울특별시 노원구 상계동 169-159",
      "roadAddress": "",
      "lat": 37.658613,
      "lng": 127.0698986,
      "phone": "",
      "dong": "상계동"
    },
    {
      "naverPlaceId": "2068742486",
      "name": "수락산공영주차장",
      "address": "서울특별시 노원구 상계동 산155-20",
      "roadAddress": "",
      "lat": 37.6784253,
      "lng": 127.0887633,
      "phone": "02-931-3952",
      "dong": "상계동"
    },
    {
      "naverPlaceId": "1467553866",
      "name": "수락산디자인공영주차장",
      "address": "서울특별시 노원구 상계1동 1120-1",
      "roadAddress": "서울특별시 노원구 동일로242길 17",
      "lat": 37.6757737,
      "lng": 127.0565134,
      "phone": "",
      "dong": ""
    },
    {
      "naverPlaceId": "35824659",
      "name": "당고개위 노상 공영 주차장",
      "address": "서울특별시 노원구 상계동 111-567",
      "roadAddress": "",
      "lat": 37.6705873,
      "lng": 127.0804553,
      "phone": "070-7119-0064",
      "dong": "상계동"
    },
    {
      "naverPlaceId": "36010817",
      "name": "주공7단지 노상 공영 주차장",
      "address": "서울특별시 노원구 상계10동 693-5",
      "roadAddress": "",
      "lat": 37.6562772,
      "lng": 127.0609697,
      "phone": "02-2289-6720",
      "dong": ""
    },
    {
      "naverPlaceId": "36010811",
      "name": "주공12단지 노상 공영 주차장",
      "address": "서울특별시 노원구 상계동 647-1",
      "roadAddress": "",
      "lat": 37.6670275,
      "lng": 127.0578392,
      "phone": "02-2289-6720",
      "dong": "상계동"
    },
    {
      "naverPlaceId": "37416205",
      "name": "주공3단지 노상 공영 주차장",
      "address": "서울특별시 노원구 상계동 736",
      "roadAddress": "서울특별시 노원구 동일로215길 48",
      "lat": 37.6531935,
      "lng": 127.0594404,
      "phone": "02-2289-6720",
      "dong": "상계동"
    },
    {
      "naverPlaceId": "36010810",
      "name": "구청사주변노상공영주차장",
      "address": "서울특별시 노원구 상계동 739-2",
      "roadAddress": "",
      "lat": 37.6540983,
      "lng": 127.0560624,
      "phone": "02-2289-6720",
      "dong": "상계동"
    },
    {
      "naverPlaceId": "1346112455",
      "name": "상계주공3단지공영주차장",
      "address": "서울특별시 노원구 상계동",
      "roadAddress": "",
      "lat": 37.6799173,
      "lng": 127.0548745,
      "phone": "",
      "dong": "상계동"
    },
    {
      "naverPlaceId": "36010806",
      "name": "동막골공영주차장",
      "address": "서울특별시 노원구 상계동 32",
      "roadAddress": "서울특별시 노원구 덕릉로 897",
      "lat": 37.6752851,
      "lng": 127.0860607,
      "phone": "",
      "dong": "상계동"
    },
    {
      "naverPlaceId": "21186068",
      "name": "상계주공11단지공영주차장",
      "address": "서울특별시 노원구 상계동 656",
      "roadAddress": "서울특별시 노원구 동일로227길 85",
      "lat": 37.6650268,
      "lng": 127.0570693,
      "phone": "02-2289-6720",
      "dong": "상계동"
    },
    {
      "naverPlaceId": "21185559",
      "name": "월계역환승주차장",
      "address": "서울특별시 노원구 월계동 320-1",
      "roadAddress": "",
      "lat": 37.6347794,
      "lng": 127.0591741,
      "phone": "",
      "dong": "월계동"
    },
    {
      "naverPlaceId": "1551678534",
      "name": "초안산수국동산 공영 주차장",
      "address": "서울특별시 노원구 월계동 798-3",
      "roadAddress": "",
      "lat": 37.6292585,
      "lng": 127.046765,
      "phone": "",
      "dong": "월계동"
    },
    {
      "naverPlaceId": "1908800912",
      "name": "석계역공영주차장 전기차충전소",
      "address": "서울특별시 노원구 월계동 50-9",
      "roadAddress": "",
      "lat": 37.6152846,
      "lng": 127.0626771,
      "phone": "1533-0702",
      "dong": "월계동"
    },
    {
      "naverPlaceId": "1443733117",
      "name": "석계역 공영주차장",
      "address": "서울특별시 노원구 월계동 64-2 석계역 공영주차장",
      "roadAddress": "서울특별시 노원구 석계로8가길 7 석계역 공영주차장",
      "lat": 37.6163833,
      "lng": 127.064641,
      "phone": "",
      "dong": "월계동"
    },
    {
      "naverPlaceId": "1171888249",
      "name": "석계역 공영주차장(석계역 앞) 전기차충전소",
      "address": "서울특별시 노원구 월계동 36-5",
      "roadAddress": "서울특별시 노원구 화랑로 337-8",
      "lat": 37.6163898,
      "lng": 127.0649607,
      "phone": "02-2640-5199",
      "dong": "월계동"
    },
    {
      "naverPlaceId": "1304286155",
      "name": "석계역 공영주차장(문화공원 옆) 전기차충전소",
      "address": "서울특별시 노원구 월계동 50-9",
      "roadAddress": "",
      "lat": 37.6152826,
      "lng": 127.063156,
      "phone": "02-2640-5199",
      "dong": "월계동"
    },
    {
      "naverPlaceId": "1447112227",
      "name": "쏘카 문화공원 옆 석계역 공영주차장",
      "address": "서울특별시 노원구 월계동 50-9",
      "roadAddress": "",
      "lat": 37.615163,
      "lng": 127.063269,
      "phone": "1661-8838",
      "dong": "월계동"
    },
    {
      "naverPlaceId": "1774291327",
      "name": "피플카 석계역 1번출구(석계역 공영주차장)",
      "address": "서울특별시 노원구 월계동 68-18",
      "roadAddress": "서울특별시 노원구 석계로9길 66",
      "lat": 37.6152951,
      "lng": 127.0629656,
      "phone": "",
      "dong": "월계동"
    },
    {
      "naverPlaceId": "1337040072",
      "name": "석계역공영주차장입구",
      "address": "서울특별시 노원구 월계동",
      "roadAddress": "",
      "lat": 37.6153523,
      "lng": 127.0634428,
      "phone": "",
      "dong": "월계동"
    },
    {
      "naverPlaceId": "18636131",
      "name": "석계역 공영 주차장입구",
      "address": "서울특별시 노원구 월계동",
      "roadAddress": "서울특별시 노원구",
      "lat": 37.6167764,
      "lng": 127.0646623,
      "phone": "",
      "dong": "월계동"
    },
    {
      "naverPlaceId": "1721069573",
      "name": "신한증권옆 공영주차장",
      "address": "서울특별시 노원구 중계동 366-14",
      "roadAddress": "서울특별시 노원구 중계로18길 13",
      "lat": 37.6513136,
      "lng": 127.0778636,
      "phone": "",
      "dong": "중계동"
    },
    {
      "naverPlaceId": "1940286189",
      "name": "중계본동 유경백화점 노상 공영 주차장",
      "address": "서울특별시 노원구 중계본동 364-16",
      "roadAddress": "",
      "lat": 37.6502953,
      "lng": 127.0775429,
      "phone": "",
      "dong": "중계본동"
    },
    {
      "naverPlaceId": "21185777",
      "name": "청구건영 노상 공영 주차장",
      "address": "서울특별시 노원구 중계동 360-2",
      "roadAddress": "서울특별시 노원구 중계로19길 16",
      "lat": 37.6499635,
      "lng": 127.0761312,
      "phone": "02-2289-6720",
      "dong": "중계동"
    },
    {
      "naverPlaceId": "36010822",
      "name": "신한증권 노상 공영 주차장",
      "address": "서울특별시 노원구 중계동 366-12",
      "roadAddress": "",
      "lat": 37.6513062,
      "lng": 127.0774684,
      "phone": "02-2289-6720",
      "dong": "중계동"
    },
    {
      "naverPlaceId": "36010819",
      "name": "주공5단지 노상 공영 주차장",
      "address": "서울특별시 노원구 중계동 359-16",
      "roadAddress": "",
      "lat": 37.6516016,
      "lng": 127.0764033,
      "phone": "02-2289-6720",
      "dong": "중계동"
    },
    {
      "naverPlaceId": "21186019",
      "name": "주공5단지옆공영주차장",
      "address": "서울특별시 노원구 중계동 359-16",
      "roadAddress": "",
      "lat": 37.652031,
      "lng": 127.0767845,
      "phone": "",
      "dong": "중계동"
    },
    {
      "naverPlaceId": "1647566157",
      "name": "유경백화점뒤 노상공영주차장",
      "address": "서울특별시 노원구 중계동 364-16",
      "roadAddress": "",
      "lat": 37.6494548,
      "lng": 127.0771799,
      "phone": "",
      "dong": "중계동"
    },
    {
      "naverPlaceId": "18653539",
      "name": "불암산공영주차장입구",
      "address": "서울특별시 노원구 중계동",
      "roadAddress": "",
      "lat": 37.661577,
      "lng": 127.0787377,
      "phone": "",
      "dong": "중계동"
    },
    {
      "naverPlaceId": "18652647",
      "name": "중계문화공원주차장입구",
      "address": "서울특별시 노원구 중계동",
      "roadAddress": "서울특별시 노원구",
      "lat": 37.6389206,
      "lng": 127.0653704,
      "phone": "",
      "dong": "중계동"
    },
    {
      "naverPlaceId": "1135677483",
      "name": "불암산 공영주차장",
      "address": "서울특별시 노원구 중계동 산26 26 불암산 공영주차장",
      "roadAddress": "서울특별시 노원구 덕릉로94길 73 26 불암산 공영주차장",
      "lat": 37.6619752,
      "lng": 127.0794611,
      "phone": "",
      "dong": "중계동"
    },
    {
      "naverPlaceId": "1670135767",
      "name": "건영백화점 앞 공영주차장",
      "address": "서울특별시 노원구 중계동 507 건영백화점 앞 공영주차장",
      "roadAddress": "서울특별시 노원구 동일로203가길 2-2 건영백화점 앞 공영주차장",
      "lat": 37.6395731,
      "lng": 127.0651808,
      "phone": "",
      "dong": "중계동"
    },
    {
      "naverPlaceId": "1558996597",
      "name": "주공5단지옆 공영주차장",
      "address": "서울특별시 노원구 중계동 359-10 주공5단지옆 공영주차장",
      "roadAddress": "서울특별시 노원구 한글비석로 265 주공5단지옆 공영주차장",
      "lat": 37.6514602,
      "lng": 127.076574,
      "phone": "",
      "dong": "중계동"
    },
    {
      "naverPlaceId": "36691408",
      "name": "쏘카 중계근린공원 공영주차장",
      "address": "서울특별시 노원구 중계2.3동 507",
      "roadAddress": "서울특별시 노원구 동일로203가길 2-2",
      "lat": 37.640308,
      "lng": 127.064828,
      "phone": "1661-8838",
      "dong": ""
    },
    {
      "naverPlaceId": "36010818",
      "name": "한신동성 노상 공영 주차장",
      "address": "서울특별시 노원구 하계동 256-7",
      "roadAddress": "",
      "lat": 37.6403073,
      "lng": 127.0737471,
      "phone": "02-2289-6720",
      "dong": "하계동"
    },
    {
      "naverPlaceId": "1687192329",
      "name": "한글비 공영주차장",
      "address": "서울특별시 노원구 하계동 256 한글비 공영주차장",
      "roadAddress": "서울특별시 노원구 노원로16길 82 한글비 공영주차장",
      "lat": 37.6441513,
      "lng": 127.0747544,
      "phone": "",
      "dong": "하계동"
    },
    {
      "naverPlaceId": "1532795320",
      "name": "한신동성아파트옆 공영주차장",
      "address": "서울특별시 노원구 하계동 256-15 한신동성아파트옆 공영주차장",
      "roadAddress": "서울특별시 노원구 노원로 254 한신동성아파트옆 공영주차장",
      "lat": 37.6402013,
      "lng": 127.0735528,
      "phone": "",
      "dong": "하계동"
    },
    {
      "naverPlaceId": "1041443710",
      "name": "가재울 공영 주차장입구",
      "address": "서울특별시 노원구 하계동",
      "roadAddress": "",
      "lat": 37.6378753,
      "lng": 127.0731731,
      "phone": "",
      "dong": "하계동"
    },
    {
      "naverPlaceId": "1236711665",
      "name": "한글비 공영 주차장입구",
      "address": "서울특별시 노원구 하계동",
      "roadAddress": "",
      "lat": 37.6441971,
      "lng": 127.0762753,
      "phone": "",
      "dong": "하계동"
    }
  ],
  "sido": "서울특별시",
  "sigungu": "노원구",
  "totalCount": 62,
  "source": "naver-map",
  "scrapedAt": "2026-02-10"
}