{
  "items": [
    {
      "naverPlaceId": "35977139",
      "name": "도봉산공영주차장",
      "address": "서울특별시 도봉구 도봉동 282-26",
      "roadAddress": "",
      "lat": 37.6875877,
      "lng": 127.0406538,
      "phone": "",
      "dong": "도봉동"
    },
    {
      "naverPlaceId": "35977138",
      "name": "창동역공영주차장",
      "address": "서울특별시 도봉구 창동 330-4",
      "roadAddress": "서울특별시 도봉구 노해로65길 17-6",
      "lat": 37.6523442,
      "lng": 127.0459374,
      "phone": "02-2648-8292",
      "dong": "창동"
    },
    {
      "naverPlaceId": "2086265467",
      "name": "씨드큐브 창동 공영주차장",
      "address": "서울특별시 도봉구 창동 1-9",
      "roadAddress": "",
      "lat": 37.654415,
      "lng": 127.0490697,
      "phone": "",
      "dong": "창동"
    },
    {
      "naverPlaceId": "1649968726",
      "name": "창동역 동측공영주차장",
      "address": "서울특별시 도봉구 창동 1-9",
      "roadAddress": "",
      "lat": 37.654415,
      "lng": 127.0490697,
      "phone": "",
      "dong": "창동"
    },
    {
      "naverPlaceId": "18633659",
      "name": "도봉산역환승주차장",
      "address": "서울특별시 도봉구 도봉동 288-19",
      "roadAddress": "서울특별시 도봉구 도봉로 955",
      "lat": 37.6894903,
      "lng": 127.0450279,
      "phone": "",
      "dong": "도봉동"
    },
    {
      "naverPlaceId": "21186198",
      "name": "공영도봉산주차장",
      "address": "서울특별시 도봉구 도봉동 282-26",
      "roadAddress": "",
      "lat": 37.6876988,
      "lng": 127.04077,
      "phone": "",
      "dong": "도봉동"
    },
    {
      "naverPlaceId": "37060268",
      "name": "도봉산역 공영 주차장",
      "address": "서울특별시 도봉구 도봉동 288-1",
      "roadAddress": "서울특별시 도봉구 도봉산4나길 43",
      "lat": 37.6897505,
      "lng": 127.0449195,
      "phone": "02-2290-6047",
      "dong": "도봉동"
    },
    {
      "naverPlaceId": "1444277281",
      "name": "쌍문2동 제5공영주차장",
      "address": "서울특별시 도봉구 쌍문동 715-2",
      "roadAddress": "서울특별시 도봉구 도봉로 621",
      "lat": 37.6600684,
      "lng": 127.0408691,
      "phone": "",
      "dong": "쌍문동"
    },
    {
      "naverPlaceId": "18002323",
      "name": "방학동도깨비시장공영주차장",
      "address": "서울특별시 도봉구 방학동 632-1",
      "roadAddress": "서울특별시 도봉구 방학로10길 51",
      "lat": 37.6645154,
      "lng": 127.0339624,
      "phone": "02-901-5100",
      "dong": "방학동"
    },
    {
      "naverPlaceId": "18630961",
      "name": "창2동 제3공영주차장",
      "address": "서울특별시 도봉구 창동 578-4",
      "roadAddress": "",
      "lat": 37.638471,
      "lng": 127.0374385,
      "phone": "",
      "dong": "창동"
    },
    {
      "naverPlaceId": "21185895",
      "name": "창2동 제4공영 주차장",
      "address": "서울특별시 도봉구 창동 582-22",
      "roadAddress": "서울특별시 도봉구 덕릉로59길 63",
      "lat": 37.6413283,
      "lng": 127.0362886,
      "phone": "",
      "dong": "창동"
    },
    {
      "naverPlaceId": "951778493",
      "name": "창1동 제1공영 주차장",
      "address": "서울특별시 도봉구 창동 657-37 창1동 제1공영주차장",
      "roadAddress": "서울특별시 도봉구 도봉로112길 43 창1동 제1공영주차장",
      "lat": 37.6471237,
      "lng": 127.03715,
      "phone": "",
      "dong": "창동"
    },
    {
      "naverPlaceId": "18625743",
      "name": "도봉구청주차장",
      "address": "서울특별시 도봉구 방학동 720 도봉구청",
      "roadAddress": "서울특별시 도봉구 마들로 656 도봉구청",
      "lat": 37.6691556,
      "lng": 127.0471865,
      "phone": "1588-5783",
      "dong": "방학동"
    },
    {
      "naverPlaceId": "18620731",
      "name": "쌍문3동 제1공영주차장",
      "address": "서울특별시 도봉구 쌍문동 143-17",
      "roadAddress": "",
      "lat": 37.650538,
      "lng": 127.0345728,
      "phone": "",
      "dong": "쌍문동"
    },
    {
      "naverPlaceId": "1228887441",
      "name": "둘리뮤지엄 공영 주차장",
      "address": "서울특별시 도봉구 쌍문동 산79 79",
      "roadAddress": "",
      "lat": 37.6540401,
      "lng": 127.0277649,
      "phone": "",
      "dong": "쌍문동"
    },
    {
      "naverPlaceId": "18624506",
      "name": "방학1동 제1공영주차장",
      "address": "서울특별시 도봉구 방학동 653-15",
      "roadAddress": "",
      "lat": 37.6693934,
      "lng": 127.0428549,
      "phone": "",
      "dong": "방학동"
    },
    {
      "naverPlaceId": "1855940569",
      "name": "창동쌍리단길상점가공영주차장",
      "address": "서울특별시 도봉구 창동 657-125",
      "roadAddress": "",
      "lat": 37.6475705,
      "lng": 127.035936,
      "phone": "",
      "dong": "창동"
    },
    {
      "naverPlaceId": "35824641",
      "name": "창동초안산 창골공영주차장",
      "address": "서울특별시 도봉구 창동 677",
      "roadAddress": "",
      "lat": 37.6490011,
      "lng": 127.0402923,
      "phone": "",
      "dong": "창동"
    },
    {
      "naverPlaceId": "1929151587",
      "name": "초안산꽃동산공영주차장",
      "address": "서울특별시 도봉구 창동 441-5",
      "roadAddress": "",
      "lat": 37.6421861,
      "lng": 127.0422502,
      "phone": "02-901-5100",
      "dong": "창동"
    },
    {
      "naverPlaceId": "18624779",
      "name": "방학1동 제2공영주차장",
      "address": "서울특별시 도봉구 방학동 684-4",
      "roadAddress": "",
      "lat": 37.6658604,
      "lng": 127.0391481,
      "phone": "",
      "dong": "방학동"
    },
    {
      "naverPlaceId": "2012053734",
      "name": "도봉2동 제5공영주차장",
      "address": "서울특별시 도봉구 도봉동 639",
      "roadAddress": "서울특별시 도봉구 도봉로170길 2",
      "lat": 37.6803629,
      "lng": 127.045764,
      "phone": "",
      "dong": "도봉동"
    },
    {
      "naverPlaceId": "1992027212",
      "name": "법조제2공영주차장",
      "address": "서울특별시 도봉구 도봉동 625-216",
      "roadAddress": "",
      "lat": 37.6742734,
      "lng": 127.0464395,
      "phone": "",
      "dong": "도봉동"
    },
    {
      "naverPlaceId": "1867516471",
      "name": "도봉2동 제2공영주차장",
      "address": "서울특별시 도봉구 도봉동 639",
      "roadAddress": "서울특별시 도봉구 도봉로170길 2",
      "lat": 37.6751967,
      "lng": 127.0449076,
      "phone": "",
      "dong": "도봉동"
    },
    {
      "naverPlaceId": "1134058151",
      "name": "화학부대 공영 주차장",
      "address": "서울특별시 도봉구 도봉동 132-2",
      "roadAddress": "",
      "lat": 37.6740799,
      "lng": 127.0416748,
      "phone": "",
      "dong": "도봉동"
    },
    {
      "naverPlaceId": "1845439544",
      "name": "도봉2동 제4공영주차장",
      "address": "서울특별시 도봉구 도봉동 639",
      "roadAddress": "서울특별시 도봉구 도봉로170길 2",
      "lat": 37.6751967,
      "lng": 127.0449076,
      "phone": "",
      "dong": "도봉동"
    },
    {
      "naverPlaceId": "2043083706",
      "name": "도봉2동 제9공영주차장",
      "address": "서울특별시 도봉구 도봉동 59-1",
      "roadAddress": "서울특별시 도봉구 도봉로 884",
      "lat": 37.6832962,
      "lng": 127.0462315,
      "phone": "",
      "dong": "도봉동"
    },
    {
      "naverPlaceId": "21185947",
      "name": "도봉1동 제1공영주차장",
      "address": "서울특별시 도봉구 도봉동 599-34",
      "roadAddress": "",
      "lat": 37.6749512,
      "lng": 127.0424625,
      "phone": "",
      "dong": "도봉동"
    },
    {
      "naverPlaceId": "18634845",
      "name": "공영도봉산주차장입구",
      "address": "서울특별시 도봉구 도봉동",
      "roadAddress": "",
      "lat": 37.6872916,
      "lng": 127.0408448,
      "phone": "",
      "dong": "도봉동"
    },
    {
      "naverPlaceId": "1349274295",
      "name": "도봉2동 제3공영주차장",
      "address": "서울특별시 도봉구 도봉동 639",
      "roadAddress": "서울특별시 도봉구 도봉로170길 2",
      "lat": 37.6751967,
      "lng": 127.0449076,
      "phone": "",
      "dong": "도봉동"
    },
    {
      "naverPlaceId": "1086600803",
      "name": "고가하부공영주차장",
      "address": "서울특별시 도봉구 도봉동 59-1",
      "roadAddress": "서울특별시 도봉구 도봉로 884",
      "lat": 37.6823706,
      "lng": 127.0461419,
      "phone": "",
      "dong": "도봉동"
    },
    {
      "naverPlaceId": "1113102125",
      "name": "도봉1동4자투리 공영 주차장",
      "address": "서울특별시 도봉구 도봉동 564-20",
      "roadAddress": "",
      "lat": 37.6821493,
      "lng": 127.0449616,
      "phone": "",
      "dong": "도봉동"
    },
    {
      "naverPlaceId": "1960969871",
      "name": "도봉2동 법조타운 공영 주차장",
      "address": "서울특별시 도봉구 도봉동 637-79",
      "roadAddress": "",
      "lat": 37.6740713,
      "lng": 127.046418,
      "phone": "",
      "dong": "도봉동"
    },
    {
      "naverPlaceId": "1325766773",
      "name": "법조제1공영주차장",
      "address": "서울특별시 도봉구 도봉동 624-106",
      "roadAddress": "",
      "lat": 37.6738765,
      "lng": 127.0465065,
      "phone": "",
      "dong": "도봉동"
    },
    {
      "naverPlaceId": "35824632",
      "name": "도봉견인보관소 공영 주차장",
      "address": "서울특별시 도봉구 도봉동 625-144",
      "roadAddress": "서울특별시 도봉구 도봉로152가길 114",
      "lat": 37.6746386,
      "lng": 127.0451218,
      "phone": "02-901-5100",
      "dong": "도봉동"
    },
    {
      "naverPlaceId": "1422004399",
      "name": "도봉2동제1자투리땅공영주차장",
      "address": "서울특별시 도봉구 도봉동 625-51",
      "roadAddress": "",
      "lat": 37.6748471,
      "lng": 127.0462716,
      "phone": "",
      "dong": "도봉동"
    },
    {
      "naverPlaceId": "2071245962",
      "name": "도봉1동 제3공영주차장",
      "address": "서울특별시 도봉구 도봉동 470-4",
      "roadAddress": "",
      "lat": 37.6780712,
      "lng": 127.0358675,
      "phone": "",
      "dong": "도봉동"
    },
    {
      "naverPlaceId": "18625175",
      "name": "도봉월드상가공영주차장",
      "address": "서울특별시 도봉구 방학동 720-35",
      "roadAddress": "",
      "lat": 37.6681997,
      "lng": 127.0470066,
      "phone": "",
      "dong": "방학동"
    },
    {
      "naverPlaceId": "21185649",
      "name": "방학2동 제4공영주차장",
      "address": "서울특별시 도봉구 방학동 600-13",
      "roadAddress": "",
      "lat": 37.6699513,
      "lng": 127.037325,
      "phone": "02-901-5000",
      "dong": "방학동"
    },
    {
      "naverPlaceId": "1893421862",
      "name": "방학2동5공영주차장",
      "address": "서울특별시 도봉구 방학동 599-7",
      "roadAddress": "",
      "lat": 37.670946,
      "lng": 127.0393211,
      "phone": "",
      "dong": "방학동"
    },
    {
      "naverPlaceId": "2009593013",
      "name": "방학2동 제7공영주차장",
      "address": "서울특별시 도봉구 방학2동 661-6",
      "roadAddress": "",
      "lat": 37.6654788,
      "lng": 127.0362547,
      "phone": "",
      "dong": ""
    },
    {
      "naverPlaceId": "21186018",
      "name": "방학2동 제2공영주차장",
      "address": "서울특별시 도봉구 방학동 632-14",
      "roadAddress": "",
      "lat": 37.6656761,
      "lng": 127.0334631,
      "phone": "",
      "dong": "방학동"
    },
    {
      "naverPlaceId": "1237257126",
      "name": "방학3동 연산군묘 주차장",
      "address": "서울특별시 도봉구 방학동 465-2",
      "roadAddress": "",
      "lat": 37.6612619,
      "lng": 127.023734,
      "phone": "",
      "dong": "방학동"
    },
    {
      "naverPlaceId": "1937448385",
      "name": "간송옛집 공영주차장",
      "address": "서울특별시 도봉구 방학동 산58-13",
      "roadAddress": "",
      "lat": 37.665208,
      "lng": 127.0273904,
      "phone": "",
      "dong": "방학동"
    },
    {
      "naverPlaceId": "21185868",
      "name": "방학2동 제1공영주차장",
      "address": "서울특별시 도봉구 방학동 629-12",
      "roadAddress": "",
      "lat": 37.6672591,
      "lng": 127.0346256,
      "phone": "",
      "dong": "방학동"
    },
    {
      "naverPlaceId": "1600847310",
      "name": "방학2동 제3공영주차장",
      "address": "서울특별시 도봉구 방학동 612-28",
      "roadAddress": "서울특별시 도봉구 시루봉로15마길 13",
      "lat": 37.6681389,
      "lng": 127.0315601,
      "phone": "",
      "dong": "방학동"
    },
    {
      "naverPlaceId": "1884599445",
      "name": "방학2동 제6공영주차장",
      "address": "서울특별시 도봉구 방학동 396-25",
      "roadAddress": "",
      "lat": 37.6700415,
      "lng": 127.0324259,
      "phone": "",
      "dong": "방학동"
    },
    {
      "naverPlaceId": "18622870",
      "name": "방학동도깨비시장공영주차장",
      "address": "서울특별시 도봉구 방학동 632-1",
      "roadAddress": "서울특별시 도봉구 방학로10길 51",
      "lat": 37.664507,
      "lng": 127.0340241,
      "phone": "",
      "dong": "방학동"
    },
    {
      "naverPlaceId": "1968850850",
      "name": "연산군묘 공영주차장입구",
      "address": "서울특별시 도봉구 방학동",
      "roadAddress": "",
      "lat": 37.6612728,
      "lng": 127.0237332,
      "phone": "",
      "dong": "방학동"
    },
    {
      "naverPlaceId": "1992294518",
      "name": "쏘카 방학동도깨비시장 공영주차장",
      "address": "서울특별시 도봉구 방학동 632-1",
      "roadAddress": "서울특별시 도봉구 방학로10길 51",
      "lat": 37.664594,
      "lng": 127.033979,
      "phone": "1661-8838",
      "dong": "방학동"
    },
    {
      "naverPlaceId": "1437524306",
      "name": "도봉구 방학2동 제6공영주차장 전기차충전소",
      "address": "서울특별시 도봉구 방학동 396-25",
      "roadAddress": "",
      "lat": 37.6700389,
      "lng": 127.0324343,
      "phone": "1833-9131",
      "dong": "방학동"
    },
    {
      "naverPlaceId": "18624347",
      "name": "방학동도깨비시장공영주차장입구",
      "address": "서울특별시 도봉구 방학동",
      "roadAddress": "",
      "lat": 37.6643986,
      "lng": 127.0340875,
      "phone": "",
      "dong": "방학동"
    },
    {
      "naverPlaceId": "21187143",
      "name": "방학2동제2공영주차장입구",
      "address": "서울특별시 도봉구 방학동",
      "roadAddress": "",
      "lat": 37.6656293,
      "lng": 127.033433,
      "phone": "",
      "dong": "방학동"
    },
    {
      "naverPlaceId": "21185908",
      "name": "쌍문3동 제2공영주차장",
      "address": "서울특별시 도봉구 쌍문동 315-62",
      "roadAddress": "",
      "lat": 37.6493191,
      "lng": 127.0293515,
      "phone": "",
      "dong": "쌍문동"
    },
    {
      "naverPlaceId": "18621474",
      "name": "쌍문4동 제1공영주차장",
      "address": "서울특별시 도봉구 쌍문동 137-139",
      "roadAddress": "",
      "lat": 37.652128,
      "lng": 127.0308647,
      "phone": "",
      "dong": "쌍문동"
    },
    {
      "naverPlaceId": "2096527821",
      "name": "쌍문2동 제1공영주차장",
      "address": "서울특별시 도봉구 쌍문동 85-7",
      "roadAddress": "서울특별시 도봉구 노해로 227",
      "lat": 37.6513476,
      "lng": 127.0334903,
      "phone": "",
      "dong": "쌍문동"
    },
    {
      "naverPlaceId": "1245945903",
      "name": "둘리뮤지엄공영주차장",
      "address": "서울특별시 도봉구 쌍문동 산240-5",
      "roadAddress": "서울특별시 도봉구 시루봉로1길 6",
      "lat": 37.6524298,
      "lng": 127.0276385,
      "phone": "",
      "dong": "쌍문동"
    },
    {
      "naverPlaceId": "21186079",
      "name": "쌍문2동 제2공영주차장",
      "address": "서울특별시 도봉구 쌍문동 81-102",
      "roadAddress": "",
      "lat": 37.6532522,
      "lng": 127.0335511,
      "phone": "",
      "dong": "쌍문동"
    },
    {
      "naverPlaceId": "1561122515",
      "name": "쌍문2동 제4공영주차장",
      "address": "서울특별시 도봉구 쌍문동 708-18",
      "roadAddress": "",
      "lat": 37.661014,
      "lng": 127.0407834,
      "phone": "",
      "dong": "쌍문동"
    },
    {
      "naverPlaceId": "21185988",
      "name": "쌍문2동 제3공영주차장",
      "address": "서울특별시 도봉구 쌍문동 710-4",
      "roadAddress": "서울특별시 도봉구 도봉로139길 56-14",
      "lat": 37.6611432,
      "lng": 127.0386503,
      "phone": "",
      "dong": "쌍문동"
    },
    {
      "naverPlaceId": "1052843996",
      "name": "쌍문1동 제2공영주차장",
      "address": "서울특별시 도봉구 쌍문동 378-35",
      "roadAddress": "서울특별시 도봉구 우이천로30길 25",
      "lat": 37.6485824,
      "lng": 127.0257873,
      "phone": "",
      "dong": "쌍문동"
    },
    {
      "naverPlaceId": "18619696",
      "name": "쌍문1동 제1공영주차장",
      "address": "서울특별시 도봉구 쌍문동 460-103",
      "roadAddress": "서울특별시 도봉구 우이천로38길 94",
      "lat": 37.6531437,
      "lng": 127.0224272,
      "phone": "",
      "dong": "쌍문동"
    },
    {
      "naverPlaceId": "1060108163",
      "name": "쌍문3동 제2공영주차장 전기차충전소",
      "address": "서울특별시 도봉구 쌍문동 315-62",
      "roadAddress": "",
      "lat": 37.6493531,
      "lng": 127.0293841,
      "phone": "1661-9408",
      "dong": "쌍문동"
    },
    {
      "naverPlaceId": "1039001622",
      "name": "쌍문2동 제3공영주차장 전기차충전소",
      "address": "서울특별시 도봉구 쌍문동 710-4",
      "roadAddress": "서울특별시 도봉구 도봉로139길 56-14",
      "lat": 37.6611515,
      "lng": 127.0386875,
      "phone": "1661-9408",
      "dong": "쌍문동"
    },
    {
      "naverPlaceId": "1166016311",
      "name": "쏘카 쌍문3동 제2공영주차장",
      "address": "서울특별시 도봉구 쌍문3동 315-62",
      "roadAddress": "",
      "lat": 37.649254,
      "lng": 127.029343,
      "phone": "1661-8838",
      "dong": ""
    },
    {
      "naverPlaceId": "1577888598",
      "name": "도봉구 쌍문1동 제1공영주차장 전기차충전소",
      "address": "서울특별시 도봉구 쌍문동 460-103",
      "roadAddress": "서울특별시 도봉구 우이천로38길 94",
      "lat": 37.65314,
      "lng": 127.0224128,
      "phone": "1833-9131",
      "dong": "쌍문동"
    },
    {
      "naverPlaceId": "18622247",
      "name": "쌍문1동제1공영주차장입구",
      "address": "서울특별시 도봉구 쌍문동",
      "roadAddress": "",
      "lat": 37.6531659,
      "lng": 127.0222986,
      "phone": "",
      "dong": "쌍문동"
    },
    {
      "naverPlaceId": "1161342925",
      "name": "쏘카 쌍문2동 제3공영주차장",
      "address": "서울특별시 도봉구 쌍문2동 710-4",
      "roadAddress": "서울특별시 도봉구 도봉로139길 56-14",
      "lat": 37.661114,
      "lng": 127.038673,
      "phone": "1661-8838",
      "dong": ""
    },
    {
      "naverPlaceId": "1100553170",
      "name": "쌍문3동제2공영주차장입구",
      "address": "서울특별시 도봉구 쌍문동",
      "roadAddress": "",
      "lat": 37.6492874,
      "lng": 127.0292122,
      "phone": "",
      "dong": "쌍문동"
    },
    {
      "naverPlaceId": "1170803802",
      "name": "쌍문1동 2공영주차장 전기차충전소",
      "address": "서울특별시 도봉구 쌍문동 378-60",
      "roadAddress": "",
      "lat": 37.6485169,
      "lng": 127.02579,
      "phone": "1661-9408",
      "dong": "쌍문동"
    },
    {
      "naverPlaceId": "35873672",
      "name": "노원세무서 앞 노상 공영 주차장",
      "address": "서울특별시 도봉구 창동 24",
      "roadAddress": "",
      "lat": 37.6533807,
      "lng": 127.0521929,
      "phone": "02-901-5100",
      "dong": "창동"
    },
    {
      "naverPlaceId": "21185885",
      "name": "창3동 제1공영주차장",
      "address": "서울특별시 도봉구 창동 504-21",
      "roadAddress": "서울특별시 도봉구 우이천로4길 24-11",
      "lat": 37.633107,
      "lng": 127.0411999,
      "phone": "",
      "dong": "창동"
    },
    {
      "naverPlaceId": "21186073",
      "name": "창2동 제1공영주차장",
      "address": "서울특별시 도봉구 창동 623-42",
      "roadAddress": "",
      "lat": 37.6440071,
      "lng": 127.0372999,
      "phone": "",
      "dong": "창동"
    },
    {
      "naverPlaceId": "21185836",
      "name": "창2동 제2공영주차장",
      "address": "서울특별시 도봉구 창동 632-75",
      "roadAddress": "",
      "lat": 37.6411783,
      "lng": 127.0353137,
      "phone": "",
      "dong": "창동"
    },
    {
      "naverPlaceId": "21186024",
      "name": "창5동 제1공영주차장",
      "address": "서울특별시 도봉구 창동 305",
      "roadAddress": "서울특별시 도봉구 해등로 113",
      "lat": 37.652594,
      "lng": 127.039588,
      "phone": "",
      "dong": "창동"
    },
    {
      "naverPlaceId": "81969458",
      "name": "창동역 앞 노상 공영 주차장",
      "address": "서울특별시 도봉구 창동 23-1",
      "roadAddress": "",
      "lat": 37.6526848,
      "lng": 127.0498153,
      "phone": "",
      "dong": "창동"
    },
    {
      "naverPlaceId": "18628037",
      "name": "구청별관(구)공영주차장",
      "address": "서울특별시 도봉구 창동",
      "roadAddress": "",
      "lat": 37.6526323,
      "lng": 127.050174,
      "phone": "",
      "dong": "창동"
    },
    {
      "naverPlaceId": "36010832",
      "name": "구청별관노상공영주차장",
      "address": "서울특별시 도봉구 창동 6-1",
      "roadAddress": "서울특별시 도봉구 마들로11가길 13-6",
      "lat": 37.6525886,
      "lng": 127.0500248,
      "phone": "",
      "dong": "창동"
    },
    {
      "naverPlaceId": "1718930754",
      "name": "창동역공영주차창",
      "address": "서울특별시 도봉구 창동 9",
      "roadAddress": "서울특별시 도봉구 노해로67길 2",
      "lat": 37.6524378,
      "lng": 127.0500497,
      "phone": "",
      "dong": "창동"
    },
    {
      "naverPlaceId": "1583705905",
      "name": "그린파킹2",
      "address": "서울특별시 도봉구 창동 15",
      "roadAddress": "서울특별시 도봉구 노해로69길 14",
      "lat": 37.6531776,
      "lng": 127.0517279,
      "phone": "",
      "dong": "창동"
    }
  ],
  "sido": "서울특별시",
  "sigungu": "도봉구",
  "totalCount": 79,
  "source": "naver-map",
  "scrapedAt": "2026-02-10"
}