{
  "items": [
    {
      "naverPlaceId": "1486273671",
      "name": "서울약령시 공영주차장",
      "address": "서울특별시 동대문구 제기동 1082",
      "roadAddress": "서울특별시 동대문구 약령중앙로 26",
      "lat": 37.5805099,
      "lng": 127.03715,
      "phone": "1661-9408",
      "dong": "제기동"
    },
    {
      "naverPlaceId": "1539087148",
      "name": "정릉천복개 공영 주차장",
      "address": "서울특별시 동대문구 제기동 891-2",
      "roadAddress": "",
      "lat": 37.58003,
      "lng": 127.03505,
      "phone": "",
      "dong": "제기동"
    },
    {
      "naverPlaceId": "36003348",
      "name": "청계8가노상공영주차장",
      "address": "서울특별시 동대문구 신설동 109-2",
      "roadAddress": "",
      "lat": 37.5715668,
      "lng": 127.0249716,
      "phone": "",
      "dong": "신설동"
    },
    {
      "naverPlaceId": "35992933",
      "name": "외대주차빌딩 주차장",
      "address": "서울특별시 동대문구 이문동 306-14",
      "roadAddress": "서울특별시 동대문구 휘경로 28",
      "lat": 37.5951609,
      "lng": 127.0626942,
      "phone": "02-969-5941",
      "dong": "이문동"
    },
    {
      "naverPlaceId": "35977160",
      "name": "장안2동공영주차장",
      "address": "서울특별시 동대문구 장안2동 286-9",
      "roadAddress": "서울특별시 동대문구 답십리로65길 124-5",
      "lat": 37.5782728,
      "lng": 127.0706177,
      "phone": "02-2290-6417",
      "dong": ""
    },
    {
      "naverPlaceId": "35977144",
      "name": "신설동공영주차장",
      "address": "서울특별시 동대문구 신설동 114-29",
      "roadAddress": "서울특별시 동대문구 난계로28길 16",
      "lat": 37.5724109,
      "lng": 127.0246674,
      "phone": "02-2232-6096",
      "dong": "신설동"
    },
    {
      "naverPlaceId": "35913825",
      "name": "답십리부품상가노상공영주차장",
      "address": "서울특별시 동대문구 답십리동 952-2",
      "roadAddress": "서울특별시 동대문구 전농로4길 80",
      "lat": 37.5647243,
      "lng": 127.0588126,
      "phone": "",
      "dong": "답십리동"
    },
    {
      "naverPlaceId": "1432672528",
      "name": "덕원 공영 주차장",
      "address": "서울특별시 동대문구 장안동 458-8",
      "roadAddress": "서울특별시 동대문구 장한로6길 54",
      "lat": 37.562281,
      "lng": 127.0688329,
      "phone": "",
      "dong": "장안동"
    },
    {
      "naverPlaceId": "1558885612",
      "name": "장안1동공영주차장",
      "address": "서울특별시 동대문구 장안동 392-3",
      "roadAddress": "서울특별시 동대문구 답십리로66길 75",
      "lat": 37.5695841,
      "lng": 127.0669289,
      "phone": "",
      "dong": "장안동"
    },
    {
      "naverPlaceId": "21185842",
      "name": "회기동공영주차장",
      "address": "서울특별시 동대문구 회기동 1-1",
      "roadAddress": "서울특별시 동대문구 회기로25길 31",
      "lat": 37.5922665,
      "lng": 127.0559381,
      "phone": "",
      "dong": "회기동"
    },
    {
      "naverPlaceId": "1163735972",
      "name": "청량리시장 제3공영주차장",
      "address": "서울특별시 동대문구 제기동 620-2",
      "roadAddress": "서울특별시 동대문구 경동시장로 40",
      "lat": 37.5824408,
      "lng": 127.0406853,
      "phone": "02-2247-9664",
      "dong": "제기동"
    },
    {
      "naverPlaceId": "35913829",
      "name": "정릉천변노상공영주차장",
      "address": "서울특별시 동대문구 제기동 1205",
      "roadAddress": "",
      "lat": 37.5817156,
      "lng": 127.0355682,
      "phone": "",
      "dong": "제기동"
    },
    {
      "naverPlaceId": "21185773",
      "name": "휘경유수지공영주차장",
      "address": "서울특별시 동대문구 휘경동 7-18",
      "roadAddress": "서울특별시 동대문구 한천로 326",
      "lat": 37.588382,
      "lng": 127.0695247,
      "phone": "",
      "dong": "휘경동"
    },
    {
      "naverPlaceId": "1178957071",
      "name": "청량리시장 제1공영주차장",
      "address": "서울특별시 동대문구 제기동 849",
      "roadAddress": "",
      "lat": 37.5792542,
      "lng": 127.0411462,
      "phone": "02-2247-9664",
      "dong": "제기동"
    },
    {
      "naverPlaceId": "1077296201",
      "name": "청량리시장 제2공영주차장",
      "address": "서울특별시 동대문구 제기동 988",
      "roadAddress": "서울특별시 동대문구 경동시장로 19-1",
      "lat": 37.5807239,
      "lng": 127.0404028,
      "phone": "",
      "dong": "제기동"
    },
    {
      "naverPlaceId": "1365381207",
      "name": "견인보관소 공영 주차장",
      "address": "서울특별시 동대문구 휘경2동 348",
      "roadAddress": "서울특별시 동대문구 한천로 326",
      "lat": 37.58957,
      "lng": 127.06956,
      "phone": "",
      "dong": ""
    },
    {
      "naverPlaceId": "1409744986",
      "name": "동대문구시설관리공단",
      "address": "서울특별시 동대문구 제기동 271-48",
      "roadAddress": "서울특별시 동대문구 정릉천동로 83",
      "lat": 37.5797386,
      "lng": 127.0349578,
      "phone": "02-2247-9664",
      "dong": "제기동"
    },
    {
      "naverPlaceId": "781877945",
      "name": "신답고가 노상 공영 주차장",
      "address": "서울특별시 동대문구 답십리동 530-3",
      "roadAddress": "",
      "lat": 37.5699045,
      "lng": 127.0502698,
      "phone": "",
      "dong": "답십리동"
    },
    {
      "naverPlaceId": "1915576262",
      "name": "약령시공영주차장",
      "address": "서울특별시 동대문구 제기동 1082",
      "roadAddress": "서울특별시 동대문구 약령중앙로 26",
      "lat": 37.5805977,
      "lng": 127.0376113,
      "phone": "070-5088-2390",
      "dong": "제기동"
    },
    {
      "naverPlaceId": "35913830",
      "name": "신일피혁주변 노상 공영 주차장",
      "address": "서울특별시 동대문구 장안동 480-9",
      "roadAddress": "",
      "lat": 37.565512,
      "lng": 127.0683026,
      "phone": "02-456-2591",
      "dong": "장안동"
    },
    {
      "naverPlaceId": "1560839924",
      "name": "삼희상가 노상 공영 주차장",
      "address": "서울특별시 동대문구 답십리동 530-3",
      "roadAddress": "",
      "lat": 37.5678636,
      "lng": 127.0525159,
      "phone": "",
      "dong": "답십리동"
    },
    {
      "naverPlaceId": "1218182846",
      "name": "동대문소방서 노상공영주차장",
      "address": "서울특별시 동대문구 장안동 480-9",
      "roadAddress": "",
      "lat": 37.5636479,
      "lng": 127.0669503,
      "phone": "",
      "dong": "장안동"
    },
    {
      "naverPlaceId": "1730461103",
      "name": "중산 공영주차장",
      "address": "서울특별시 동대문구 답십리동 23-3",
      "roadAddress": "서울특별시 동대문구 답십리동 답십리로56길 89",
      "lat": 37.5686007,
      "lng": 127.0588174,
      "phone": "",
      "dong": "답십리동"
    },
    {
      "naverPlaceId": "1713591785",
      "name": "장영당길 공영주차장",
      "address": "서울특별시 동대문구 답십리동 484-45",
      "roadAddress": "서울특별시 동대문구 답십리동 천호대로71길 29",
      "lat": 37.5687875,
      "lng": 127.0530716,
      "phone": "",
      "dong": "답십리동"
    },
    {
      "naverPlaceId": "18854449",
      "name": "답십리공영주차장",
      "address": "서울특별시 동대문구 답십리동",
      "roadAddress": "",
      "lat": 37.5687505,
      "lng": 127.0529444,
      "phone": "",
      "dong": "답십리동"
    },
    {
      "naverPlaceId": "1244949555",
      "name": "동답 공영 주차장",
      "address": "서울특별시 동대문구 답십리동 908",
      "roadAddress": "",
      "lat": 37.5694684,
      "lng": 127.0636649,
      "phone": "",
      "dong": "답십리동"
    },
    {
      "naverPlaceId": "1791029575",
      "name": "중산 공영 주차장",
      "address": "서울특별시 동대문구 답십리동 23-3",
      "roadAddress": "서울특별시 동대문구 답십리동 답십리로56길 89",
      "lat": 37.5685525,
      "lng": 127.0588243,
      "phone": "",
      "dong": "답십리동"
    },
    {
      "naverPlaceId": "21185731",
      "name": "답십리5동공영주차장",
      "address": "서울특별시 동대문구 답십리동 484-45",
      "roadAddress": "서울특별시 동대문구 천호대로71길 29",
      "lat": 37.5687235,
      "lng": 127.0530536,
      "phone": "",
      "dong": "답십리동"
    },
    {
      "naverPlaceId": "18855924",
      "name": "답십리4동공영주차장",
      "address": "서울특별시 동대문구 답십리동 2-283",
      "roadAddress": "서울특별시 동대문구 한천로17길 7",
      "lat": 37.5693779,
      "lng": 127.0635006,
      "phone": "02-6926-0897",
      "dong": "답십리동"
    },
    {
      "naverPlaceId": "1162668780",
      "name": "동답 공영주차장 전기차충전소",
      "address": "서울특별시 동대문구 답십리동 2-283",
      "roadAddress": "서울특별시 동대문구 한천로17길 7",
      "lat": 37.5693925,
      "lng": 127.0636237,
      "phone": "1899-2100",
      "dong": "답십리동"
    },
    {
      "naverPlaceId": "1555925367",
      "name": "장영당길 공영주차장 한국전력 전기차충전소",
      "address": "서울특별시 동대문구 답십리동 484-45",
      "roadAddress": "서울특별시 동대문구 천호대로71길 29",
      "lat": 37.5687422,
      "lng": 127.0530509,
      "phone": "1899-2100",
      "dong": "답십리동"
    },
    {
      "naverPlaceId": "1385767005",
      "name": "중산 공영주차장 투루차저(휴맥스EV) 전기차충전소",
      "address": "서울특별시 동대문구 답십리동 23-3",
      "roadAddress": "서울특별시 동대문구 답십리로56길 89",
      "lat": 37.5687401,
      "lng": 127.0588778,
      "phone": "1800-3188",
      "dong": "답십리동"
    },
    {
      "naverPlaceId": "1377221635",
      "name": "답십리 노상공영주차장 - 가로등형 전기차충전소",
      "address": "서울특별시 동대문구 답십리동 1003-3",
      "roadAddress": "",
      "lat": 37.5722,
      "lng": 127.0559,
      "phone": "1566-1704",
      "dong": "답십리동"
    },
    {
      "naverPlaceId": "1455494597",
      "name": "장영당길 공영주차장 투루차저(휴맥스EV) 전기차충전소",
      "address": "서울특별시 동대문구 답십리동 484-45",
      "roadAddress": "서울특별시 동대문구 천호대로71길 29",
      "lat": 37.5687689,
      "lng": 127.0529765,
      "phone": "1800-3188",
      "dong": "답십리동"
    },
    {
      "naverPlaceId": "1487834413",
      "name": "중산 공영주차장입출구",
      "address": "서울특별시 동대문구 답십리동",
      "roadAddress": "서울특별시 동대문구",
      "lat": 37.5684765,
      "lng": 127.0587267,
      "phone": "",
      "dong": "답십리동"
    },
    {
      "naverPlaceId": "1655103834",
      "name": "답십리4동공영주차장입구",
      "address": "서울특별시 동대문구 답십리동",
      "roadAddress": "",
      "lat": 37.5694745,
      "lng": 127.0637088,
      "phone": "",
      "dong": "답십리동"
    },
    {
      "naverPlaceId": "21185889",
      "name": "공영주차장",
      "address": "서울특별시 동대문구 용두동 8-1",
      "roadAddress": "",
      "lat": 37.57743,
      "lng": 127.0445537,
      "phone": "",
      "dong": "용두동"
    },
    {
      "naverPlaceId": "21186016",
      "name": "용두동 청계 노상 공영 주차장",
      "address": "서울특별시 동대문구 신설동 94-4",
      "roadAddress": "서울특별시 동대문구 청계천로5길 40",
      "lat": 37.5735516,
      "lng": 127.0278538,
      "phone": "",
      "dong": "신설동"
    },
    {
      "naverPlaceId": "2147123657",
      "name": "용신동B99공영주차장",
      "address": "서울특별시 동대문구 용두동 52-51",
      "roadAddress": "",
      "lat": 37.5772477,
      "lng": 127.0365981,
      "phone": "",
      "dong": "용두동"
    },
    {
      "naverPlaceId": "35977684",
      "name": "청계8노상공영주차장",
      "address": "서울특별시 동대문구 신설동 100-21",
      "roadAddress": "",
      "lat": 37.571276,
      "lng": 127.0259679,
      "phone": "",
      "dong": "신설동"
    },
    {
      "naverPlaceId": "1987921185",
      "name": "신설동 공영주차장 전기차충전소",
      "address": "서울특별시 동대문구 신설동 114-29",
      "roadAddress": "서울특별시 동대문구 난계로28길 16",
      "lat": 37.5726089,
      "lng": 127.0243183,
      "phone": "1522-2573",
      "dong": "신설동"
    },
    {
      "naverPlaceId": "1480872734",
      "name": "신설동공영주차장입출구",
      "address": "서울특별시 동대문구 신설동",
      "roadAddress": "",
      "lat": 37.5726843,
      "lng": 127.0242971,
      "phone": "",
      "dong": "신설동"
    },
    {
      "naverPlaceId": "1758343292",
      "name": "외대앞역 주차빌딩 주차장",
      "address": "서울특별시 동대문구 이문동 306-14",
      "roadAddress": "서울특별시 동대문구 휘경로 28",
      "lat": 37.5951474,
      "lng": 127.0627524,
      "phone": "",
      "dong": "이문동"
    },
    {
      "naverPlaceId": "21183920",
      "name": "공영주차장",
      "address": "서울특별시 동대문구 이문동 184-85",
      "roadAddress": "서울특별시 동대문구 한천로 460",
      "lat": 37.6014403,
      "lng": 127.0676,
      "phone": "",
      "dong": "이문동"
    },
    {
      "naverPlaceId": "21185768",
      "name": "이경시장공영노상주차장",
      "address": "서울특별시 동대문구 이문동 86-83",
      "roadAddress": "서울특별시 동대문구 외대역동로 80-1",
      "lat": 37.5953855,
      "lng": 127.0651135,
      "phone": "",
      "dong": "이문동"
    },
    {
      "naverPlaceId": "1408823029",
      "name": "공영주차장",
      "address": "서울특별시 동대문구 이문동 85-90",
      "roadAddress": "",
      "lat": 37.5955619,
      "lng": 127.0649713,
      "phone": "",
      "dong": "이문동"
    },
    {
      "naverPlaceId": "21183950",
      "name": "공영주차장",
      "address": "서울특별시 동대문구 이문동 354-82",
      "roadAddress": "서울특별시 동대문구 외대역동로27길 85",
      "lat": 37.6003624,
      "lng": 127.0676973,
      "phone": "",
      "dong": "이문동"
    },
    {
      "naverPlaceId": "35913831",
      "name": "이경시장 옆 노상 공영 주차장",
      "address": "서울특별시 동대문구 이문동 85-90",
      "roadAddress": "",
      "lat": 37.5956728,
      "lng": 127.0650868,
      "phone": "",
      "dong": "이문동"
    },
    {
      "naverPlaceId": "1601931789",
      "name": "이경시장 노상 공영 주차장",
      "address": "서울특별시 동대문구 이문동 354-5",
      "roadAddress": "서울특별시 동대문구 외대역동로27길 85",
      "lat": 37.595461,
      "lng": 127.0650696,
      "phone": "",
      "dong": "이문동"
    },
    {
      "naverPlaceId": "1010156906",
      "name": "피플카 외대앞역 5번출구(공영주차빌딩 6층 옥외주차장)",
      "address": "서울특별시 동대문구 이문동 306-14",
      "roadAddress": "서울특별시 동대문구 휘경로 28",
      "lat": 37.5950472,
      "lng": 127.0626539,
      "phone": "",
      "dong": "이문동"
    },
    {
      "naverPlaceId": "1097308067",
      "name": "쏘카 외대앞역 공영주차빌딩 옥외주차장",
      "address": "서울특별시 동대문구 이문동 306-14",
      "roadAddress": "서울특별시 동대문구 휘경로 28",
      "lat": 37.595203,
      "lng": 127.062729,
      "phone": "1661-8838",
      "dong": "이문동"
    },
    {
      "naverPlaceId": "1899527770",
      "name": "회기동  공영 주차장",
      "address": "서울특별시 동대문구 회기동 1-1",
      "roadAddress": "서울특별시 동대문구 회기로25길 31",
      "lat": 37.5914325,
      "lng": 127.0557769,
      "phone": "",
      "dong": "회기동"
    },
    {
      "naverPlaceId": "1460553583",
      "name": "회기역 주변 노상 공영 주차장",
      "address": "서울특별시 동대문구 휘경동 255-3",
      "roadAddress": "",
      "lat": 37.5902012,
      "lng": 127.0602976,
      "phone": "",
      "dong": "휘경동"
    },
    {
      "naverPlaceId": "1319673057",
      "name": "장안동 근린 공원 지하 주차장",
      "address": "서울특별시 동대문구 장안동 300",
      "roadAddress": "서울특별시 동대문구 장한로 191",
      "lat": 37.5768136,
      "lng": 127.0718617,
      "phone": "02-2247-9664",
      "dong": "장안동"
    },
    {
      "naverPlaceId": "36010850",
      "name": "장안보성연립 노상 공영 주차장",
      "address": "서울특별시 동대문구 장안동 479-2",
      "roadAddress": "",
      "lat": 37.5661215,
      "lng": 127.065415,
      "phone": "",
      "dong": "장안동"
    },
    {
      "naverPlaceId": "1255267363",
      "name": "신일피혁 노상공영 주차장",
      "address": "서울특별시 동대문구 장안동 437-1",
      "roadAddress": "서울특별시 동대문구 장한로12길 18 장안동",
      "lat": 37.5654061,
      "lng": 127.0688651,
      "phone": "",
      "dong": "장안동"
    },
    {
      "naverPlaceId": "1752905220",
      "name": "장안2동공영주차장 안심택배함",
      "address": "서울특별시 동대문구 장안동 286-9",
      "roadAddress": "서울특별시 동대문구 답십리로65길 124-5",
      "lat": 37.5782473,
      "lng": 127.0705745,
      "phone": "",
      "dong": "장안동"
    },
    {
      "naverPlaceId": "1916866042",
      "name": "장안1동공영주차장 전기차충전소",
      "address": "서울특별시 동대문구 장안동 392-3",
      "roadAddress": "서울특별시 동대문구 답십리로66길 75",
      "lat": 37.5694305,
      "lng": 127.0669393,
      "phone": "1522-2573",
      "dong": "장안동"
    },
    {
      "naverPlaceId": "1601098101",
      "name": "장안근린공원 공영주차장 전기차충전소",
      "address": "서울특별시 동대문구 장안동 300",
      "roadAddress": "서울특별시 동대문구 장한로 191",
      "lat": 37.5770416,
      "lng": 127.0713466,
      "phone": "1800-3188",
      "dong": "장안동"
    },
    {
      "naverPlaceId": "1328448574",
      "name": "쏘카 덕원 공영주차장",
      "address": "서울특별시 동대문구 장안동 458-8 장안동주차전용빌딩 덕원 공영주차장",
      "roadAddress": "서울특별시 동대문구 장한로6길 54",
      "lat": 37.562351,
      "lng": 127.068743,
      "phone": "1661-8838",
      "dong": "장안동"
    },
    {
      "naverPlaceId": "21185792",
      "name": "전농2동공영주차장",
      "address": "서울특별시 동대문구 전농동 273-5",
      "roadAddress": "서울특별시 동대문구 전농로21길 52",
      "lat": 37.5782529,
      "lng": 127.0545189,
      "phone": "",
      "dong": "전농동"
    },
    {
      "naverPlaceId": "1892497519",
      "name": "배봉산근린공원 공영 주차장",
      "address": "서울특별시 동대문구 전농동 산32-20 산 32-20",
      "roadAddress": "서울특별시 동대문구 사가정로 191-1 산 32-20",
      "lat": 37.5807312,
      "lng": 127.0643571,
      "phone": "",
      "dong": "전농동"
    },
    {
      "naverPlaceId": "1393840662",
      "name": "부군당길 공영주차장 전기차충전소",
      "address": "서울특별시 동대문구 전농동 273-5",
      "roadAddress": "서울특별시 동대문구 전농로21길 52",
      "lat": 37.5782469,
      "lng": 127.0544867,
      "phone": "1800-3188",
      "dong": "전농동"
    },
    {
      "naverPlaceId": "1198220171",
      "name": "전농2동공영주차장입구",
      "address": "서울특별시 동대문구 전농동",
      "roadAddress": "",
      "lat": 37.578279,
      "lng": 127.0547243,
      "phone": "",
      "dong": "전농동"
    },
    {
      "naverPlaceId": "1320090599",
      "name": "청량리1 노상 공영 주차장",
      "address": "서울특별시 동대문구 제기동 849",
      "roadAddress": "",
      "lat": 37.5793302,
      "lng": 127.0411067,
      "phone": "",
      "dong": "제기동"
    },
    {
      "naverPlaceId": "36010849",
      "name": "동서시장과일채소주변노상공영주차장",
      "address": "서울특별시 동대문구 제기동 849",
      "roadAddress": "",
      "lat": 37.5807527,
      "lng": 127.0405495,
      "phone": "",
      "dong": "제기동"
    },
    {
      "naverPlaceId": "1906176206",
      "name": "정화여상 노상 공영 주차장",
      "address": "서울특별시 동대문구 제기동 854-1",
      "roadAddress": "",
      "lat": 37.5857454,
      "lng": 127.0403659,
      "phone": "",
      "dong": "제기동"
    },
    {
      "naverPlaceId": "37650258",
      "name": "동서시장노상공영주차장",
      "address": "서울특별시 동대문구 제기동 620-29",
      "roadAddress": "",
      "lat": 37.582042,
      "lng": 127.0405828,
      "phone": "02-962-5670",
      "dong": "제기동"
    },
    {
      "naverPlaceId": "1817704439",
      "name": "약령시 공영주차장 전기차충전소",
      "address": "서울특별시 동대문구 제기동 1082",
      "roadAddress": "서울특별시 동대문구 약령중앙로 26",
      "lat": 37.5806004,
      "lng": 127.0375866,
      "phone": "1800-3188",
      "dong": "제기동"
    },
    {
      "naverPlaceId": "1991855414",
      "name": "정릉천변 노상공영주차장 전기차충전소",
      "address": "서울특별시 동대문구 제기동 1205",
      "roadAddress": "",
      "lat": 37.5836331,
      "lng": 127.0361045,
      "phone": "02-2640-5199",
      "dong": "제기동"
    },
    {
      "naverPlaceId": "1357109368",
      "name": "약령시공영주차장입출구",
      "address": "서울특별시 동대문구 제기동",
      "roadAddress": "",
      "lat": 37.5804955,
      "lng": 127.037845,
      "phone": "",
      "dong": "제기동"
    },
    {
      "naverPlaceId": "20831417",
      "name": "정릉천복개 공영 주차장입출구",
      "address": "서울특별시 동대문구 제기동",
      "roadAddress": "서울특별시 동대문구",
      "lat": 37.5797908,
      "lng": 127.0350222,
      "phone": "",
      "dong": "제기동"
    },
    {
      "naverPlaceId": "1213037010",
      "name": "제기서울한방진흥센터공영 지하주차장 1,2,3층 대피소",
      "address": "서울특별시 동대문구 제기동 1082",
      "roadAddress": "서울특별시 동대문구 약령중앙로 26",
      "lat": 37.5806116,
      "lng": 127.0372098,
      "phone": "",
      "dong": "제기동"
    },
    {
      "naverPlaceId": "1147831395",
      "name": "공영노상주차장",
      "address": "서울특별시 동대문구 제기동 1204",
      "roadAddress": "서울특별시 동대문구 정릉천동로 107 제기동",
      "lat": 37.5819231,
      "lng": 127.0355526,
      "phone": "",
      "dong": "제기동"
    },
    {
      "naverPlaceId": "1968323094",
      "name": "청량리동 주차장",
      "address": "서울특별시 동대문구 청량리동 435",
      "roadAddress": "서울특별시 동대문구 홍릉로12길 18",
      "lat": 37.5854563,
      "lng": 127.0445318,
      "phone": "",
      "dong": "청량리동"
    },
    {
      "naverPlaceId": "18866650",
      "name": "휘경마을공영주차장",
      "address": "서울특별시 동대문구 휘경동 308-32 휘경마을공영주차장",
      "roadAddress": "서울특별시 동대문구 망우로12길 33 휘경마을공영주차장",
      "lat": 37.5881677,
      "lng": 127.0580466,
      "phone": "",
      "dong": "휘경동"
    },
    {
      "naverPlaceId": "1167357823",
      "name": "회기동공영주차장 안심택배함",
      "address": "서울특별시 동대문구 회기동 1-1",
      "roadAddress": "서울특별시 동대문구 회기로25길 31 서울청량초등학교",
      "lat": 37.5914034,
      "lng": 127.055822,
      "phone": "",
      "dong": "회기동"
    },
    {
      "naverPlaceId": "1207025776",
      "name": "회기동 공영주차장 전기차충전소",
      "address": "서울특별시 동대문구 회기동 1-1",
      "roadAddress": "서울특별시 동대문구 회기로25길 31",
      "lat": 37.591342,
      "lng": 127.055959,
      "phone": "1899-2100",
      "dong": "회기동"
    },
    {
      "naverPlaceId": "36010846",
      "name": "회기역주변노상공영주차장",
      "address": "서울특별시 동대문구 휘경동 255-3",
      "roadAddress": "",
      "lat": 37.590407,
      "lng": 127.0621362,
      "phone": "02-2247-9665",
      "dong": "휘경동"
    },
    {
      "naverPlaceId": "1855465119",
      "name": "휘경1동35공영주차장",
      "address": "서울특별시 동대문구 휘경동 165-1",
      "roadAddress": "서울특별시 동대문구",
      "lat": 37.5948135,
      "lng": 127.0630054,
      "phone": "02-2247-9664",
      "dong": "휘경동"
    },
    {
      "naverPlaceId": "1173829264",
      "name": "배봉공영주차장",
      "address": "서울특별시 동대문구 휘경동 286-66 휘경중학교",
      "roadAddress": "서울특별시 동대문구 망우로18나길 20 휘경중학교",
      "lat": 37.5873112,
      "lng": 127.0625335,
      "phone": "",
      "dong": "휘경동"
    },
    {
      "naverPlaceId": "1498087379",
      "name": "회기역 노상 공영 주차장",
      "address": "서울특별시 동대문구 휘경동 255-13",
      "roadAddress": "",
      "lat": 37.590338,
      "lng": 127.0607002,
      "phone": "02-2247-9664",
      "dong": "휘경동"
    },
    {
      "naverPlaceId": "466952628",
      "name": "견인차량보관소 공영 주차장",
      "address": "서울특별시 동대문구 휘경동 361",
      "roadAddress": "",
      "lat": 37.5894776,
      "lng": 127.069187,
      "phone": "",
      "dong": "휘경동"
    },
    {
      "naverPlaceId": "1878170710",
      "name": "휘경동공영주차장 안심택배함",
      "address": "서울특별시 동대문구 휘경동 308-32",
      "roadAddress": "서울특별시 동대문구 망우로12길 33",
      "lat": 37.5880325,
      "lng": 127.0581069,
      "phone": "",
      "dong": "휘경동"
    },
    {
      "naverPlaceId": "1181523455",
      "name": "휘경마을 공영주차장 전기차충전소",
      "address": "서울특별시 동대문구 휘경동 308-32",
      "roadAddress": "서울특별시 동대문구 망우로12길 33",
      "lat": 37.5880466,
      "lng": 127.0581281,
      "phone": "1800-3188",
      "dong": "휘경동"
    },
    {
      "naverPlaceId": "1201226938",
      "name": "휘경동 노외공영주차장 전기차충전소",
      "address": "서울특별시 동대문구 휘경동 146-127",
      "roadAddress": "서울특별시 동대문구",
      "lat": 37.5950298,
      "lng": 127.0630397,
      "phone": "02-2640-5199",
      "dong": "휘경동"
    },
    {
      "naverPlaceId": "1741703102",
      "name": "배봉공영주차장입구",
      "address": "서울특별시 동대문구 휘경동",
      "roadAddress": "",
      "lat": 37.5874701,
      "lng": 127.0625098,
      "phone": "",
      "dong": "휘경동"
    },
    {
      "naverPlaceId": "1347419083",
      "name": "배봉공영주차장 한국전력 전기차충전소",
      "address": "서울특별시 동대문구 휘경동 286-66",
      "roadAddress": "서울특별시 동대문구 망우로18나길 20",
      "lat": 37.586908,
      "lng": 127.0620475,
      "phone": "1899-2100",
      "dong": "휘경동"
    },
    {
      "naverPlaceId": "1111004069",
      "name": "휘경유수지 공영주차장 전기차충전소",
      "address": "서울특별시 동대문구 휘경동 7-18",
      "roadAddress": "서울특별시 동대문구 한천로 326",
      "lat": 37.5883518,
      "lng": 127.0695557,
      "phone": "1800-3188",
      "dong": "휘경동"
    },
    {
      "naverPlaceId": "1381904495",
      "name": "휘경1동35공영주차장입구",
      "address": "서울특별시 동대문구 휘경동",
      "roadAddress": "서울특별시 동대문구",
      "lat": 37.594931,
      "lng": 127.0630746,
      "phone": "",
      "dong": "휘경동"
    },
    {
      "naverPlaceId": "1493471730",
      "name": "휘경마을공영주차장입출구",
      "address": "서울특별시 동대문구 휘경동",
      "roadAddress": "",
      "lat": 37.5882488,
      "lng": 127.0581272,
      "phone": "",
      "dong": "휘경동"
    },
    {
      "naverPlaceId": "1614266363",
      "name": "배봉공영주차장 서울시 전기차충전소",
      "address": "서울특별시 동대문구 휘경동 286-66",
      "roadAddress": "서울특별시 동대문구 망우로18나길 20",
      "lat": 37.5868952,
      "lng": 127.0620394,
      "phone": "02-2640-5199",
      "dong": "휘경동"
    },
    {
      "naverPlaceId": "18865821",
      "name": "휘경유수지공영주차장입구",
      "address": "서울특별시 동대문구 휘경동",
      "roadAddress": "",
      "lat": 37.5881733,
      "lng": 127.0695242,
      "phone": "",
      "dong": "휘경동"
    }
  ],
  "sido": "서울특별시",
  "sigungu": "동대문구",
  "totalCount": 93,
  "source": "naver-map",
  "scrapedAt": "2026-02-10"
}