{
  "items": [
    {
      "naverPlaceId": "19030444",
      "name": "동작주차근린공원",
      "address": "서울특별시 동작구 동작동 326",
      "roadAddress": "서울특별시 동작구 현충로 220",
      "lat": 37.5029511,
      "lng": 126.9775642,
      "phone": "",
      "dong": "동작동"
    },
    {
      "naverPlaceId": "18762134",
      "name": "동작대교노상공영주차장",
      "address": "서울특별시 동작구 동작동 316-3",
      "roadAddress": "서울특별시 동작구 동작대로 335",
      "lat": 37.5055,
      "lng": 126.980075,
      "phone": "",
      "dong": "동작동"
    },
    {
      "naverPlaceId": "1542988937",
      "name": "남성역 공영주차장",
      "address": "서울특별시 동작구 사당동 318-12",
      "roadAddress": "서울특별시 동작구 사당로 240",
      "lat": 37.4829953,
      "lng": 126.9743865,
      "phone": "",
      "dong": "사당동"
    },
    {
      "naverPlaceId": "35977149",
      "name": "보라매상업공영주차장",
      "address": "서울특별시 동작구 신대방동 431-3",
      "roadAddress": "",
      "lat": 37.4903179,
      "lng": 126.9230624,
      "phone": "02-3405-4599",
      "dong": "신대방동"
    },
    {
      "naverPlaceId": "38310668",
      "name": "빙수골 장미 공영 주차장",
      "address": "서울특별시 동작구 상도동 301-116",
      "roadAddress": "",
      "lat": 37.4933513,
      "lng": 126.9336922,
      "phone": "02-811-0983",
      "dong": "상도동"
    },
    {
      "naverPlaceId": "21185864",
      "name": "서광공영주차장",
      "address": "서울특별시 동작구 신대방동 607-45",
      "roadAddress": "서울특별시 동작구 신대방11길 32",
      "lat": 37.4888195,
      "lng": 126.9078555,
      "phone": "02-811-0983",
      "dong": "신대방동"
    },
    {
      "naverPlaceId": "19022667",
      "name": "도화공영주차장",
      "address": "서울특별시 동작구 상도동 244-50",
      "roadAddress": "서울특별시 동작구 성대로17길 52",
      "lat": 37.4999167,
      "lng": 126.935507,
      "phone": "02-811-0983",
      "dong": "상도동"
    },
    {
      "naverPlaceId": "35977155",
      "name": "신대방역 공영주차장",
      "address": "서울특별시 관악구 신림동 498",
      "roadAddress": "",
      "lat": 37.487528,
      "lng": 126.913461,
      "phone": "02-858-6417",
      "dong": "신림동"
    },
    {
      "naverPlaceId": "35992935",
      "name": "빗물펌프장 공영 주차장",
      "address": "서울특별시 동작구 흑석동 105",
      "roadAddress": "서울특별시 동작구 서달로15길 6",
      "lat": 37.5085854,
      "lng": 126.9629244,
      "phone": "02-811-0983",
      "dong": "흑석동"
    },
    {
      "naverPlaceId": "1487826706",
      "name": "사당1호 공영주차장",
      "address": "서울특별시 동작구 사당동 1042-22",
      "roadAddress": "",
      "lat": 37.4774517,
      "lng": 126.9812852,
      "phone": "",
      "dong": "사당동"
    },
    {
      "naverPlaceId": "246088160",
      "name": "대방생태 공영 주차장",
      "address": "서울특별시 동작구 대방동 395-1",
      "roadAddress": "서울특별시 동작구 대방동1길 9",
      "lat": 37.5001895,
      "lng": 126.9265778,
      "phone": "02-811-0983",
      "dong": "대방동"
    },
    {
      "naverPlaceId": "35913832",
      "name": "보라매병원앞노상공영주차장",
      "address": "서울특별시 동작구 신대방동 722",
      "roadAddress": "서울특별시 동작구 여의대방로20길 33",
      "lat": 37.491737,
      "lng": 126.9228633,
      "phone": "",
      "dong": "신대방동"
    },
    {
      "naverPlaceId": "1505948295",
      "name": "사당제2호 공영주차장",
      "address": "서울특별시 동작구 사당동 1044-15",
      "roadAddress": "서울특별시 동작구 남부순환로 2071",
      "lat": 37.476984,
      "lng": 126.9790332,
      "phone": "",
      "dong": "사당동"
    },
    {
      "naverPlaceId": "35992934",
      "name": "구릉공영주차장",
      "address": "서울특별시 동작구 신대방2동 351-14",
      "roadAddress": "",
      "lat": 37.4988196,
      "lng": 126.9274529,
      "phone": "02-811-0983",
      "dong": ""
    },
    {
      "naverPlaceId": "1897320469",
      "name": "남성사계시장공영주차장",
      "address": "서울특별시 동작구 사당동 130-23",
      "roadAddress": "서울특별시 동작구 동작대로27길 28-4",
      "lat": 37.4877579,
      "lng": 126.9801903,
      "phone": "",
      "dong": "사당동"
    },
    {
      "naverPlaceId": "1723451440",
      "name": "상도1동 주민센터 주차장",
      "address": "서울특별시 동작구 상도동 437",
      "roadAddress": "서울특별시 동작구 상도로53길 9",
      "lat": 37.498073,
      "lng": 126.9530691,
      "phone": "",
      "dong": "상도동"
    },
    {
      "naverPlaceId": "35824464",
      "name": "동작문화복지센타 주차장",
      "address": "서울특별시 동작구 상도동 176-3 동작문화복지센타",
      "roadAddress": "서울특별시 동작구 장승배기로 70 동작문화복지센타",
      "lat": 37.5043889,
      "lng": 126.9411212,
      "phone": "02-820-1217",
      "dong": "상도동"
    },
    {
      "naverPlaceId": "21185798",
      "name": "빙수골거주자노외주차장",
      "address": "서울특별시 동작구 상도동 299-16",
      "roadAddress": "서울특별시 동작구 국사봉12길 11",
      "lat": 37.4953658,
      "lng": 126.9319137,
      "phone": "02-832-2445",
      "dong": "상도동"
    },
    {
      "naverPlaceId": "36097001",
      "name": "서울여성플라자주차장",
      "address": "서울특별시 동작구 대방동 345-1 서울여성플라자",
      "roadAddress": "서울특별시 동작구 여의대방로54길 18 서울여성플라자",
      "lat": 37.511722,
      "lng": 126.9270012,
      "phone": "02-810-5111",
      "dong": "대방동"
    },
    {
      "naverPlaceId": "1378610506",
      "name": "대방생태공영주차장 전기차충전소",
      "address": "서울특별시 동작구 대방동 395-1 생태공영주차장",
      "roadAddress": "서울특별시 동작구 대방동1길 9 대방동생태공영주차장",
      "lat": 37.5001361,
      "lng": 126.9265092,
      "phone": "1577-1556",
      "dong": "대방동"
    },
    {
      "naverPlaceId": "1221109047",
      "name": "대방중간집하장 공영주차장 전기차충전소",
      "address": "서울특별시 동작구 대방동 67-1 대방차고쓰레기처리시설 ( 67-1)",
      "roadAddress": "서울특별시 동작구 노량진로 47 대방차고쓰레기처리시설 (대방동 67-1)",
      "lat": 37.5138842,
      "lng": 126.9309274,
      "phone": "1899-2100",
      "dong": "대방동"
    },
    {
      "naverPlaceId": "378225676",
      "name": "보라매공원공영주차장",
      "address": "서울특별시 동작구 신대방동 722 보라매공원",
      "roadAddress": "서울특별시 동작구 신대방동 여의대방로20길 25 보라매공원",
      "lat": 37.4948445,
      "lng": 126.9188725,
      "phone": "",
      "dong": "신대방동"
    },
    {
      "naverPlaceId": "36010853",
      "name": "동작주차공원공영주차장",
      "address": "서울특별시 동작구 동작동 326 9호선 동작역",
      "roadAddress": "서울특별시 동작구 현충로 213 9호선 동작역",
      "lat": 37.5038387,
      "lng": 126.9779973,
      "phone": "02-811-0983",
      "dong": "동작동"
    },
    {
      "naverPlaceId": "21186149",
      "name": "까치산공영주차장",
      "address": "서울특별시 동작구 사당동",
      "roadAddress": "",
      "lat": 37.4839888,
      "lng": 126.9674815,
      "phone": "",
      "dong": "사당동"
    },
    {
      "naverPlaceId": "21185568",
      "name": "동작역환승주차장",
      "address": "서울특별시 동작구 동작동 326",
      "roadAddress": "서울특별시 동작구 현충로 213",
      "lat": 37.5038943,
      "lng": 126.9771282,
      "phone": "",
      "dong": "동작동"
    },
    {
      "naverPlaceId": "21186186",
      "name": "은행나무골공영주차장",
      "address": "서울특별시 동작구 사당동 297-1",
      "roadAddress": "",
      "lat": 37.4810512,
      "lng": 126.9715318,
      "phone": "",
      "dong": "사당동"
    },
    {
      "naverPlaceId": "1061178267",
      "name": "남성사계시장 공영주차장입구",
      "address": "서울특별시 동작구 사당동",
      "roadAddress": "",
      "lat": 37.4875651,
      "lng": 126.9803624,
      "phone": "",
      "dong": "사당동"
    },
    {
      "naverPlaceId": "1895017974",
      "name": "동작주차공원 공영주차장 전기차충전소",
      "address": "서울특별시 동작구 동작동 326",
      "roadAddress": "서울특별시 동작구 현충로 213",
      "lat": 37.5038125,
      "lng": 126.9778615,
      "phone": "1577-1556",
      "dong": "동작동"
    },
    {
      "naverPlaceId": "1774887794",
      "name": "동작구 동작동 갯마을 공영주차장 전기차충전소",
      "address": "서울특별시 동작구 동작동 102-80",
      "roadAddress": "서울특별시 동작구 동작대로 213",
      "lat": 37.4957858,
      "lng": 126.9825347,
      "phone": "1833-9131",
      "dong": "동작동"
    },
    {
      "naverPlaceId": "1171273861",
      "name": "사당제2호 공영주차장입구",
      "address": "서울특별시 동작구 사당동",
      "roadAddress": "",
      "lat": 37.4768601,
      "lng": 126.978892,
      "phone": "",
      "dong": "사당동"
    },
    {
      "naverPlaceId": "1789732605",
      "name": "동작갯마을 공영주차장 전기차충전소",
      "address": "서울특별시 동작구 동작동 102-80",
      "roadAddress": "서울특별시 동작구 동작대로 213",
      "lat": 37.4958259,
      "lng": 126.9825286,
      "phone": "1588-5339",
      "dong": "동작동"
    },
    {
      "naverPlaceId": "1399554478",
      "name": "사당1호 공영주차장입구",
      "address": "서울특별시 동작구 사당동",
      "roadAddress": "서울특별시 동작구",
      "lat": 37.4773416,
      "lng": 126.9811396,
      "phone": "",
      "dong": "사당동"
    },
    {
      "naverPlaceId": "19029922",
      "name": "빗물펌프장 공영 주차장입구",
      "address": "서울특별시 동작구 흑석동",
      "roadAddress": "",
      "lat": 37.5083651,
      "lng": 126.9627859,
      "phone": "",
      "dong": "흑석동"
    },
    {
      "naverPlaceId": "21185599",
      "name": "매실거주자우선주차장",
      "address": "서울특별시 동작구 상도동 335-7",
      "roadAddress": "",
      "lat": 37.5027418,
      "lng": 126.9292999,
      "phone": "",
      "dong": "상도동"
    },
    {
      "naverPlaceId": "1068532509",
      "name": "국사봉거주자우선주차장",
      "address": "서울특별시 동작구 상도동 301-176",
      "roadAddress": "",
      "lat": 37.4943029,
      "lng": 126.9333206,
      "phone": "",
      "dong": "상도동"
    },
    {
      "naverPlaceId": "1290660988",
      "name": "도화공영주차장 지하1층 대피소",
      "address": "서울특별시 동작구 상도동 244-50",
      "roadAddress": "서울특별시 동작구 성대로17길 52",
      "lat": 37.4996186,
      "lng": 126.9349703,
      "phone": "",
      "dong": "상도동"
    },
    {
      "naverPlaceId": "1199136992",
      "name": "빙수골 장미 공영 주차장입출구",
      "address": "서울특별시 동작구 상도동",
      "roadAddress": "",
      "lat": 37.4933446,
      "lng": 126.9339571,
      "phone": "",
      "dong": "상도동"
    },
    {
      "naverPlaceId": "1426702974",
      "name": "도화공영주차장입구",
      "address": "서울특별시 동작구 상도동",
      "roadAddress": "",
      "lat": 37.4996175,
      "lng": 126.9350081,
      "phone": "",
      "dong": "상도동"
    },
    {
      "naverPlaceId": "1777263143",
      "name": "상도4동 소규모공영주차장 전기차충전소",
      "address": "서울특별시 동작구 상도동 274-32 35",
      "roadAddress": "서울특별시 동작구 성대로10길 34 35",
      "lat": 37.4966455,
      "lng": 126.9357157,
      "phone": "1577-1556",
      "dong": "상도동"
    },
    {
      "naverPlaceId": "1306090460",
      "name": "빙수골 장미 공영주차장 전기차충전소",
      "address": "서울특별시 동작구 상도동 301-132",
      "roadAddress": "서울특별시 동작구 국사봉16길 28",
      "lat": 37.4933848,
      "lng": 126.9335968,
      "phone": "1577-1556",
      "dong": "상도동"
    },
    {
      "naverPlaceId": "1360022902",
      "name": "도화공영주차장입구",
      "address": "서울특별시 동작구 상도동",
      "roadAddress": "",
      "lat": 37.5000345,
      "lng": 126.9355014,
      "phone": "",
      "dong": "상도동"
    },
    {
      "naverPlaceId": "1367162430",
      "name": "빙수골 장미 공영 주차장입구",
      "address": "서울특별시 동작구 상도동",
      "roadAddress": "",
      "lat": 37.4935166,
      "lng": 126.9335923,
      "phone": "",
      "dong": "상도동"
    },
    {
      "naverPlaceId": "21185987",
      "name": "노외공영주차장",
      "address": "서울특별시 동작구 신대방동",
      "roadAddress": "",
      "lat": 37.4903178,
      "lng": 126.9230625,
      "phone": "",
      "dong": "신대방동"
    },
    {
      "naverPlaceId": "19038489",
      "name": "보라매상업공영주차장입구",
      "address": "서울특별시 동작구 신대방동",
      "roadAddress": "",
      "lat": 37.4905237,
      "lng": 126.922825,
      "phone": "",
      "dong": "신대방동"
    },
    {
      "naverPlaceId": "1958895796",
      "name": "보라매상업공영주차장 전기차충전소",
      "address": "서울특별시 동작구 신대방동 431-3",
      "roadAddress": "",
      "lat": 37.4903221,
      "lng": 126.9230041,
      "phone": "1566-1704",
      "dong": "신대방동"
    },
    {
      "naverPlaceId": "1465204001",
      "name": "보라매 공영주차장 급속 전기차충전소",
      "address": "서울특별시 동작구 신대방동 722 한전 변전소",
      "roadAddress": "서울특별시 동작구 여의대방로20마길 43 한전 변전소",
      "lat": 37.4916408,
      "lng": 126.9228102,
      "phone": "1544-3332",
      "dong": "신대방동"
    },
    {
      "naverPlaceId": "1729888151",
      "name": "피플카 보라매공원 옆 공영주차장",
      "address": "서울특별시 동작구 신대방동 431-3",
      "roadAddress": "",
      "lat": 37.4903591,
      "lng": 126.9232464,
      "phone": "",
      "dong": "신대방동"
    },
    {
      "naverPlaceId": "1942478653",
      "name": "서광공영주차장 전기차충전소",
      "address": "서울특별시 동작구 신대방동 607-45 신대방서광공영주차장",
      "roadAddress": "서울특별시 동작구 신대방11길 32 신대방서광공영주차장",
      "lat": 37.4888081,
      "lng": 126.9078629,
      "phone": "1577-1556",
      "dong": "신대방동"
    }
  ],
  "sido": "서울특별시",
  "sigungu": "동작구",
  "totalCount": 48,
  "source": "naver-map",
  "scrapedAt": "2026-02-10"
}