{
  "items": [
    {
      "naverPlaceId": "36060638",
      "name": "마포유수지공영주차장",
      "address": "서울특별시 마포구 마포대로1길 9",
      "roadAddress": "서울 마포구 마포대로1길 9 마포주차장",
      "lat": 37.5389002,
      "lng": 126.9426686,
      "phone": "02-2290-6093",
      "dong": "마포동"
    },
    {
      "naverPlaceId": "18796267",
      "name": "망원1-2공영주차장",
      "address": "서울특별시 마포구 월드컵로 131",
      "roadAddress": "서울 마포구 포은로6길 10",
      "lat": 37.5556749,
      "lng": 126.9059749,
      "phone": "",
      "dong": "망원동"
    },
    {
      "naverPlaceId": "37060270",
      "name": "경남1 노상 공영 주차장",
      "address": "서울 마포구 서교동 418",
      "roadAddress": "",
      "lat": 37.5546547,
      "lng": 126.9198679,
      "phone": "",
      "dong": "서교동"
    },
    {
      "naverPlaceId": "36010857",
      "name": "청기와2 노상공영 주차장",
      "address": "서울 마포구 서교동 467-11",
      "roadAddress": "",
      "lat": 37.554607,
      "lng": 126.9125762,
      "phone": "",
      "dong": "서교동"
    },
    {
      "naverPlaceId": "36010860",
      "name": "새물결 노상공영주차장",
      "address": "서울 마포구 동교동 192-6",
      "roadAddress": "",
      "lat": 37.5566926,
      "lng": 126.9248009,
      "phone": "",
      "dong": "동교동"
    },
    {
      "naverPlaceId": "36003402",
      "name": "합정노상공영주차장",
      "address": "서울 마포구 서교동 415",
      "roadAddress": "",
      "lat": 37.5490524,
      "lng": 126.9158397,
      "phone": "",
      "dong": "서교동"
    },
    {
      "naverPlaceId": "35992936",
      "name": "동교1 노상 공영주차장",
      "address": "서울 마포구 서교동 350-2",
      "roadAddress": "",
      "lat": 37.5557208,
      "lng": 126.9275573,
      "phone": "",
      "dong": "서교동"
    },
    {
      "naverPlaceId": "1604344223",
      "name": "동교동1 공영주차장",
      "address": "서울 마포구 와우산로29길 16",
      "roadAddress": "",
      "lat": 37.554955,
      "lng": 126.9289738,
      "phone": "",
      "dong": "서교동"
    },
    {
      "naverPlaceId": "38277405",
      "name": "청기와3 노상공영주차장",
      "address": "서울 마포구 서교동 458-12",
      "roadAddress": "",
      "lat": 37.5561635,
      "lng": 126.9148692,
      "phone": "",
      "dong": "서교동"
    },
    {
      "naverPlaceId": "1690898900",
      "name": "동교동2 공영주차장",
      "address": "서울 마포구 동교동 3-2",
      "roadAddress": "",
      "lat": 37.5551645,
      "lng": 126.9285967,
      "phone": "",
      "dong": "동교동"
    },
    {
      "naverPlaceId": "35886252",
      "name": "청기와4 노상 공영주차장",
      "address": "서울 마포구 서교동 458-12",
      "roadAddress": "",
      "lat": 37.5572498,
      "lng": 126.9140086,
      "phone": "",
      "dong": "서교동"
    },
    {
      "naverPlaceId": "1493391498",
      "name": "연남동 공영주차장",
      "address": "서울 마포구 연남로 84",
      "roadAddress": "",
      "lat": 37.5663623,
      "lng": 126.9188504,
      "phone": "",
      "dong": "연남동"
    },
    {
      "naverPlaceId": "1412725698",
      "name": "연남3 공영주차장",
      "address": "서울 마포구 연남동 229-66",
      "roadAddress": "",
      "lat": 37.5631889,
      "lng": 126.9251834,
      "phone": "",
      "dong": "연남동"
    },
    {
      "naverPlaceId": "1870324421",
      "name": "연남4 노상 공영주차장",
      "address": "서울 마포구 연남동 224-68",
      "roadAddress": "",
      "lat": 37.5638658,
      "lng": 126.9261901,
      "phone": "",
      "dong": "연남동"
    },
    {
      "naverPlaceId": "1045475120",
      "name": "신촌 공영 주차장",
      "address": "서울 마포구 노고산동 31-123",
      "roadAddress": "",
      "lat": 37.553788,
      "lng": 126.9344482,
      "phone": "",
      "dong": "노고산동"
    },
    {
      "naverPlaceId": "1318550035",
      "name": "합정1 공영주차장",
      "address": "서울 마포구 합정동 423",
      "roadAddress": "",
      "lat": 37.5483035,
      "lng": 126.9197284,
      "phone": "",
      "dong": "합정동"
    },
    {
      "naverPlaceId": "21185879",
      "name": "양화진공영주차장",
      "address": "서울 마포구 토정로 2 양화진공영주차장",
      "roadAddress": "",
      "lat": 37.5455667,
      "lng": 126.911425,
      "phone": "",
      "dong": "합정동"
    },
    {
      "naverPlaceId": "21185611",
      "name": "당인공영노상주차장",
      "address": "서울 마포구 합정동 402-1",
      "roadAddress": "",
      "lat": 37.5470171,
      "lng": 126.9178854,
      "phone": "",
      "dong": "합정동"
    },
    {
      "naverPlaceId": "1084272611",
      "name": "신수 노외 공영주차장",
      "address": "서울 마포구",
      "roadAddress": "",
      "lat": 37.550124,
      "lng": 126.9376859,
      "phone": "",
      "dong": "신수동"
    },
    {
      "naverPlaceId": "1935155280",
      "name": "마포공덕1-1공영주차장",
      "address": "서울 마포구 효창목길 31",
      "roadAddress": "",
      "lat": 37.5473501,
      "lng": 126.9609913,
      "phone": "",
      "dong": "공덕동"
    },
    {
      "naverPlaceId": "21185866",
      "name": "공덕동1-2공영주차장",
      "address": "서울 마포구 만리재로16길 20-9",
      "roadAddress": "",
      "lat": 37.549768,
      "lng": 126.9622812,
      "phone": "",
      "dong": "공덕동"
    },
    {
      "naverPlaceId": "36010861",
      "name": "창천 공영 주차장",
      "address": "서울 마포구 백범로1길 56 창천초등,중학교",
      "roadAddress": "",
      "lat": 37.5549264,
      "lng": 126.9392807,
      "phone": "",
      "dong": "노고산동"
    },
    {
      "naverPlaceId": "18767429",
      "name": "도화공영주차장",
      "address": "서울 마포구 도화길 37 도화동주민센타,도화공영주차장",
      "roadAddress": "",
      "lat": 37.5416359,
      "lng": 126.9498894,
      "phone": "",
      "dong": "도화동"
    },
    {
      "naverPlaceId": "31395426",
      "name": "염리공영주차장",
      "address": "서울 마포구 큰우물로 61",
      "roadAddress": "",
      "lat": 37.5420441,
      "lng": 126.9451635,
      "phone": "",
      "dong": "염리동"
    },
    {
      "naverPlaceId": "1199847367",
      "name": "마포공덕1-1공영주차장입구",
      "address": "서울특별시 마포구 공덕동",
      "roadAddress": "",
      "lat": 37.547313,
      "lng": 126.960822,
      "phone": "",
      "dong": "공덕동"
    },
    {
      "naverPlaceId": "1445024503",
      "name": "공덕1-1 공영주차장 전기차충전소",
      "address": "서울특별시 마포구 공덕동 11-243 공덕1-1공영주차장",
      "roadAddress": "서울특별시 마포구 효창목길 31 공덕1-1공영주차장",
      "lat": 37.5473266,
      "lng": 126.9609004,
      "phone": "",
      "dong": "공덕동"
    },
    {
      "naverPlaceId": "1552456656",
      "name": "서울마포공덕1-2공영주차장 전기차충전소",
      "address": "서울특별시 마포구 공덕동 4-64",
      "roadAddress": "서울특별시 마포구 만리재로16길 20-9",
      "lat": 37.5497356,
      "lng": 126.9622467,
      "phone": "1877-6546",
      "dong": "공덕동"
    },
    {
      "naverPlaceId": "1094175307",
      "name": "공덕동1-2공영주차장입구1",
      "address": "서울특별시 마포구 공덕동",
      "roadAddress": "",
      "lat": 37.5501056,
      "lng": 126.9625762,
      "phone": "",
      "dong": "공덕동"
    },
    {
      "naverPlaceId": "1813557593",
      "name": "공덕동1-2공영주차장입구2",
      "address": "서울특별시 마포구 공덕동",
      "roadAddress": "",
      "lat": 37.5496689,
      "lng": 126.9620792,
      "phone": "",
      "dong": "공덕동"
    },
    {
      "naverPlaceId": "1196394979",
      "name": "대흥공영주차장",
      "address": "서울특별시 마포구 대흥동 806-3",
      "roadAddress": "서울특별시 마포구 대흥로 191",
      "lat": 37.5562254,
      "lng": 126.9452109,
      "phone": "",
      "dong": "대흥동"
    },
    {
      "naverPlaceId": "2143155325",
      "name": "신수 노외 공영주차장입구",
      "address": "서울특별시 마포구 신수동",
      "roadAddress": "서울특별시 마포구",
      "lat": 37.5499713,
      "lng": 126.9377863,
      "phone": "",
      "dong": "신수동"
    },
    {
      "naverPlaceId": "2145812139",
      "name": "신수 노외 공영주차장출구",
      "address": "서울특별시 마포구 신수동",
      "roadAddress": "서울특별시 마포구",
      "lat": 37.5503109,
      "lng": 126.9373745,
      "phone": "",
      "dong": "신수동"
    },
    {
      "naverPlaceId": "1428446992",
      "name": "신촌노상공영주차장",
      "address": "서울특별시 마포구 노고산동 49-55",
      "roadAddress": "",
      "lat": 37.5547029,
      "lng": 126.9346618,
      "phone": "0503-7745-1449",
      "dong": "노고산동"
    },
    {
      "naverPlaceId": "1846889008",
      "name": "마포 신촌노외공영주차장",
      "address": "서울특별시 마포구 노고산동 49-1 49-64",
      "roadAddress": "서울특별시 마포구 신촌로 84 49-64",
      "lat": 37.5555546,
      "lng": 126.9349424,
      "phone": "1588-5783",
      "dong": "노고산동"
    },
    {
      "naverPlaceId": "1016546409",
      "name": "신촌2 노외주차장",
      "address": "서울특별시 마포구 노고산동 49-64",
      "roadAddress": "",
      "lat": 37.5537026,
      "lng": 126.9341285,
      "phone": "02-300-5051",
      "dong": "노고산동"
    },
    {
      "naverPlaceId": "36010862",
      "name": "용강1 노상 공영 주차장",
      "address": "서울특별시 마포구 용강동 45-15",
      "roadAddress": "서울특별시 마포구 토정로 278-1",
      "lat": 37.5402216,
      "lng": 126.9429389,
      "phone": "",
      "dong": "용강동"
    },
    {
      "naverPlaceId": "1833078546",
      "name": "신촌 노상 공영 주차장",
      "address": "서울특별시 마포구 노고산동 49-52",
      "roadAddress": "",
      "lat": 37.5551249,
      "lng": 126.9348313,
      "phone": "",
      "dong": "노고산동"
    },
    {
      "naverPlaceId": "21185746",
      "name": "용강공영노상주차장",
      "address": "서울특별시 마포구 용강동 45-15",
      "roadAddress": "서울특별시 마포구 토정로 278-1",
      "lat": 37.5422159,
      "lng": 126.9401475,
      "phone": "",
      "dong": "용강동"
    },
    {
      "naverPlaceId": "1148671738",
      "name": "창천공영주차장 전기차충전소",
      "address": "서울특별시 마포구 노고산동 33-1",
      "roadAddress": "서울특별시 마포구 백범로1길 56",
      "lat": 37.55493,
      "lng": 126.9389738,
      "phone": "1661-9408",
      "dong": "노고산동"
    },
    {
      "naverPlaceId": "1776483553",
      "name": "창천 공영 주차장입구",
      "address": "서울특별시 마포구 노고산동",
      "roadAddress": "",
      "lat": 37.5550493,
      "lng": 126.9386288,
      "phone": "",
      "dong": "노고산동"
    },
    {
      "naverPlaceId": "1020099937",
      "name": "창천 공영 주차장입구",
      "address": "서울특별시 마포구 노고산동",
      "roadAddress": "",
      "lat": 37.5544008,
      "lng": 126.9389125,
      "phone": "",
      "dong": "노고산동"
    },
    {
      "naverPlaceId": "1314596352",
      "name": "서울마포창천공영주차장 전기차충전소",
      "address": "서울특별시 마포구 노고산동 33-1",
      "roadAddress": "서울특별시 마포구 백범로1길 56",
      "lat": 37.5549751,
      "lng": 126.9390619,
      "phone": "1877-6546",
      "dong": "노고산동"
    },
    {
      "naverPlaceId": "1784893117",
      "name": "아현시민주차장",
      "address": "서울특별시 마포구 아현동 804-3",
      "roadAddress": "서울특별시 마포구 신촌로28길 29",
      "lat": 37.5562752,
      "lng": 126.9502958,
      "phone": "02-373-5403",
      "dong": "아현동"
    },
    {
      "naverPlaceId": "21186196",
      "name": "망원 한강공원망원1주차장",
      "address": "서울특별시 마포구 합정동 352-5",
      "roadAddress": "",
      "lat": 37.5451239,
      "lng": 126.9098979,
      "phone": "",
      "dong": "합정동"
    },
    {
      "naverPlaceId": "1175115271",
      "name": "당인공영주차장",
      "address": "서울특별시 마포구 합정동 402-1",
      "roadAddress": "",
      "lat": 37.5463179,
      "lng": 126.9177184,
      "phone": "",
      "dong": "합정동"
    },
    {
      "naverPlaceId": "1919064540",
      "name": "대흥 공영 주차장",
      "address": "서울특별시 마포구 대흥동 806-3",
      "roadAddress": "서울특별시 마포구 대흥로 191",
      "lat": 37.5562014,
      "lng": 126.9452854,
      "phone": "",
      "dong": "대흥동"
    },
    {
      "naverPlaceId": "2073073443",
      "name": "마포대흥2구역공영주차장",
      "address": "서울특별시 마포구 대흥동 73-15",
      "roadAddress": "",
      "lat": 37.556089,
      "lng": 126.9450977,
      "phone": "",
      "dong": "대흥동"
    },
    {
      "naverPlaceId": "1058301609",
      "name": "대흥공영주차장입출구",
      "address": "서울특별시 마포구 대흥동",
      "roadAddress": "",
      "lat": 37.5560937,
      "lng": 126.9453927,
      "phone": "",
      "dong": "대흥동"
    },
    {
      "naverPlaceId": "1835148571",
      "name": "마포 소금나루공영주차장",
      "address": "서울특별시 마포구 염리동 533-11",
      "roadAddress": "서울특별시 마포구 숭문길 72",
      "lat": 37.5496554,
      "lng": 126.9461077,
      "phone": "02-300-5047",
      "dong": "염리동"
    },
    {
      "naverPlaceId": "1694799571",
      "name": "마포공영주차장",
      "address": "서울특별시 마포구 염리동 533-11 소금나루도서관",
      "roadAddress": "서울특별시 마포구 숭문길 72 소금나루도서관",
      "lat": 37.5496359,
      "lng": 126.9460661,
      "phone": "",
      "dong": "염리동"
    },
    {
      "naverPlaceId": "21185745",
      "name": "용강공영노상주차장",
      "address": "서울특별시 마포구 용강동 45-15",
      "roadAddress": "서울특별시 마포구 토정로 278-1",
      "lat": 37.5396445,
      "lng": 126.9440721,
      "phone": "",
      "dong": "용강동"
    },
    {
      "naverPlaceId": "2143541042",
      "name": "공덕효성해링턴스퀘어공영주차장",
      "address": "서울특별시 마포구 도화동 25-13",
      "roadAddress": "서울특별시 마포구 마포대로 92 효성 해링턴 스퀘어",
      "lat": 37.5430224,
      "lng": 126.9511933,
      "phone": "",
      "dong": "도화동"
    },
    {
      "naverPlaceId": "37594742",
      "name": "도화공영주차장입구",
      "address": "서울특별시 마포구 도화동",
      "roadAddress": "",
      "lat": 37.5417561,
      "lng": 126.9498801,
      "phone": "",
      "dong": "도화동"
    },
    {
      "naverPlaceId": "18769761",
      "name": "마포유수지공영주차장입구",
      "address": "서울특별시 마포구 마포동",
      "roadAddress": "",
      "lat": 37.5395136,
      "lng": 126.9422275,
      "phone": "",
      "dong": "마포동"
    },
    {
      "naverPlaceId": "21186832",
      "name": "마포유수지공영주차장입구",
      "address": "서울특별시 마포구 마포동",
      "roadAddress": "",
      "lat": 37.5390287,
      "lng": 126.9437791,
      "phone": "",
      "dong": "마포동"
    },
    {
      "naverPlaceId": "1848220945",
      "name": "마포유수지공영주차장 전기차충전소",
      "address": "서울특별시 마포구 마포동 36-1",
      "roadAddress": "서울특별시 마포구 마포대로1길 19",
      "lat": 37.5383406,
      "lng": 126.9431131,
      "phone": "1522-1782",
      "dong": "마포동"
    },
    {
      "naverPlaceId": "188709072",
      "name": "G car zone 마포 공영주차장",
      "address": "서울특별시 마포구 마포동 36-1",
      "roadAddress": "서울특별시 마포구 마포대로1길 9",
      "lat": 37.5396145,
      "lng": 126.94261,
      "phone": "1899-1313",
      "dong": "마포동"
    },
    {
      "naverPlaceId": "1212256022",
      "name": "마포유수지 공영주차장 채비 전기차충전소",
      "address": "서울특별시 마포구 마포동 36-1",
      "roadAddress": "서울특별시 마포구 마포대로1길 9",
      "lat": 37.5394728,
      "lng": 126.9431379,
      "phone": "1522-2573",
      "dong": "마포동"
    },
    {
      "naverPlaceId": "1848232888",
      "name": "마포유수지 공영주차장 서울시 전기차충전소",
      "address": "서울특별시 마포구 마포동 36-1",
      "roadAddress": "서울특별시 마포구 마포대로1길 9",
      "lat": 37.5392111,
      "lng": 126.9433996,
      "phone": "02-2640-5199",
      "dong": "마포동"
    },
    {
      "naverPlaceId": "1785480216",
      "name": "마포유수지 공영주차장 SK일렉링크 전기차충전소",
      "address": "서울특별시 마포구 마포동 36-1",
      "roadAddress": "서울특별시 마포구 마포대로1길 9",
      "lat": 37.5385739,
      "lng": 126.9434536,
      "phone": "1566-1704",
      "dong": "마포동"
    },
    {
      "naverPlaceId": "1682922779",
      "name": "마포공영주차장_옥외",
      "address": "서울특별시 마포구 마포동 36-1",
      "roadAddress": "서울특별시 마포구 마포대로1길 9",
      "lat": 37.5391982,
      "lng": 126.9433829,
      "phone": "",
      "dong": "마포동"
    },
    {
      "naverPlaceId": "1631429282",
      "name": "피플카 마포유수지 공영주차장",
      "address": "서울특별시 마포구 마포동 36-1 마포주차장",
      "roadAddress": "서울특별시 마포구 마포대로1길 9 마포주차장",
      "lat": 37.5388984,
      "lng": 126.9429382,
      "phone": "",
      "dong": "마포동"
    },
    {
      "naverPlaceId": "1363745195",
      "name": "청기와2 노상공영주차장 전기차충전소",
      "address": "서울특별시 마포구 서교동 476-22",
      "roadAddress": "",
      "lat": 37.5546145,
      "lng": 126.9125858,
      "phone": "02-2640-5199",
      "dong": "서교동"
    },
    {
      "naverPlaceId": "38287379",
      "name": "경남주차",
      "address": "서울특별시 마포구 서교동 353-2 경남주차",
      "roadAddress": "서울특별시 마포구 양화로 129 경남주차",
      "lat": 37.5551523,
      "lng": 126.9206345,
      "phone": "0507-1372-8104",
      "dong": "서교동"
    },
    {
      "naverPlaceId": "1779140767",
      "name": "마포구 토정로 공영주차장 (화창운수 앞 가로등형) 전기차충전소",
      "address": "서울특별시 마포구 용강동 489-1 489-1",
      "roadAddress": "서울특별시 마포구 토정로 272 (용강동 489-1)",
      "lat": 37.5423339,
      "lng": 126.939886,
      "phone": "02-2640-5199",
      "dong": "용강동"
    },
    {
      "naverPlaceId": "1451263383",
      "name": "마포구 토정로 공영주차장 (드림디포 앞 가로등) 전기차충전소",
      "address": "서울특별시 마포구 용강동 473-1 대현빌딩 ( 473-1)",
      "roadAddress": "서울특별시 마포구 토정로 271 대현빌딩 (용강동 473-1)",
      "lat": 37.5423561,
      "lng": 126.9403219,
      "phone": "02-2640-5199",
      "dong": "용강동"
    },
    {
      "naverPlaceId": "36010854",
      "name": "망원공영주차장",
      "address": "서울특별시 마포구 망원동 403-2",
      "roadAddress": "서울특별시 마포구 포은로6길 10",
      "lat": 37.555589,
      "lng": 126.9055906,
      "phone": "",
      "dong": "망원동"
    },
    {
      "naverPlaceId": "1479847693",
      "name": "망원시장 노상 공영주차장",
      "address": "서울특별시 마포구 망원동 414-115",
      "roadAddress": "",
      "lat": 37.5573262,
      "lng": 126.9051689,
      "phone": "",
      "dong": "망원동"
    },
    {
      "naverPlaceId": "35886903",
      "name": "망원 공영 주차장",
      "address": "서울특별시 마포구 망원동 478-10",
      "roadAddress": "서울특별시 마포구 월드컵로 131",
      "lat": 37.5595639,
      "lng": 126.9066,
      "phone": "",
      "dong": "망원동"
    },
    {
      "naverPlaceId": "37049191",
      "name": "망원나들목앞 공영 주차장",
      "address": "서울특별시 마포구 망원동 205-5 세븐일레븐",
      "roadAddress": "서울특별시 마포구 마포나루길 407 세븐일레븐",
      "lat": 37.5544785,
      "lng": 126.89648,
      "phone": "02-3780-0841",
      "dong": "망원동"
    },
    {
      "naverPlaceId": "1242246920",
      "name": "망원나들목공영주차장A",
      "address": "서울특별시 마포구 망원동 232-30",
      "roadAddress": "서울특별시 마포구 망원로 2",
      "lat": 37.554789,
      "lng": 126.898124,
      "phone": "02-300-5045",
      "dong": "망원동"
    },
    {
      "naverPlaceId": "1540330327",
      "name": "월드컵시장 노상 공영주차장",
      "address": "서울특별시 마포구 망원동 480-5",
      "roadAddress": "",
      "lat": 37.5576513,
      "lng": 126.906224,
      "phone": "",
      "dong": "망원동"
    },
    {
      "naverPlaceId": "36010856",
      "name": "망원노상공영주차장",
      "address": "서울특별시 마포구 망원1동 456-26",
      "roadAddress": "서울특별시 마포구 희우정로 99",
      "lat": 37.5540264,
      "lng": 126.9018008,
      "phone": "02-300-5056",
      "dong": ""
    },
    {
      "naverPlaceId": "1555407785",
      "name": "마포 망원1-1공영주차장",
      "address": "서울특별시 마포구 망원동 418-39",
      "roadAddress": "서울특별시 마포구 망원로 28",
      "lat": 37.5560129,
      "lng": 126.9000555,
      "phone": "1588-5783",
      "dong": "망원동"
    },
    {
      "naverPlaceId": "1217550448",
      "name": "망원3공영주차장",
      "address": "서울특별시 마포구 망원동 417-36",
      "roadAddress": "",
      "lat": 37.5554242,
      "lng": 126.8999057,
      "phone": "",
      "dong": "망원동"
    },
    {
      "naverPlaceId": "1337567139",
      "name": "망원동2-1공영주차장",
      "address": "서울특별시 마포구 망원동 428-5",
      "roadAddress": "서울특별시 마포구 망원로3길 24",
      "lat": 37.5577736,
      "lng": 126.9014601,
      "phone": "",
      "dong": "망원동"
    },
    {
      "naverPlaceId": "1156945619",
      "name": "망원나들목공영주차장B",
      "address": "서울특별시 마포구 망원동 460-14 73, 망원배드민턴장",
      "roadAddress": "서울특별시 마포구 동교로1길 70 73, 망원배드민턴장",
      "lat": 37.5532443,
      "lng": 126.900132,
      "phone": "",
      "dong": "망원동"
    },
    {
      "naverPlaceId": "37049192",
      "name": "망원 수영장 앞 공영 주차장",
      "address": "서울특별시 마포구 망원2동 312-3",
      "roadAddress": "서울특별시 마포구 마포나루길 386",
      "lat": 37.5566316,
      "lng": 126.8935773,
      "phone": "02-3780-0841",
      "dong": ""
    },
    {
      "naverPlaceId": "1453713153",
      "name": "망원나들목 A동 공영 주차장",
      "address": "서울특별시 마포구 망원동 460-5",
      "roadAddress": "서울특별시 마포구 동교로1길 45",
      "lat": 37.5529475,
      "lng": 126.9008841,
      "phone": "",
      "dong": "망원동"
    },
    {
      "naverPlaceId": "1281342361",
      "name": "망원1-2공영주차장(지하1~3층주차장) 대피소",
      "address": "서울특별시 마포구 망원동 403-2",
      "roadAddress": "서울특별시 마포구 포은로6길 10",
      "lat": 37.5556603,
      "lng": 126.9055606,
      "phone": "",
      "dong": "망원동"
    },
    {
      "naverPlaceId": "1507559885",
      "name": "피플카 망원동 노외공영주차장",
      "address": "서울특별시 마포구 망원동 478-10",
      "roadAddress": "서울특별시 마포구 월드컵로 131",
      "lat": 37.5595553,
      "lng": 126.9065954,
      "phone": "",
      "dong": "망원동"
    },
    {
      "naverPlaceId": "1882300255",
      "name": "망원나들목공영주차장A입구",
      "address": "서울특별시 마포구 망원동",
      "roadAddress": "서울특별시 마포구",
      "lat": 37.5552586,
      "lng": 126.8976494,
      "phone": "",
      "dong": "망원동"
    },
    {
      "naverPlaceId": "1597915930",
      "name": "서울마포망원1-2공영주차장 전기차충전소",
      "address": "서울특별시 마포구 망원동 403-2",
      "roadAddress": "서울특별시 마포구 포은로6길 10",
      "lat": 37.5556522,
      "lng": 126.9059672,
      "phone": "1877-6546",
      "dong": "망원동"
    },
    {
      "naverPlaceId": "1669320435",
      "name": "망원동 공영주차장1 전기차충전소",
      "address": "서울특별시 마포구 망원동 232-30",
      "roadAddress": "서울특별시 마포구 망원로 2",
      "lat": 37.5550997,
      "lng": 126.8978449,
      "phone": "1661-9408",
      "dong": "망원동"
    },
    {
      "naverPlaceId": "1772814646",
      "name": "망원3 노상공영주차장 전기차충전소",
      "address": "서울특별시 마포구 망원동 455-85",
      "roadAddress": "",
      "lat": 37.555575,
      "lng": 126.8995754,
      "phone": "02-2640-5199",
      "dong": "망원동"
    },
    {
      "naverPlaceId": "21186199",
      "name": "상암1공영주차장",
      "address": "서울특별시 마포구 상암동 1267-1 상암1공영주차장",
      "roadAddress": "서울특별시 마포구 성암로 197 상암1공영주차장",
      "lat": 37.5771655,
      "lng": 126.8971466,
      "phone": "02-373-5402",
      "dong": "상암동"
    },
    {
      "naverPlaceId": "36046336",
      "name": "노을공원 주차장",
      "address": "서울특별시 마포구 상암동 481-6",
      "roadAddress": "서울특별시 마포구 하늘공원로 108",
      "lat": 37.5696366,
      "lng": 126.8794132,
      "phone": "",
      "dong": "상암동"
    },
    {
      "naverPlaceId": "31786781",
      "name": "난지천공원 주차장1",
      "address": "서울특별시 마포구 상암동 1538 난지천공원 잔디광장매점",
      "roadAddress": "서울특별시 마포구 월드컵로 365 난지천공원 잔디광장매점",
      "lat": 37.5686846,
      "lng": 126.8911727,
      "phone": "",
      "dong": "상암동"
    },
    {
      "naverPlaceId": "2141831789",
      "name": "마포월드컵제1시간제공영주차장",
      "address": "서울특별시 마포구 상암동 1626",
      "roadAddress": "서울특별시 마포구",
      "lat": 37.5742608,
      "lng": 126.8984294,
      "phone": "",
      "dong": "상암동"
    },
    {
      "naverPlaceId": "36060709",
      "name": "난지잔디마당 공영 주차장",
      "address": "서울특별시 마포구 상암동 482-147",
      "roadAddress": "",
      "lat": 37.5647638,
      "lng": 126.8820991,
      "phone": "070-7545-7464",
      "dong": "상암동"
    },
    {
      "naverPlaceId": "380385470",
      "name": "난지 중앙로 노상 공영 주차장",
      "address": "서울특별시 마포구 상암동 481-6 한국지역난방공사",
      "roadAddress": "서울특별시 마포구 하늘공원로 84 한국지역난방공사",
      "lat": 37.5712369,
      "lng": 126.8820952,
      "phone": "",
      "dong": "상암동"
    },
    {
      "naverPlaceId": "35977244",
      "name": "난지캠핑장주차장",
      "address": "서울특별시 마포구 상암동 495-81 난지캠핑장",
      "roadAddress": "서울특별시 마포구 한강난지로 28 난지캠핑장",
      "lat": 37.5698826,
      "lng": 126.8735454,
      "phone": "070-7545-7464",
      "dong": "상암동"
    },
    {
      "naverPlaceId": "2142041324",
      "name": "마포월드컵제2시간제공영주차장",
      "address": "서울특별시 마포구 상암동 1625",
      "roadAddress": "서울특별시 마포구",
      "lat": 37.5749509,
      "lng": 126.8989092,
      "phone": "",
      "dong": "상암동"
    },
    {
      "naverPlaceId": "1089574675",
      "name": "난지천공원 주차장3",
      "address": "서울특별시 마포구 상암동 1538 난지천공원 잔디광장매점",
      "roadAddress": "서울특별시 마포구 월드컵로 365 난지천공원 잔디광장매점",
      "lat": 37.5751197,
      "lng": 126.8824006,
      "phone": "",
      "dong": "상암동"
    },
    {
      "naverPlaceId": "35977251",
      "name": "난지월드컵대교램프밑 공영 주차장",
      "address": "서울특별시 마포구 상암동 487-370",
      "roadAddress": "",
      "lat": 37.5616326,
      "lng": 126.8869566,
      "phone": "02-3780-0841",
      "dong": "상암동"
    },
    {
      "naverPlaceId": "1091243662",
      "name": "망원2,3주차장",
      "address": "서울특별시 마포구 상암동 487-116",
      "roadAddress": "서울특별시 마포구 한강난지로 162",
      "lat": 37.5628693,
      "lng": 126.8854352,
      "phone": "070-7778-6678",
      "dong": "상암동"
    },
    {
      "naverPlaceId": "1623626471",
      "name": "상암동제1공영주차장 안심택배함",
      "address": "서울특별시 마포구 상암동 1267-1",
      "roadAddress": "서울특별시 마포구 성암로 197",
      "lat": 37.5772636,
      "lng": 126.8971427,
      "phone": "",
      "dong": "상암동"
    },
    {
      "naverPlaceId": "1896615853",
      "name": "상암1 공영주차장 전기차충전소",
      "address": "서울특별시 마포구 상암동 1621",
      "roadAddress": "",
      "lat": 37.5771302,
      "lng": 126.8972473,
      "phone": "1661-9408",
      "dong": "상암동"
    },
    {
      "naverPlaceId": "1086814401",
      "name": "마포구 상암1공영주차장 전기차충전소",
      "address": "서울특별시 마포구 상암동 1621",
      "roadAddress": "",
      "lat": 37.5771432,
      "lng": 126.8971993,
      "phone": "1833-9131",
      "dong": "상암동"
    },
    {
      "naverPlaceId": "1714010934",
      "name": "난지잔디마당 공영 주차장입구",
      "address": "서울특별시 마포구 상암동",
      "roadAddress": "",
      "lat": 37.5646346,
      "lng": 126.8824522,
      "phone": "",
      "dong": "상암동"
    },
    {
      "naverPlaceId": "18808226",
      "name": "상암1공영주차장입구",
      "address": "서울특별시 마포구 상암동",
      "roadAddress": "",
      "lat": 37.5770563,
      "lng": 126.8972542,
      "phone": "",
      "dong": "상암동"
    },
    {
      "naverPlaceId": "2141171799",
      "name": "마포월드컵제1시간제공영주차장입구",
      "address": "서울특별시 마포구 상암동",
      "roadAddress": "서울특별시 마포구",
      "lat": 37.5745767,
      "lng": 126.8985396,
      "phone": "",
      "dong": "상암동"
    },
    {
      "naverPlaceId": "1726215307",
      "name": "메이븐커피로스터스",
      "address": "서울특별시 마포구 상암동 1457 메이븐커피로스터스",
      "roadAddress": "서울특별시 마포구 성암로13길 10 메이븐커피로스터스",
      "lat": 37.5775584,
      "lng": 126.8965592,
      "phone": "0507-1386-3511",
      "dong": "상암동"
    },
    {
      "naverPlaceId": "1855284245",
      "name": "마포구청부설주차장",
      "address": "서울특별시 마포구 성산동 370 마포구청 지하주차장",
      "roadAddress": "서울특별시 마포구 월드컵로 212 마포구청 지하주차장",
      "lat": 37.566287,
      "lng": 126.9015227,
      "phone": "",
      "dong": "성산동"
    },
    {
      "naverPlaceId": "1916364650",
      "name": "중앙도서관 공영 주차장",
      "address": "서울특별시 마포구 성산동 275-3",
      "roadAddress": "서울특별시 마포구 성산로 128",
      "lat": 37.563593,
      "lng": 126.908267,
      "phone": "",
      "dong": "성산동"
    },
    {
      "naverPlaceId": "21185809",
      "name": "성산2-1공영주차장",
      "address": "서울특별시 마포구 성산동 199",
      "roadAddress": "서울특별시 마포구 모래내로 31",
      "lat": 37.5648159,
      "lng": 126.9067398,
      "phone": "",
      "dong": "성산동"
    },
    {
      "naverPlaceId": "37054762",
      "name": "마포구종합행정타운 주차장",
      "address": "서울특별시 마포구 성산동 370",
      "roadAddress": "서울특별시 마포구 월드컵로36길 15",
      "lat": 37.5663352,
      "lng": 126.9018981,
      "phone": "02-3153-6217",
      "dong": "성산동"
    },
    {
      "naverPlaceId": "1657344981",
      "name": "서울특별시마포구시설관리공단 공영사업팀",
      "address": "서울특별시 마포구 성산동 533-1",
      "roadAddress": "서울특별시 마포구 월드컵로 235",
      "lat": 37.5651985,
      "lng": 126.8985079,
      "phone": "02-300-5045",
      "dong": "성산동"
    },
    {
      "naverPlaceId": "1872255037",
      "name": "서울월드컵경기장공영주차장 전기차충전소",
      "address": "서울특별시 마포구 성산동 513-5",
      "roadAddress": "",
      "lat": 37.5682266,
      "lng": 126.8950797,
      "phone": "1566-1704",
      "dong": "성산동"
    },
    {
      "naverPlaceId": "1053907545",
      "name": "성산2-1공영주차장자전거대여소",
      "address": "서울특별시 마포구 성산동",
      "roadAddress": "",
      "lat": 37.5647387,
      "lng": 126.9067916,
      "phone": "",
      "dong": "성산동"
    },
    {
      "naverPlaceId": "1452910141",
      "name": "서울마포성산2-1공영주차장 전기차충전소",
      "address": "서울특별시 마포구 성산동 199",
      "roadAddress": "서울특별시 마포구 모래내로 31",
      "lat": 37.564817,
      "lng": 126.9066928,
      "phone": "1877-6546",
      "dong": "성산동"
    },
    {
      "naverPlaceId": "1605931539",
      "name": "거주자우선주차장",
      "address": "서울특별시 마포구 연남동 364-1",
      "roadAddress": "",
      "lat": 37.5657864,
      "lng": 126.9178071,
      "phone": "02-300-5042",
      "dong": "연남동"
    },
    {
      "naverPlaceId": "1732365552",
      "name": "연남동 공영주차장 전기차충전소",
      "address": "서울특별시 마포구 연남동 361-9",
      "roadAddress": "서울특별시 마포구 연남로 84",
      "lat": 37.5661738,
      "lng": 126.9190317,
      "phone": "02-2640-5199",
      "dong": "연남동"
    },
    {
      "naverPlaceId": "1654821947",
      "name": "한서공영주차장",
      "address": "서울특별시 마포구 염리동 24-170 한서공영주차장",
      "roadAddress": "서울특별시 마포구 대흥로24바길 53 한서공영주차장",
      "lat": 37.5528548,
      "lng": 126.9492382,
      "phone": "",
      "dong": "염리동"
    },
    {
      "naverPlaceId": "1651736767",
      "name": "염리공영주차장입구",
      "address": "서울특별시 마포구 염리동",
      "roadAddress": "",
      "lat": 37.5416993,
      "lng": 126.9452904,
      "phone": "",
      "dong": "염리동"
    },
    {
      "naverPlaceId": "1251071084",
      "name": "소금나루 공영주차장(지하1~3층주차장) 대피소",
      "address": "서울특별시 마포구 염리동 533-11",
      "roadAddress": "서울특별시 마포구 숭문길 72",
      "lat": 37.5495242,
      "lng": 126.9462339,
      "phone": "",
      "dong": "염리동"
    },
    {
      "naverPlaceId": "1799039004",
      "name": "염리공영주차장 전기차충전소",
      "address": "서울특별시 마포구 염리동 174-3",
      "roadAddress": "서울특별시 마포구 큰우물로 61",
      "lat": 37.5419945,
      "lng": 126.9452022,
      "phone": "1522-2573",
      "dong": "염리동"
    },
    {
      "naverPlaceId": "1134569922",
      "name": "서울마포한서공영주차장 전기차충전소",
      "address": "서울특별시 마포구 염리동 24-170",
      "roadAddress": "서울특별시 마포구 대흥로24바길 53",
      "lat": 37.5528548,
      "lng": 126.9492382,
      "phone": "1877-6546",
      "dong": "염리동"
    },
    {
      "naverPlaceId": "37049194",
      "name": "망원당산철교북단 공영 주차장",
      "address": "서울특별시 마포구 합정동 352-5",
      "roadAddress": "",
      "lat": 37.5448594,
      "lng": 126.9101542,
      "phone": "02-3780-0841",
      "dong": "합정동"
    },
    {
      "naverPlaceId": "1100507294",
      "name": "양화진공영주차장 개방화장실",
      "address": "서울특별시 마포구 합정동 139-21",
      "roadAddress": "서울특별시 마포구 토정로 2",
      "lat": 37.5455631,
      "lng": 126.9114,
      "phone": "",
      "dong": "합정동"
    },
    {
      "naverPlaceId": "18791087",
      "name": "망원한강공원공영주차장제3요금소",
      "address": "서울특별시 마포구 합정동",
      "roadAddress": "",
      "lat": 37.5444917,
      "lng": 126.9104375,
      "phone": "",
      "dong": "합정동"
    },
    {
      "naverPlaceId": "1980870168",
      "name": "양화진 공영주차장 전기차충전소",
      "address": "서울특별시 마포구 합정동 139-21",
      "roadAddress": "서울특별시 마포구 토정로 2",
      "lat": 37.5456081,
      "lng": 126.9115057,
      "phone": "1661-9408",
      "dong": "합정동"
    },
    {
      "naverPlaceId": "1005242269",
      "name": "양화진공영주차장 대한송유관공사 2 전기차충전소",
      "address": "서울특별시 마포구 합정동 139-21",
      "roadAddress": "서울특별시 마포구 토정로 2",
      "lat": 37.545567,
      "lng": 126.9112023,
      "phone": "",
      "dong": "합정동"
    },
    {
      "naverPlaceId": "1173300418",
      "name": "양화진공영주차장 대한송유관공사 1 전기차충전소",
      "address": "서울특별시 마포구 합정동 139-21",
      "roadAddress": "서울특별시 마포구 토정로 2",
      "lat": 37.545574,
      "lng": 126.9112046,
      "phone": "",
      "dong": "합정동"
    },
    {
      "naverPlaceId": "37549576",
      "name": "망원 한강공원망원1주차장입구",
      "address": "서울특별시 마포구 합정동",
      "roadAddress": "",
      "lat": 37.5444486,
      "lng": 126.9105609,
      "phone": "",
      "dong": "합정동"
    },
    {
      "naverPlaceId": "19471616",
      "name": "양화진공영주차장입구",
      "address": "서울특별시 마포구 합정동",
      "roadAddress": "",
      "lat": 37.545612,
      "lng": 126.9117222,
      "phone": "",
      "dong": "합정동"
    }
  ],
  "sido": "서울특별시",
  "sigungu": "마포구",
  "totalCount": 126,
  "source": "naver-map",
  "scrapedAt": "2026-02-10"
}