{
  "items": [
    {
      "naverPlaceId": "1393312172",
      "name": "북성초등학교공영주차장",
      "address": "서울특별시 서대문구 북아현동 215",
      "roadAddress": "서울특별시 서대문구 북아현동 북아현로1나길 22 북성초등학교",
      "lat": 37.5594727,
      "lng": 126.9523133,
      "dong": "북아현동",
      "tel": ""
    },
    {
      "naverPlaceId": "1624444415",
      "name": "서대문구 홍은1동 제4공영주차장 전기차충전소",
      "address": "서울특별시 서대문구 홍은동 11-24",
      "roadAddress": "",
      "lat": 37.6013953,
      "lng": 126.9490803,
      "dong": "홍은동",
      "tel": "1833-9131"
    },
    {
      "naverPlaceId": "1342004421",
      "name": "서대문구 남가좌2동 제2공영주차장 전기차충전소",
      "address": "서울특별시 서대문구 남가좌동 3-75",
      "roadAddress": "서울특별시 서대문구 명지대5길 10-8",
      "lat": 37.5831428,
      "lng": 126.9229853,
      "dong": "남가좌동",
      "tel": "1833-9131"
    },
    {
      "naverPlaceId": "1268663527",
      "name": "홍연초등학교공영주차장",
      "address": "서울특별시 서대문구 홍은동 305",
      "roadAddress": "서울특별시 서대문구 백련사길 55",
      "lat": 37.5813461,
      "lng": 126.9315605,
      "dong": "홍은동",
      "tel": ""
    },
    {
      "naverPlaceId": "1883429392",
      "name": "서대문구 홍은1동 제1공영주차장 전기차충전소",
      "address": "서울특별시 서대문구 홍은동 9-164",
      "roadAddress": "서울특별시 서대문구 포방터2길 10",
      "lat": 37.5985055,
      "lng": 126.9495392,
      "dong": "홍은동",
      "tel": "1833-9131"
    },
    {
      "naverPlaceId": "1572939153",
      "name": "서대문구 남가좌2동 제1공영주차장 전기차충전소",
      "address": "서울특별시 서대문구 남가좌동 64-8",
      "roadAddress": "서울특별시 서대문구 가재울로12길 27",
      "lat": 37.5767967,
      "lng": 126.921928,
      "dong": "남가좌동",
      "tel": "1833-9131"
    },
    {
      "naverPlaceId": "1063517531",
      "name": "유진상가/인왕시장 앞  노상 공영 주차장",
      "address": "서울특별시 서대문구 홍제동 294-1",
      "roadAddress": "",
      "lat": 37.5913807,
      "lng": 126.942973,
      "dong": "홍제동",
      "tel": "02-360-8540"
    },
    {
      "naverPlaceId": "180359921",
      "name": "충현동 제1공영주차장",
      "address": "서울특별시 서대문구 충정로2가 78-13 충현동 제1공영주차장",
      "roadAddress": "서울특별시 서대문구 경기대로 72 충현동 제1공영주차장",
      "lat": 37.5652661,
      "lng": 126.9645581,
      "dong": "충현동",
      "tel": "02-360-8540"
    },
    {
      "naverPlaceId": "20936017",
      "name": "홍은2동 제3공영주차장",
      "address": "서울특별시 서대문구 홍은동 265-26",
      "roadAddress": "서울특별시 서대문구 연희로39길 12",
      "lat": 37.5867834,
      "lng": 126.9342127,
      "dong": "홍은동",
      "tel": "02-360-8540"
    },
    {
      "naverPlaceId": "1448655290",
      "name": "연희맛로 노상공영주차장",
      "address": "서울특별시 서대문구 연희동 130-12",
      "roadAddress": "",
      "lat": 37.5669528,
      "lng": 126.9297662,
      "dong": "연희동",
      "tel": "02-360-8540"
    },
    {
      "naverPlaceId": "18736816",
      "name": "충현동 제2공영주차장",
      "address": "서울특별시 서대문구 북아현동 3-5",
      "roadAddress": "서울특별시 서대문구 북아현로14길 24",
      "lat": 37.562842,
      "lng": 126.956813,
      "dong": "북아현동",
      "tel": "02-360-8540"
    },
    {
      "naverPlaceId": "18750805",
      "name": "연희동 제6공영주차장",
      "address": "서울특별시 서대문구 연희동 706-2",
      "roadAddress": "서울특별시 서대문구 홍연길 16",
      "lat": 37.5749117,
      "lng": 126.9280807,
      "dong": "연희동",
      "tel": "02-360-8540"
    },
    {
      "naverPlaceId": "21185778",
      "name": "연희동 제2공영주차장",
      "address": "서울특별시 서대문구 연희동 105-8",
      "roadAddress": "",
      "lat": 37.5723833,
      "lng": 126.9277137,
      "dong": "연희동",
      "tel": "02-360-8540"
    },
    {
      "naverPlaceId": "1009208526",
      "name": "연희동 제3공영주차장",
      "address": "서울특별시 서대문구 연희동 50-3",
      "roadAddress": "",
      "lat": 37.5675477,
      "lng": 126.9344299,
      "dong": "연희동",
      "tel": "02-360-8540"
    },
    {
      "naverPlaceId": "21185742",
      "name": "신촌동 제1공영주차장",
      "address": "서울특별시 서대문구 창천동 70-34",
      "roadAddress": "서울특별시 서대문구 성산로22길 40",
      "lat": 37.5591171,
      "lng": 126.9342171,
      "dong": "창천동",
      "tel": "02-360-8540"
    },
    {
      "naverPlaceId": "18740087",
      "name": "홍제2동 제1공영주차장",
      "address": "서울특별시 서대문구 홍제동 197-9",
      "roadAddress": "",
      "lat": 37.5884649,
      "lng": 126.947937,
      "dong": "홍제동",
      "tel": "02-360-8540"
    },
    {
      "naverPlaceId": "1152681878",
      "name": "지진옥외대피장소 신촌역 동측광장 공영주차장",
      "address": "서울특별시 서대문구 대현동 121-7",
      "roadAddress": "",
      "lat": 37.5592881,
      "lng": 126.9431027,
      "dong": "대현동",
      "tel": ""
    },
    {
      "naverPlaceId": "21186206",
      "name": "홍제3동 제2공영주차장",
      "address": "서울특별시 서대문구 홍제동 8-173",
      "roadAddress": "",
      "lat": 37.5931645,
      "lng": 126.9505484,
      "dong": "홍제동",
      "tel": "02-360-8540"
    },
    {
      "naverPlaceId": "1401024548",
      "name": "미근동 공영주차장",
      "address": "서울특별시 서대문구 미근동 267-3",
      "roadAddress": "",
      "lat": 37.5622607,
      "lng": 126.9683199,
      "dong": "미근동",
      "tel": "02-360-8540"
    },
    {
      "naverPlaceId": "18752882",
      "name": "홍은2동 제2공영주차장",
      "address": "서울특별시 서대문구 홍은동 265-170",
      "roadAddress": "서울특별시 서대문구 연희로39나길 25",
      "lat": 37.5874903,
      "lng": 126.9318375,
      "dong": "홍은동",
      "tel": "02-360-8540"
    },
    {
      "naverPlaceId": "21185909",
      "name": "연희동 제1공영주차장",
      "address": "서울특별시 서대문구 연희동 151-32",
      "roadAddress": "",
      "lat": 37.5766847,
      "lng": 126.934512,
      "dong": "연희동",
      "tel": "02-360-8540"
    },
    {
      "naverPlaceId": "21186032",
      "name": "북가좌2동 제1공영주차장",
      "address": "서울특별시 서대문구 북가좌동 73-16",
      "roadAddress": "",
      "lat": 37.5787416,
      "lng": 126.9135125,
      "dong": "북가좌동",
      "tel": "02-360-8540"
    },
    {
      "naverPlaceId": "36029529",
      "name": "북아현가구단지 공영주차장",
      "address": "서울특별시 서대문구 북아현동 915",
      "roadAddress": "서울특별시 서대문구 신촌로37길 74",
      "lat": 37.5583692,
      "lng": 126.9603483,
      "dong": "북아현동",
      "tel": "02-360-8540"
    },
    {
      "naverPlaceId": "1154465050",
      "name": "정원단지 회차 주차시설",
      "address": "서울특별시 서대문구 홍은동 265-220",
      "roadAddress": "",
      "lat": 37.5877367,
      "lng": 126.930664,
      "dong": "홍은동",
      "tel": "02-360-8540"
    },
    {
      "naverPlaceId": "1849272717",
      "name": "북가좌2동 제2공영주차장",
      "address": "서울특별시 서대문구 북가좌동 346-20",
      "roadAddress": "",
      "lat": 37.5808738,
      "lng": 126.9083459,
      "dong": "북가좌동",
      "tel": "02-360-8540"
    },
    {
      "naverPlaceId": "1178453776",
      "name": "남가좌2동 제2공영주차장",
      "address": "서울특별시 서대문구 남가좌동 3-76 1층",
      "roadAddress": "",
      "lat": 37.5831542,
      "lng": 126.9229628,
      "phone": "02-360-8541",
      "dong": "남가좌동"
    },
    {
      "naverPlaceId": "21185849",
      "name": "남가좌2동 제1공영주차장",
      "address": "서울특별시 서대문구 남가좌동 64-8",
      "roadAddress": "서울특별시 서대문구 가재울로14길 22",
      "lat": 37.5769827,
      "lng": 126.9217329,
      "phone": "02-360-8540",
      "dong": "남가좌동"
    },
    {
      "naverPlaceId": "18762269",
      "name": "남가좌1동 제2공영주차장",
      "address": "서울특별시 서대문구 남가좌동 152-83",
      "roadAddress": "",
      "lat": 37.5698332,
      "lng": 126.9163374,
      "phone": "02-360-8540",
      "dong": "남가좌동"
    },
    {
      "naverPlaceId": "1108549571",
      "name": "홍은2동제1공영주차장입구",
      "address": "서울특별시 서대문구 남가좌동",
      "roadAddress": "",
      "lat": 37.5790215,
      "lng": 126.9255031,
      "phone": "",
      "dong": "남가좌동"
    },
    {
      "naverPlaceId": "1290261540",
      "name": "홍은2동제1공영주차장입구",
      "address": "서울특별시 서대문구 남가좌동",
      "roadAddress": "",
      "lat": 37.5788967,
      "lng": 126.9255702,
      "phone": "",
      "dong": "남가좌동"
    },
    {
      "naverPlaceId": "1478361167",
      "name": "남가좌2동 제2공영주차장입출구",
      "address": "서울특별시 서대문구 남가좌동",
      "roadAddress": "",
      "lat": 37.5832292,
      "lng": 126.9227748,
      "phone": "",
      "dong": "남가좌동"
    },
    {
      "naverPlaceId": "1852799775",
      "name": "남가좌2동 제1공영주차장입구",
      "address": "서울특별시 서대문구 남가좌동",
      "roadAddress": "서울특별시 서대문구",
      "lat": 37.5769667,
      "lng": 126.921639,
      "phone": "",
      "dong": "남가좌동"
    },
    {
      "naverPlaceId": "1865828446",
      "name": "남가좌2동 제2공영주차장입출구",
      "address": "서울특별시 서대문구 남가좌동",
      "roadAddress": "",
      "lat": 37.5829996,
      "lng": 126.9229853,
      "phone": "",
      "dong": "남가좌동"
    },
    {
      "naverPlaceId": "1963105340",
      "name": "남가좌1동 제2공영주차장입구",
      "address": "서울특별시 서대문구 남가좌동",
      "roadAddress": "",
      "lat": 37.5699461,
      "lng": 126.9164503,
      "phone": "",
      "dong": "남가좌동"
    },
    {
      "naverPlaceId": "1221409221",
      "name": "남가좌1동제2공영주차장 전기차충전소",
      "address": "서울특별시 서대문구 남가좌동 152-83",
      "roadAddress": "",
      "lat": 37.5699309,
      "lng": 126.9164347,
      "phone": "1522-2573",
      "dong": "남가좌동"
    },
    {
      "naverPlaceId": "1829481190",
      "name": "남가좌2동 공영주차장 전기차충전소",
      "address": "서울특별시 서대문구 남가좌동 3-75",
      "roadAddress": "서울특별시 서대문구 명지대5길 10-8",
      "lat": 37.5830608,
      "lng": 126.9230788,
      "phone": "1661-9408",
      "dong": "남가좌동"
    },
    {
      "naverPlaceId": "18744663",
      "name": "신촌역공영주차장입구",
      "address": "서울특별시 서대문구 대현동",
      "roadAddress": "",
      "lat": 37.5592229,
      "lng": 126.9427886,
      "phone": "",
      "dong": "대현동"
    },
    {
      "naverPlaceId": "18739149",
      "name": "북아현동 제2공영주차장",
      "address": "서울특별시 서대문구 북아현동 121-1",
      "roadAddress": "서울특별시 서대문구 북아현로6길 60",
      "lat": 37.5600472,
      "lng": 126.9582981,
      "phone": "02-360-8540",
      "dong": "북아현동"
    },
    {
      "naverPlaceId": "1685373728",
      "name": "독립문문화공원공영주차장",
      "address": "서울특별시 서대문구 영천동 263 공영주차장",
      "roadAddress": "서울특별시 서대문구 통일로 205-6 공영주차장",
      "lat": 37.5714447,
      "lng": 126.9606612,
      "phone": "02-360-8542",
      "dong": "영천동"
    },
    {
      "naverPlaceId": "21185608",
      "name": "홍제1동 제1공영주차장",
      "address": "서울특별시 서대문구 홍제동 361-36",
      "roadAddress": "",
      "lat": 37.5851901,
      "lng": 126.9360124,
      "phone": "02-360-8540",
      "dong": "홍제동"
    },
    {
      "naverPlaceId": "2145400336",
      "name": "독립문문화공원공영주차장입구",
      "address": "서울특별시 서대문구 영천동",
      "roadAddress": "서울특별시 서대문구",
      "lat": 37.5713424,
      "lng": 126.9606501,
      "phone": "",
      "dong": "영천동"
    },
    {
      "naverPlaceId": "38265519",
      "name": "신촌동제1공영주차장앞자전거대여소",
      "address": "서울특별시 서대문구 창천동",
      "roadAddress": "",
      "lat": 37.5591766,
      "lng": 126.9345338,
      "phone": "",
      "dong": "창천동"
    },
    {
      "naverPlaceId": "1651053445",
      "name": "독립문문화공원 지하공영주차장 전기차충전소",
      "address": "서울특별시 서대문구 영천동 59",
      "roadAddress": "서울특별시 서대문구",
      "lat": 37.5715112,
      "lng": 126.9597967,
      "phone": "02-2640-5199",
      "dong": "영천동"
    },
    {
      "naverPlaceId": "1759243331",
      "name": "홍은2동 제3공영주차장 전기차충전소",
      "address": "서울특별시 서대문구 홍은동 265-26",
      "roadAddress": "서울특별시 서대문구 연희로39길 12",
      "lat": 37.5867316,
      "lng": 126.93415,
      "phone": "1522-2573",
      "dong": "홍은동"
    },
    {
      "naverPlaceId": "1352875953",
      "name": "서대문구 북성초등학교 공영주차장 전기차충전소",
      "address": "서울특별시 서대문구 북아현동 215",
      "roadAddress": "서울특별시 서대문구 북아현로1나길 22",
      "lat": 37.5588696,
      "lng": 126.9519444,
      "phone": "1833-9131",
      "dong": "북아현동"
    },
    {
      "naverPlaceId": "1263896754",
      "name": "신촌동제1공영주차장입구 서측",
      "address": "서울특별시 서대문구 창천동",
      "roadAddress": "",
      "lat": 37.559013,
      "lng": 126.9338247,
      "phone": "",
      "dong": "창천동"
    },
    {
      "naverPlaceId": "1491975980",
      "name": "신촌동제1공영주차장입구 동측",
      "address": "서울특별시 서대문구 창천동",
      "roadAddress": "",
      "lat": 37.5591479,
      "lng": 126.9343932,
      "phone": "",
      "dong": "창천동"
    },
    {
      "naverPlaceId": "1156759080",
      "name": "북아현동 제2공영주차장입구1",
      "address": "서울특별시 서대문구 북아현동",
      "roadAddress": "",
      "lat": 37.5600916,
      "lng": 126.9583197,
      "phone": "",
      "dong": "북아현동"
    },
    {
      "naverPlaceId": "1324371535",
      "name": "충현동 제2공영주차장입구",
      "address": "서울특별시 서대문구 북아현동",
      "roadAddress": "",
      "lat": 37.5629258,
      "lng": 126.9567437,
      "phone": "",
      "dong": "북아현동"
    },
    {
      "naverPlaceId": "1499267081",
      "name": "북가좌동 공영주차장 전기차충전소",
      "address": "서울특별시 서대문구 북가좌동 73-16",
      "roadAddress": "",
      "lat": 37.5787371,
      "lng": 126.9134916,
      "phone": "02-2640-5199",
      "dong": "북가좌동"
    },
    {
      "naverPlaceId": "1409330818",
      "name": "충현동 제2공영주차장입구",
      "address": "서울특별시 서대문구 북아현동",
      "roadAddress": "",
      "lat": 37.5627031,
      "lng": 126.9568982,
      "phone": "",
      "dong": "북아현동"
    },
    {
      "naverPlaceId": "1585628724",
      "name": "북아현동 제2공영주차장입구2",
      "address": "서울특별시 서대문구 북아현동",
      "roadAddress": "",
      "lat": 37.5600641,
      "lng": 126.9585115,
      "phone": "",
      "dong": "북아현동"
    },
    {
      "naverPlaceId": "18739389",
      "name": "북아현동 제2공영주차장입구3",
      "address": "서울특별시 서대문구 북아현동",
      "roadAddress": "",
      "lat": 37.5598844,
      "lng": 126.9585787,
      "phone": "",
      "dong": "북아현동"
    },
    {
      "naverPlaceId": "1533430938",
      "name": "연희제2공영주차장 전기차충전소",
      "address": "서울특별시 서대문구 연희동 105-8",
      "roadAddress": "",
      "lat": 37.5723991,
      "lng": 126.9278869,
      "phone": "02-2640-5199",
      "dong": "연희동"
    },
    {
      "naverPlaceId": "1643952745",
      "name": "연희동제6공영주차장 전기차충전소",
      "address": "서울특별시 서대문구 연희동 706-2",
      "roadAddress": "서울특별시 서대문구 홍연길 16",
      "lat": 37.5749041,
      "lng": 126.928089,
      "phone": "1522-2573",
      "dong": "연희동"
    },
    {
      "naverPlaceId": "1354726472",
      "name": "연희동 제6공영주차장입구",
      "address": "서울특별시 서대문구 연희동",
      "roadAddress": "",
      "lat": 37.5750178,
      "lng": 126.9280279,
      "phone": "",
      "dong": "연희동"
    },
    {
      "naverPlaceId": "1980613601",
      "name": "연희동제1공영주차장입구",
      "address": "서울특별시 서대문구 연희동",
      "roadAddress": "",
      "lat": 37.576779,
      "lng": 126.9343254,
      "phone": "",
      "dong": "연희동"
    },
    {
      "naverPlaceId": "1989671224",
      "name": "연희동 제2공영주차장입구",
      "address": "서울특별시 서대문구 연희동",
      "roadAddress": "",
      "lat": 37.5723483,
      "lng": 126.9278839,
      "phone": "",
      "dong": "연희동"
    },
    {
      "naverPlaceId": "2144946815",
      "name": "독립문문화공원공영주차장GATE A",
      "address": "서울특별시 서대문구 영천동",
      "roadAddress": "서울특별시 서대문구",
      "lat": 37.5718468,
      "lng": 126.9603109,
      "phone": "",
      "dong": "영천동"
    },
    {
      "naverPlaceId": "2145097642",
      "name": "독립문문화공원공영주차장GATE B",
      "address": "서울특별시 서대문구 영천동",
      "roadAddress": "서울특별시 서대문구",
      "lat": 37.5715042,
      "lng": 126.9607381,
      "phone": "",
      "dong": "영천동"
    },
    {
      "naverPlaceId": "1401685587",
      "name": "충현동 1 공영 주차장입구",
      "address": "서울특별시 서대문구 충정로2가",
      "roadAddress": "",
      "lat": 37.5653134,
      "lng": 126.9645429,
      "phone": "",
      "dong": ""
    },
    {
      "naverPlaceId": "1210556596",
      "name": "충현동 제1공영주차장 전기차충전소",
      "address": "서울특별시 서대문구 충정로2가 104 104",
      "roadAddress": "서울특별시 서대문구 충정로9길 18 (충정로2가 104)",
      "lat": 37.5646084,
      "lng": 126.964361,
      "phone": "1661-9408",
      "dong": ""
    },
    {
      "naverPlaceId": "1456099745",
      "name": "충현동공영주차장 전기차충전소",
      "address": "서울특별시 서대문구 충정로2가 78-13",
      "roadAddress": "서울특별시 서대문구 경기대로 72",
      "lat": 37.5651664,
      "lng": 126.9645566,
      "phone": "1522-2573",
      "dong": ""
    },
    {
      "naverPlaceId": "1416045327",
      "name": "홍은1동 제1공영주차장",
      "address": "서울특별시 서대문구 홍은동 9-164 홍은1동 제1공영주차장",
      "roadAddress": "서울특별시 서대문구 포방터2길 10 홍은1동 제1공영주차장",
      "lat": 37.5985714,
      "lng": 126.9496283,
      "phone": "02-360-8540",
      "dong": "홍은동"
    },
    {
      "naverPlaceId": "21185918",
      "name": "홍은2동 제1공영주차장",
      "address": "서울특별시 서대문구 홍은동 410-44",
      "roadAddress": "서울특별시 서대문구 증가로10길 60-23",
      "lat": 37.5789296,
      "lng": 126.9256243,
      "phone": "02-360-8540",
      "dong": "홍은동"
    },
    {
      "naverPlaceId": "21185581",
      "name": "홍은1동 제4공영주차장",
      "address": "서울특별시 서대문구 홍은동 11-24 2층",
      "roadAddress": "",
      "lat": 37.601433,
      "lng": 126.9490776,
      "phone": "02-360-8540",
      "dong": "홍은동"
    },
    {
      "naverPlaceId": "18755704",
      "name": "홍은1동 제3공영주차장",
      "address": "서울특별시 서대문구 홍은동 8-627",
      "roadAddress": "",
      "lat": 37.6059423,
      "lng": 126.9499309,
      "phone": "02-360-8540",
      "dong": "홍은동"
    },
    {
      "naverPlaceId": "38739113",
      "name": "홍은1동공영주차장 개방화장실",
      "address": "서울특별시 서대문구 홍은동 9-164",
      "roadAddress": "서울특별시 서대문구 포방터2길 10",
      "lat": 37.5985958,
      "lng": 126.9495553,
      "phone": "02-360-8529",
      "dong": "홍은동"
    },
    {
      "naverPlaceId": "31390189",
      "name": "홍은1동 제4공영주차장후문",
      "address": "서울특별시 서대문구 홍은동",
      "roadAddress": "",
      "lat": 37.6015986,
      "lng": 126.9492396,
      "phone": "",
      "dong": "홍은동"
    },
    {
      "naverPlaceId": "1034926819",
      "name": "홍연초등학교공영주차장입구",
      "address": "서울특별시 서대문구 홍은동",
      "roadAddress": "서울특별시 서대문구",
      "lat": 37.5812521,
      "lng": 126.931612,
      "phone": "",
      "dong": "홍은동"
    },
    {
      "naverPlaceId": "1442915572",
      "name": "홍은1동 제4공영주차장 전기차충전소",
      "address": "서울특별시 서대문구 홍은동 11-14",
      "roadAddress": "",
      "lat": 37.6014506,
      "lng": 126.9491668,
      "phone": "1899-2100",
      "dong": "홍은동"
    },
    {
      "naverPlaceId": "1709237042",
      "name": "서대문구 홍연초등학교 공영주차장 전기차충전소",
      "address": "서울특별시 서대문구 홍은동 305",
      "roadAddress": "서울특별시 서대문구 백련사길 55",
      "lat": 37.5817267,
      "lng": 126.9314183,
      "phone": "1833-9131",
      "dong": "홍은동"
    },
    {
      "naverPlaceId": "18754840",
      "name": "홍은1동 제4공영주차장정문",
      "address": "서울특별시 서대문구 홍은동",
      "roadAddress": "",
      "lat": 37.6013455,
      "lng": 126.9491648,
      "phone": "",
      "dong": "홍은동"
    },
    {
      "naverPlaceId": "1990014603",
      "name": "홍은1동 제3공영주차장입구",
      "address": "서울특별시 서대문구 홍은동",
      "roadAddress": "",
      "lat": 37.6056,
      "lng": 126.9499235,
      "phone": "",
      "dong": "홍은동"
    },
    {
      "naverPlaceId": "21185956",
      "name": "홍제3동 제1공영주차장",
      "address": "서울특별시 서대문구 홍제동 278-41",
      "roadAddress": "",
      "lat": 37.5950546,
      "lng": 126.9482492,
      "phone": "02-360-8540",
      "dong": "홍제동"
    },
    {
      "naverPlaceId": "1651994668",
      "name": "홍제3동제1공영주차장 전기차충전소",
      "address": "서울특별시 서대문구 홍제동 278-41",
      "roadAddress": "",
      "lat": 37.5950717,
      "lng": 126.9481934,
      "phone": "1522-2573",
      "dong": "홍제동"
    },
    {
      "naverPlaceId": "1672043626",
      "name": "홍제1동 공영주차장 전기차충전소",
      "address": "서울특별시 서대문구 홍제동 361-36",
      "roadAddress": "",
      "lat": 37.5850868,
      "lng": 126.9360656,
      "phone": "02-2640-5199",
      "dong": "홍제동"
    },
    {
      "naverPlaceId": "1992602244",
      "name": "홍제3동 제1공영주차장입구",
      "address": "서울특별시 서대문구 홍제동",
      "roadAddress": "",
      "lat": 37.5947217,
      "lng": 126.9481644,
      "phone": "",
      "dong": "홍제동"
    }
  ],
  "sido": "서울특별시",
  "sigungu": "서대문구",
  "totalCount": 78,
  "source": "naver-map",
  "scrapedAt": "2026-02-10"
}