{
  "items": [
    {
      "naverPlaceId": "38494878",
      "name": "언남문화체육센터주차장",
      "address": "서울특별시 서초구 양재동 309",
      "roadAddress": "서울특별시 서초구 동산로13길 35",
      "lat": 37.4728926,
      "lng": 127.0441792,
      "phone": "",
      "dong": "양재동"
    },
    {
      "naverPlaceId": "21185732",
      "name": "청계산근린광장공영주차장",
      "address": "서울특별시 서초구 원지동 355-1",
      "roadAddress": "",
      "lat": 37.4466358,
      "lng": 127.0559744,
      "phone": "02-2155-7290",
      "dong": "원지동"
    },
    {
      "naverPlaceId": "2144972385",
      "name": "서초구내곡동임시공영주차장",
      "address": "서울특별시 서초구 신원동",
      "roadAddress": "",
      "lat": 37.4496909,
      "lng": 127.0578407,
      "phone": "",
      "dong": "신원동"
    },
    {
      "naverPlaceId": "1449637552",
      "name": "반포4동주민센터 주차장",
      "address": "서울특별시 서초구 반포동 74-7",
      "roadAddress": "서울특별시 서초구 사평대로28길 70",
      "lat": 37.497637,
      "lng": 127.0002643,
      "phone": "",
      "dong": "반포동"
    },
    {
      "naverPlaceId": "20935832",
      "name": "청계산청룡공영주차장",
      "address": "서울특별시 서초구 신원동 224-3",
      "roadAddress": "",
      "lat": 37.446378,
      "lng": 127.0597594,
      "phone": "02-2155-7290",
      "dong": "신원동"
    },
    {
      "naverPlaceId": "1996534167",
      "name": "양재2동주민센터 공영 주차장",
      "address": "서울특별시 서초구 양재동 310-15",
      "roadAddress": "",
      "lat": 37.4707882,
      "lng": 127.0412404,
      "phone": "",
      "dong": "양재동"
    },
    {
      "naverPlaceId": "35977148",
      "name": "사당역 공영 주차장",
      "address": "서울특별시 서초구 과천대로 950-18",
      "roadAddress": "서울 서초구 과천대로 950-18 사당역 공영 주차장",
      "lat": 37.4758425,
      "lng": 126.9831109,
      "phone": "02-3405-4078",
      "dong": "방배동"
    },
    {
      "naverPlaceId": "35992938",
      "name": "반포둥근마을공영주차장",
      "address": "서울특별시 서초구 서초중앙로31길 14-5",
      "roadAddress": "서울 서초구 서초중앙로31길 14-5 구립주차장",
      "lat": 37.5000344,
      "lng": 127.0104403,
      "phone": "02-2155-7287",
      "dong": "반포동"
    },
    {
      "naverPlaceId": "1727318611",
      "name": "양재공영주차장",
      "address": "서울특별시 서초구 양재천로 125-10",
      "roadAddress": "서울 서초구 양재천로 125-10 지하1~3층",
      "lat": 37.4786123,
      "lng": 127.0413711,
      "phone": "02-2155-7294",
      "dong": "양재동"
    },
    {
      "naverPlaceId": "36010863",
      "name": "서초구립 반포2동 공영 주차장",
      "address": "서울특별시 서초구 신반포로15길 6",
      "roadAddress": "서울 서초구 신반포로15길 6",
      "lat": 37.504686,
      "lng": 126.995777,
      "phone": "02-2155-7287",
      "dong": "반포동"
    },
    {
      "naverPlaceId": "1173758808",
      "name": "방배카페골목공영주차장",
      "address": "서울특별시 서초구 방배중앙로 193",
      "roadAddress": "서울 서초구 방배중앙로 193",
      "lat": 37.4962804,
      "lng": 126.9854012,
      "phone": "02-2155-7289",
      "dong": "방배동"
    },
    {
      "naverPlaceId": "31428041",
      "name": "복개도로제2지역공영주차장",
      "address": "서울특별시 서초구 방배동 493-5",
      "roadAddress": "",
      "lat": 37.4832734,
      "lng": 126.982619,
      "phone": "02-2155-7284",
      "dong": "방배동"
    },
    {
      "naverPlaceId": "36003303",
      "name": "매헌시민의숲 동측 공영주차장",
      "address": "서울특별시 서초구 양재동 237",
      "roadAddress": "",
      "lat": 37.472548,
      "lng": 127.038242,
      "phone": "02-2155-7284",
      "dong": "양재동"
    },
    {
      "naverPlaceId": "18749175",
      "name": "구룡어린이공원공영주차장",
      "address": "서울특별시 서초구 논현로5길 29",
      "roadAddress": "서울 서초구 논현로5길 29",
      "lat": 37.4717066,
      "lng": 127.0486974,
      "phone": "02-2155-7294",
      "dong": "양재동"
    },
    {
      "naverPlaceId": "31428042",
      "name": "방배복개도로제1지역공영주차장",
      "address": "서울특별시 서초구 방배동 493-3",
      "roadAddress": "",
      "lat": 37.4779993,
      "lng": 126.9826428,
      "phone": "02-2155-7284",
      "dong": "방배동"
    },
    {
      "naverPlaceId": "331323595",
      "name": "동산마을구립 공영주차장",
      "address": "서울특별시 서초구 강남대로8길 77",
      "roadAddress": "서울 서초구 강남대로8길 77",
      "lat": 37.4700879,
      "lng": 127.0443135,
      "phone": "02-2155-7268",
      "dong": "양재동"
    },
    {
      "naverPlaceId": "338762193",
      "name": "방배1동 공영 주차장",
      "address": "서울특별시 서초구 방배로23길 31-6",
      "roadAddress": "서울 서초구 방배로23길 31-6 방배1동 공영주차장",
      "lat": 37.4855188,
      "lng": 126.9924793,
      "phone": "02-2155-7289",
      "dong": "방배동"
    },
    {
      "naverPlaceId": "35824279",
      "name": "방배열린문화센터 공영 주차장",
      "address": "서울특별시 서초구 방배로 173",
      "roadAddress": "서울 서초구 방배로 173 방배열린문화센터",
      "lat": 37.489025,
      "lng": 126.9921448,
      "phone": "02-2155-7289",
      "dong": "방배동"
    },
    {
      "naverPlaceId": "1356617702",
      "name": "양재근린공원공영주차장",
      "address": "서울특별시 서초구 동산로 35",
      "roadAddress": "서울 서초구 동산로 35",
      "lat": 37.4714998,
      "lng": 127.0413726,
      "phone": "02-2155-7294",
      "dong": "양재동"
    },
    {
      "naverPlaceId": "21185911",
      "name": "잠원동방음언덕형 공영 주차장",
      "address": "서울특별시 서초구 잠원동 10-33",
      "roadAddress": "서울 서초구 강남대로101안길 33",
      "lat": 37.515876,
      "lng": 127.0159316,
      "phone": "02-2155-7287",
      "dong": "잠원동"
    },
    {
      "naverPlaceId": "36010864",
      "name": "반포동 방음언덕형 공영 주차장",
      "address": "서울특별시 서초구 주흥3길 34",
      "roadAddress": "서울 서초구 주흥3길 34",
      "lat": 37.5049282,
      "lng": 127.0183321,
      "phone": "02-2155-7287",
      "dong": "반포동"
    },
    {
      "naverPlaceId": "21186097",
      "name": "서래마을구립공영주차장(2026년6월예정)",
      "address": "서울특별시 서초구 서래로4길 5",
      "roadAddress": "서울 서초구 서래로4길 5",
      "lat": 37.4971916,
      "lng": 126.9986566,
      "phone": "02-2155-7287",
      "dong": "반포동"
    },
    {
      "naverPlaceId": "1579830321",
      "name": "서초구립무궁화공영주차장",
      "address": "서울특별시 서초구 서초대로54길 45",
      "roadAddress": "서울 서초구 서초대로54길 45 서초구립중앙노인종합복지관",
      "lat": 37.4923337,
      "lng": 127.016802,
      "phone": "02-2155-7289",
      "dong": "서초동"
    },
    {
      "naverPlaceId": "35824278",
      "name": "방배중앙로  노상 공영 주차장",
      "address": "서울특별시 서초구 방배동 760-3",
      "roadAddress": "서울 서초구 방배중앙로 193",
      "lat": 37.4946094,
      "lng": 126.9860166,
      "phone": "02-2155-7289",
      "dong": "방배동"
    },
    {
      "naverPlaceId": "35913849",
      "name": "언구비공영주차장",
      "address": "서울특별시 서초구 강남대로83길 55",
      "roadAddress": "서울 서초구 강남대로83길 55 언구비주차빌딩",
      "lat": 37.5047258,
      "lng": 127.0210135,
      "phone": "02-2155-7287",
      "dong": "반포동"
    },
    {
      "naverPlaceId": "461643074",
      "name": "서초구립중앙로공영주차장",
      "address": "서울특별시 서초구 방배중앙로 25",
      "roadAddress": "서울 서초구 방배중앙로 25",
      "lat": 37.48226,
      "lng": 126.992158,
      "phone": "02-2155-7289",
      "dong": "방배동"
    },
    {
      "naverPlaceId": "18755281",
      "name": "매헌시민의숲공영주차장",
      "address": "서울특별시 서초구 양재동 237-2",
      "roadAddress": "",
      "lat": 37.472974,
      "lng": 127.0381308,
      "phone": "02-2155-7284",
      "dong": "양재동"
    },
    {
      "naverPlaceId": "1422436572",
      "name": "서초구 반포복개천 공영주차장",
      "address": "서울특별시 서초구 반포동 57-1",
      "roadAddress": "서울 서초구 고무래로 35-2",
      "lat": 37.504082,
      "lng": 127.0102446,
      "phone": "02-2155-7287",
      "dong": "반포동"
    },
    {
      "naverPlaceId": "35992937",
      "name": "교대역동측공영주차장",
      "address": "서울특별시 서초구 서초대로 314",
      "roadAddress": "서울 서초구 서초대로 314",
      "lat": 37.4938206,
      "lng": 127.015501,
      "phone": "02-2155-7294",
      "dong": "서초동"
    },
    {
      "naverPlaceId": "21185737",
      "name": "법원입구도로공영주차장",
      "address": "서울특별시 서초구 서초동 1711-2",
      "roadAddress": "",
      "lat": 37.49379,
      "lng": 127.0108499,
      "phone": "02-2155-7289",
      "dong": "서초동"
    },
    {
      "naverPlaceId": "1349548599",
      "name": "방배역 노상 공영 주차장",
      "address": "서울특별시 서초구 방배동 910-16",
      "roadAddress": "서울 서초구 방배로 99-2",
      "lat": 37.4825207,
      "lng": 126.9968045,
      "phone": "02-2155-7289",
      "dong": "방배동"
    },
    {
      "naverPlaceId": "31116706",
      "name": "반포서래공영주차장",
      "address": "서울특별시 서초구 사평대로22길31",
      "roadAddress": "서울 서초구 사평대로22길 31",
      "lat": 37.498153,
      "lng": 126.9978315,
      "phone": "02-2155-7284",
      "dong": "반포동"
    },
    {
      "naverPlaceId": "1902875004",
      "name": "방배가구거리 노상 공영 주차장",
      "address": "서울특별시 서초구 방배동 758-3",
      "roadAddress": "서울 서초구 동작대로 198",
      "lat": 37.4942476,
      "lng": 126.9830713,
      "phone": "02-2155-7289",
      "dong": "방배동"
    },
    {
      "naverPlaceId": "1406122551",
      "name": "방배사이길 노상 공영 주차장",
      "address": "서울특별시 서초구 방배동 758-3",
      "roadAddress": "",
      "lat": 37.4954943,
      "lng": 126.9888828,
      "phone": "02-2155-7289",
      "dong": "방배동"
    },
    {
      "naverPlaceId": "34355357",
      "name": "양재시민의숲매헌역공영주차장",
      "address": "서울 서초구 양재동 237-2",
      "roadAddress": "",
      "lat": 37.4698,
      "lng": 127.0386028,
      "phone": "",
      "dong": "양재동"
    },
    {
      "naverPlaceId": "1281451917",
      "name": "서초문화예술회관주차장",
      "address": "서울 서초구 강남대로 201",
      "roadAddress": "",
      "lat": 37.4818405,
      "lng": 127.03598,
      "phone": "",
      "dong": "양재동"
    },
    {
      "naverPlaceId": "1958217612",
      "name": "양재근린공원 공영 주차장",
      "address": "서울 서초구 동산로 35",
      "roadAddress": "",
      "lat": 37.4715435,
      "lng": 127.0423848,
      "phone": "",
      "dong": "양재동"
    },
    {
      "naverPlaceId": "1617260994",
      "name": "매헌윤봉길의사기념관 공영 주차장",
      "address": "서울 서초구 강남대로 95-9",
      "roadAddress": "",
      "lat": 37.4695859,
      "lng": 127.0365588,
      "phone": "",
      "dong": "양재동"
    },
    {
      "naverPlaceId": "20820356",
      "name": "공영주차장",
      "address": "서울 서초구",
      "roadAddress": "",
      "lat": 37.4808721,
      "lng": 126.9824779,
      "phone": "",
      "dong": "방배동"
    },
    {
      "naverPlaceId": "21894000",
      "name": "동작대교노상공영주차장",
      "address": "서울 서초구 동작대로 350",
      "roadAddress": "",
      "lat": 37.5055082,
      "lng": 126.980825,
      "phone": "",
      "dong": "반포동"
    },
    {
      "naverPlaceId": "21186123",
      "name": "방음언덕형구립주차장",
      "address": "서울 서초구 주흥3길 34",
      "roadAddress": "",
      "lat": 37.5043403,
      "lng": 127.018557,
      "phone": "",
      "dong": "반포동"
    },
    {
      "naverPlaceId": "521865224",
      "name": "잠원 테니스장 앞 노상 공영 주차장",
      "address": "서울 서초구 잠원로 221-124 한강공원잠원안내센터",
      "roadAddress": "",
      "lat": 37.5201313,
      "lng": 127.0112605,
      "phone": "",
      "dong": "잠원동"
    },
    {
      "naverPlaceId": "37074199",
      "name": "서초구청 주차장",
      "address": "서울 서초구 남부순환로 2584 서초구청",
      "roadAddress": "",
      "lat": 37.483569,
      "lng": 127.032598,
      "phone": "",
      "dong": "서초동"
    },
    {
      "naverPlaceId": "1234026880",
      "name": "GS타임즈 교대역동측광장 공영주차장",
      "address": "서울 서초구 서초동 1673-7",
      "roadAddress": "",
      "lat": 37.493824,
      "lng": 127.015511,
      "phone": "",
      "dong": "서초동"
    },
    {
      "naverPlaceId": "1654509443",
      "name": "한강6잠원지구 잠원3,6주차장",
      "address": "서울 서초구 잠원로 145-57",
      "roadAddress": "",
      "lat": 37.5184614,
      "lng": 127.0089694,
      "phone": "",
      "dong": "잠원동"
    },
    {
      "naverPlaceId": "35977253",
      "name": "잠원수영장옆공영주차장",
      "address": "서울 서초구 잠원로 221-124 한강공원잠원안내센터",
      "roadAddress": "",
      "lat": 37.5185124,
      "lng": 127.008912,
      "phone": "",
      "dong": "잠원동"
    },
    {
      "naverPlaceId": "18758857",
      "name": "리버사이드서측길공영주차장",
      "address": "서울 서초구 잠원동",
      "roadAddress": "",
      "lat": 37.5184778,
      "lng": 127.0173976,
      "phone": "",
      "dong": "잠원동"
    },
    {
      "naverPlaceId": "1952188442",
      "name": "내곡동 공영주차장",
      "address": "서울특별시 서초구 신원동 283-1",
      "roadAddress": "서울특별시 서초구 청계산로9길 1-15",
      "lat": 37.4496487,
      "lng": 127.05447,
      "phone": "",
      "dong": "신원동"
    },
    {
      "naverPlaceId": "1654553592",
      "name": "청계산청룡공영주차장입구",
      "address": "서울특별시 서초구 신원동",
      "roadAddress": "",
      "lat": 37.4464045,
      "lng": 127.0593785,
      "phone": "",
      "dong": "신원동"
    },
    {
      "naverPlaceId": "18782590",
      "name": "청계산근린광장공영주차장입구",
      "address": "서울특별시 서초구 원지동",
      "roadAddress": "",
      "lat": 37.4463818,
      "lng": 127.0565553,
      "phone": "",
      "dong": "원지동"
    },
    {
      "naverPlaceId": "1061096593",
      "name": "투루파킹 구룡공원공영 주차장",
      "address": "서울특별시 서초구 양재동 399",
      "roadAddress": "서울특별시 서초구 논현로5길 29",
      "lat": 37.4716396,
      "lng": 127.0485046,
      "phone": "",
      "dong": "양재동"
    },
    {
      "naverPlaceId": "1945466942",
      "name": "반포천 공영주차장",
      "address": "서울특별시 서초구 반포동 118-3",
      "roadAddress": "서울특별시 서초구 사평대로 205",
      "lat": 37.5040144,
      "lng": 127.0066227,
      "phone": "",
      "dong": "반포동"
    },
    {
      "naverPlaceId": "37049197",
      "name": "더 리버 앞 공영 주차장",
      "address": "서울특별시 서초구 반포동 1333-1",
      "roadAddress": "서울특별시 서초구 동작대로 350",
      "lat": 37.5064864,
      "lng": 126.9849764,
      "phone": "",
      "dong": "반포동"
    },
    {
      "naverPlaceId": "18761941",
      "name": "방음언덕형구립공영주차장",
      "address": "서울특별시 서초구 반포동",
      "roadAddress": "",
      "lat": 37.5049573,
      "lng": 127.0182821,
      "phone": "",
      "dong": "반포동"
    },
    {
      "naverPlaceId": "1316704297",
      "name": "GS타임즈 반포제2 주차장",
      "address": "서울특별시 서초구 반포동 5-1",
      "roadAddress": "서울특별시 서초구 신반포로15길 6",
      "lat": 37.5043412,
      "lng": 126.995381,
      "phone": "",
      "dong": "반포동"
    },
    {
      "naverPlaceId": "37761654",
      "name": "동작대교 주차장",
      "address": "서울특별시 서초구 반포동 1333-1",
      "roadAddress": "서울특별시 서초구 동작대로 350",
      "lat": 37.5056826,
      "lng": 126.9809031,
      "phone": "",
      "dong": "반포동"
    },
    {
      "naverPlaceId": "1657988478",
      "name": "투루파킹 반포동방음언덕형공영 주차장",
      "address": "서울특별시 서초구 반포동 730",
      "roadAddress": "서울특별시 서초구 주흥3길 34",
      "lat": 37.5041138,
      "lng": 127.018662,
      "phone": "",
      "dong": "반포동"
    },
    {
      "naverPlaceId": "1655450640",
      "name": "방음언덕형 구립 공영주차장 지하 1층 대피소",
      "address": "서울특별시 서초구 반포동 730",
      "roadAddress": "서울특별시 서초구 주흥3길 34",
      "lat": 37.5041094,
      "lng": 127.0186721,
      "phone": "",
      "dong": "반포동"
    },
    {
      "naverPlaceId": "1308233179",
      "name": "서초구립서래마을공영주차장 지하 1~3층 대피소",
      "address": "서울특별시 서초구 반포동 90-7",
      "roadAddress": "서울특별시 서초구 서래로4길 5",
      "lat": 37.4971005,
      "lng": 126.9986627,
      "phone": "",
      "dong": "반포동"
    },
    {
      "naverPlaceId": "1415470088",
      "name": "언구비공영주차장 안심택배함",
      "address": "서울특별시 서초구 반포동 741-3 언구비주차빌딩",
      "roadAddress": "서울특별시 서초구 강남대로83길 55 언구비주차빌딩",
      "lat": 37.5047141,
      "lng": 127.0211257,
      "phone": "",
      "dong": "반포동"
    },
    {
      "naverPlaceId": "1980990487",
      "name": "언구비 공영주차장 전기차충전소",
      "address": "서울특별시 서초구 반포동 741-3",
      "roadAddress": "서울특별시 서초구 강남대로83길 55",
      "lat": 37.5047406,
      "lng": 127.0209449,
      "phone": "1566-1704",
      "dong": "반포동"
    },
    {
      "naverPlaceId": "1002293795",
      "name": "반포복개천 노상공영주차장 서울시 전기차충전소",
      "address": "서울특별시 서초구 반포동 120-1",
      "roadAddress": "서울특별시 서초구 고무래로 35-2",
      "lat": 37.5043637,
      "lng": 127.0101532,
      "phone": "02-2640-5199",
      "dong": "반포동"
    },
    {
      "naverPlaceId": "1899672693",
      "name": "공영주차장",
      "address": "서울특별시 서초구 방배동 493-2",
      "roadAddress": "서울특별시 서초구",
      "lat": 37.4799871,
      "lng": 126.9824504,
      "phone": "",
      "dong": "방배동"
    },
    {
      "naverPlaceId": "1588927768",
      "name": "방배1동 주민센터 주차장",
      "address": "서울특별시 서초구 방배동 922-18",
      "roadAddress": "서울특별시 서초구 효령로29길 43",
      "lat": 37.4833264,
      "lng": 126.9945121,
      "phone": "",
      "dong": "방배동"
    },
    {
      "naverPlaceId": "18746925",
      "name": "방배카페골목주차장",
      "address": "서울특별시 서초구 방배동 761-3",
      "roadAddress": "서울특별시 서초구 방배중앙로 193",
      "lat": 37.4961399,
      "lng": 126.9851219,
      "phone": "",
      "dong": "방배동"
    },
    {
      "naverPlaceId": "1580922400",
      "name": "투루파킹 이수공영 주차장",
      "address": "서울특별시 서초구 방배동 761-3",
      "roadAddress": "서울특별시 서초구 방배중앙로 193",
      "lat": 37.4962803,
      "lng": 126.9854011,
      "phone": "1688-1054",
      "dong": "방배동"
    },
    {
      "naverPlaceId": "21186162",
      "name": "주차장",
      "address": "서울특별시 서초구 방배동 388-5",
      "roadAddress": "",
      "lat": 37.4892567,
      "lng": 126.986636,
      "phone": "",
      "dong": "방배동"
    },
    {
      "naverPlaceId": "849646112",
      "name": "관현주차장",
      "address": "서울특별시 서초구 방배동 328-1",
      "roadAddress": "서울특별시 서초구 방배로23길 31-6",
      "lat": 37.4854589,
      "lng": 126.9924579,
      "phone": "0507-1447-1053",
      "dong": "방배동"
    },
    {
      "naverPlaceId": "1736134090",
      "name": "방배카페골목공영주차장 개방화장실",
      "address": "서울특별시 서초구 방배동 761-3",
      "roadAddress": "서울특별시 서초구 방배중앙로 193",
      "lat": 37.4962486,
      "lng": 126.9853271,
      "phone": "",
      "dong": "방배동"
    },
    {
      "naverPlaceId": "21185928",
      "name": "방배복개도로제1지역공영주차장입구",
      "address": "서울특별시 서초구 방배동",
      "roadAddress": "서울특별시 서초구",
      "lat": 37.4781329,
      "lng": 126.9825669,
      "phone": "",
      "dong": "방배동"
    },
    {
      "naverPlaceId": "1605976597",
      "name": "투루파킹 무궁화공영 주차장",
      "address": "서울특별시 서초구 서초동 1666-17",
      "roadAddress": "서울특별시 서초구 서초대로54길 45",
      "lat": 37.4923759,
      "lng": 127.0166554,
      "phone": "",
      "dong": "서초동"
    },
    {
      "naverPlaceId": "2017575416",
      "name": "네미시스 강남역",
      "address": "서울특별시 서초구 서초동 1307",
      "roadAddress": "",
      "lat": 37.5001062,
      "lng": 127.0248851,
      "phone": "02-1899-9653",
      "dong": "서초동"
    },
    {
      "naverPlaceId": "1597560389",
      "name": "무궁화 공영주차장 SK일렉링크 전기차충전소",
      "address": "서울특별시 서초구 서초동 1666-17",
      "roadAddress": "서울특별시 서초구 서초대로54길 45",
      "lat": 37.492316,
      "lng": 127.0167704,
      "phone": "1566-1704",
      "dong": "서초동"
    },
    {
      "naverPlaceId": "1616201219",
      "name": "쏘카 무궁화공영주차장",
      "address": "서울특별시 서초구 서초동 1666-17",
      "roadAddress": "서울특별시 서초구 서초대로54길 45",
      "lat": 37.4923209,
      "lng": 127.016744,
      "phone": "1661-8838",
      "dong": "서초동"
    },
    {
      "naverPlaceId": "1788801206",
      "name": "무궁화 공영주차장 환경부 전기차충전소",
      "address": "서울특별시 서초구 서초동 1666-17 서초구립중앙노인복지관 ( 1666-17)",
      "roadAddress": "서울특별시 서초구 서초대로54길 45 서초구립중앙노인복지관 (서초동 1666-17)",
      "lat": 37.492285,
      "lng": 127.0168429,
      "phone": "1661-9408",
      "dong": "서초동"
    },
    {
      "naverPlaceId": "1592454324",
      "name": "교대역동측공영주차장입구",
      "address": "서울특별시 서초구 서초동",
      "roadAddress": "",
      "lat": 37.4938405,
      "lng": 127.0157556,
      "phone": "",
      "dong": "서초동"
    },
    {
      "naverPlaceId": "1423608523",
      "name": "양재시민의숲 매헌역공영주차장 전기차충전소",
      "address": "서울특별시 서초구 양재동 237-2",
      "roadAddress": "",
      "lat": 37.4698556,
      "lng": 127.0386886,
      "phone": "1566-1704",
      "dong": "양재동"
    },
    {
      "naverPlaceId": "1179206623",
      "name": "동산마을 공영주차장 전기차충전소",
      "address": "서울특별시 서초구 양재동 370-5 동산마을구립주차장 ( 370-5)",
      "roadAddress": "서울특별시 서초구 강남대로8길 77 동산마을구립주차장 (양재동 370-5)",
      "lat": 37.4700908,
      "lng": 127.0443089,
      "phone": "1899-2100",
      "dong": "양재동"
    },
    {
      "naverPlaceId": "1631748788",
      "name": "청계산근린광장공영주차장 전기차충전소",
      "address": "서울특별시 서초구 원지동 360-3",
      "roadAddress": "",
      "lat": 37.4462162,
      "lng": 127.0566601,
      "phone": "1566-1704",
      "dong": "원지동"
    },
    {
      "naverPlaceId": "1274087676",
      "name": "동산마을구립 공영주차장입출구",
      "address": "서울특별시 서초구 양재동",
      "roadAddress": "",
      "lat": 37.4699858,
      "lng": 127.0444314,
      "phone": "",
      "dong": "양재동"
    },
    {
      "naverPlaceId": "1031840446",
      "name": "쏘카 양재시민의숲 매헌역 공영주차장",
      "address": "서울특별시 서초구 양재동 237-2",
      "roadAddress": "",
      "lat": 37.469724,
      "lng": 127.038504,
      "phone": "1661-8838",
      "dong": "양재동"
    },
    {
      "naverPlaceId": "1121427502",
      "name": "청계산근린광장 공영주차장 전기차충전소",
      "address": "서울특별시 서초구 원지동 360-3",
      "roadAddress": "",
      "lat": 37.4461302,
      "lng": 127.0564793,
      "phone": "1661-9408",
      "dong": "원지동"
    },
    {
      "naverPlaceId": "1166360597",
      "name": "양재시민의숲매헌역공영주차장입출구",
      "address": "서울특별시 서초구 양재동",
      "roadAddress": "",
      "lat": 37.4696757,
      "lng": 127.0385705,
      "phone": "",
      "dong": "양재동"
    },
    {
      "naverPlaceId": "1263514012",
      "name": "쏘카 청계산근린광장 공영노외주차장(하이파킹)",
      "address": "서울특별시 서초구 원지동 361-1",
      "roadAddress": "",
      "lat": 37.445934,
      "lng": 127.056809,
      "phone": "1661-8838",
      "dong": "원지동"
    },
    {
      "naverPlaceId": "2144011442",
      "name": "양재천근린공원공영주차장(2027년09월예정)",
      "address": "서울특별시 서초구 양재동 261-22",
      "roadAddress": "서울특별시 서초구 양재천동자전거길 447 양재천근린공원 공용화장실",
      "lat": 37.4760813,
      "lng": 127.0416693,
      "phone": "",
      "dong": "양재동"
    },
    {
      "naverPlaceId": "1415991529",
      "name": "양재시민의숲 동측공영주차장 전기차충전소",
      "address": "서울특별시 서초구 양재동 237",
      "roadAddress": "",
      "lat": 37.472259,
      "lng": 127.038191,
      "phone": "1566-1704",
      "dong": "양재동"
    },
    {
      "naverPlaceId": "1386432347",
      "name": "양재근린공원공영주차장입출구",
      "address": "서울특별시 서초구 양재동",
      "roadAddress": "",
      "lat": 37.4715249,
      "lng": 127.0412137,
      "phone": "",
      "dong": "양재동"
    },
    {
      "naverPlaceId": "1376084019",
      "name": "양재공영주차장 전기차충전소",
      "address": "서울특별시 서초구 양재동 90-2",
      "roadAddress": "서울특별시 서초구 양재천로 125-10",
      "lat": 37.4786091,
      "lng": 127.0413606,
      "phone": "1566-1704",
      "dong": "양재동"
    },
    {
      "naverPlaceId": "1332747141",
      "name": "양재근린공원 공영주차장 전기차충전소",
      "address": "서울특별시 서초구 양재동 311",
      "roadAddress": "서울특별시 서초구 동산로 35",
      "lat": 37.4715759,
      "lng": 127.0413717,
      "phone": "1661-9408",
      "dong": "양재동"
    },
    {
      "naverPlaceId": "1015744231",
      "name": "서초구 언남문화체육센터 공영주차장 전기차충전소",
      "address": "서울특별시 서초구 양재동 309",
      "roadAddress": "서울특별시 서초구 동산로13길 35",
      "lat": 37.4729033,
      "lng": 127.0441752,
      "phone": "1566-1704",
      "dong": "양재동"
    },
    {
      "naverPlaceId": "1324005362",
      "name": "한신공영빌딩주차장",
      "address": "서울특별시 서초구 잠원동 65-32 한신공영빌딩 1층",
      "roadAddress": "서울특별시 서초구 잠원로 94 한신공영빌딩 1층",
      "lat": 37.5127259,
      "lng": 127.0068701,
      "phone": "",
      "dong": "잠원동"
    },
    {
      "naverPlaceId": "1403402772",
      "name": "잠원동방음언덕형 공영주차장 전기차충전소",
      "address": "서울특별시 서초구 잠원동 10-33",
      "roadAddress": "",
      "lat": 37.516,
      "lng": 127.01621,
      "phone": "1899-2100",
      "dong": "잠원동"
    },
    {
      "naverPlaceId": "1060979483",
      "name": "쏘카 잠원동방음언덕형 공영주차장(GS파크)",
      "address": "서울특별시 서초구 잠원동 89-5",
      "roadAddress": "",
      "lat": 37.515822,
      "lng": 127.016155,
      "phone": "1661-8838",
      "dong": "잠원동"
    },
    {
      "naverPlaceId": "18758981",
      "name": "잠원동방음언덕형공영주차장입구",
      "address": "서울특별시 서초구 잠원동",
      "roadAddress": "",
      "lat": 37.5158425,
      "lng": 127.0161333,
      "phone": "",
      "dong": "잠원동"
    },
    {
      "naverPlaceId": "1748943280",
      "name": "잠원동방음언덕형공영주차장 전기차충전소",
      "address": "서울특별시 서초구 잠원동 16-6",
      "roadAddress": "",
      "lat": 37.515793,
      "lng": 127.01613,
      "phone": "1566-1704",
      "dong": "잠원동"
    }
  ],
  "sido": "서울특별시",
  "sigungu": "서초구",
  "totalCount": 95,
  "source": "naver-map",
  "scrapedAt": "2026-02-10"
}