{
  "items": [
    {
      "naverPlaceId": "2143892913",
      "name": "옥수역 공영주차장",
      "address": "서울특별시 성동구 옥수동 401-1",
      "roadAddress": "서울 성동구",
      "lat": 37.5411849,
      "lng": 127.0191368,
      "phone": "",
      "dong": "옥수동"
    },
    {
      "naverPlaceId": "70874747",
      "name": "마장동공영주차장",
      "address": "서울특별시 성동구 무학로14길 45",
      "roadAddress": "서울 성동구 청계천로10나길 38",
      "lat": 37.5699395,
      "lng": 127.0351425,
      "phone": "02-2290-6449",
      "dong": "마장동"
    },
    {
      "naverPlaceId": "21185730",
      "name": "성수2가3동 공영주차장",
      "address": "서울 성동구 광나루로4가길 23",
      "roadAddress": "",
      "lat": 37.5491222,
      "lng": 127.0551519,
      "phone": "",
      "dong": "성수2가3동"
    },
    {
      "naverPlaceId": "1498427512",
      "name": "뚝섬유수지 공영주차장",
      "address": "서울 성동구 왕십리로11길 23",
      "roadAddress": "",
      "lat": 37.5494903,
      "lng": 127.0415215,
      "phone": "",
      "dong": "성수2가1동"
    },
    {
      "naverPlaceId": "1242189166",
      "name": "성수1가1동공영주차장",
      "address": "서울 성동구 성덕정1길 6 성수1가동 공영주차장",
      "roadAddress": "",
      "lat": 37.5399443,
      "lng": 127.0463857,
      "phone": "",
      "dong": "가동"
    },
    {
      "naverPlaceId": "36003240",
      "name": "서울숲 주차장",
      "address": "서울 성동구 성수동1가 643",
      "roadAddress": "",
      "lat": 37.5415283,
      "lng": 127.0426346,
      "phone": "",
      "dong": "성수동1"
    },
    {
      "naverPlaceId": "697052846",
      "name": "성수2가1동공영주차장",
      "address": "서울 성동구 성덕정길 115",
      "roadAddress": "",
      "lat": 37.5370738,
      "lng": 127.0562397,
      "phone": "",
      "dong": "성수2가1동"
    },
    {
      "naverPlaceId": "36003234",
      "name": "살곶이체육공원공영주차장",
      "address": "서울 성동구 살곶이길 271 살곶이인라인 공중화장실",
      "roadAddress": "",
      "lat": 37.5540048,
      "lng": 127.0485332,
      "phone": "",
      "dong": "사근동"
    },
    {
      "naverPlaceId": "915701270",
      "name": "마장축산물시장 서문 공영 주차장",
      "address": "서울 성동구 고산자로26길 6 마장축산물시장 서문 공영주차장",
      "roadAddress": "",
      "lat": 37.5704702,
      "lng": 127.0382974,
      "phone": "",
      "dong": "마장동"
    },
    {
      "naverPlaceId": "1258982271",
      "name": "성동구민종합체육센터 주차장",
      "address": "서울 성동구 왕십리로 89",
      "roadAddress": "",
      "lat": 37.5454667,
      "lng": 127.0442154,
      "phone": "",
      "dong": "행당동"
    },
    {
      "naverPlaceId": "18799366",
      "name": "용답동공영주차장",
      "address": "서울 성동구 용답29길 22",
      "roadAddress": "",
      "lat": 37.5644784,
      "lng": 127.054214,
      "phone": "",
      "dong": "용답동"
    },
    {
      "naverPlaceId": "36046370",
      "name": "성동구청주차장",
      "address": "서울 성동구 고산자로 270 청소년수련관",
      "roadAddress": "",
      "lat": 37.5633966,
      "lng": 127.0367425,
      "phone": "",
      "dong": "행당동"
    },
    {
      "naverPlaceId": "21185749",
      "name": "공영주차장",
      "address": "서울 성동구 성수이로2길 12",
      "roadAddress": "",
      "lat": 37.5367071,
      "lng": 127.0540399,
      "phone": "",
      "dong": "성수2가3동"
    },
    {
      "naverPlaceId": "565269828",
      "name": "마장 현대아파트 앞적십자 노상 공영 주차장",
      "address": "서울 성동구 마장동",
      "roadAddress": "",
      "lat": 37.5674544,
      "lng": 127.0398272,
      "phone": "",
      "dong": "마장동"
    },
    {
      "naverPlaceId": "1592777135",
      "name": "금남시장공영주차장",
      "address": "서울 성동구 독서당로 309-11",
      "roadAddress": "",
      "lat": 37.548338,
      "lng": 127.0232168,
      "phone": "",
      "dong": "금호동4가"
    },
    {
      "naverPlaceId": "36003308",
      "name": "금호초등학교 공영주차장",
      "address": "서울 성동구 무수막길 69 금호초등학교",
      "roadAddress": "",
      "lat": 37.5523211,
      "lng": 127.0195553,
      "phone": "",
      "dong": "금호동2가"
    },
    {
      "naverPlaceId": "1333842225",
      "name": "금호동1가공영주차장",
      "address": "서울 성동구 금호동1가 636",
      "roadAddress": "",
      "lat": 37.5508478,
      "lng": 127.026354,
      "phone": "",
      "dong": "금호동1"
    },
    {
      "naverPlaceId": "1824050468",
      "name": "대현산 배수지 공영주차장",
      "address": "서울 성동구 금호동1가 103",
      "roadAddress": "",
      "lat": 37.5561223,
      "lng": 127.0201145,
      "phone": "",
      "dong": "금호동1"
    },
    {
      "naverPlaceId": "21185810",
      "name": "하왕십리동공영주차장",
      "address": "서울 성동구 무학봉길 48 공영주차장",
      "roadAddress": "",
      "lat": 37.5603167,
      "lng": 127.0279375,
      "phone": "",
      "dong": "행당동"
    },
    {
      "naverPlaceId": "36003307",
      "name": "응봉동 공영주차장",
      "address": "서울 성동구 독서당로63길 40 응봉동 공영주차장",
      "roadAddress": "",
      "lat": 37.5533961,
      "lng": 127.0307167,
      "phone": "",
      "dong": "행당동"
    },
    {
      "naverPlaceId": "2141814030",
      "name": "행당동 공영주차장",
      "address": "서울 성동구 고산자로2길 71",
      "roadAddress": "",
      "lat": 37.5566593,
      "lng": 127.0360767,
      "phone": "",
      "dong": "행당동"
    },
    {
      "naverPlaceId": "1927460549",
      "name": "행당제1동 주민센터 주차장",
      "address": "서울 성동구 고산자로10길 18",
      "roadAddress": "",
      "lat": 37.5584027,
      "lng": 127.0361602,
      "phone": "",
      "dong": "행당동"
    },
    {
      "naverPlaceId": "18775307",
      "name": "사근동공영주차장",
      "address": "서울 성동구 사근동",
      "roadAddress": "",
      "lat": 37.5649948,
      "lng": 127.0472898,
      "phone": "",
      "dong": "사근동"
    },
    {
      "naverPlaceId": "1437780048",
      "name": "옥수유수지공영주차장",
      "address": "서울 성동구 옥수동 77-3",
      "roadAddress": "",
      "lat": 37.5413533,
      "lng": 127.0184237,
      "phone": "",
      "dong": "옥수동"
    },
    {
      "naverPlaceId": "36003241",
      "name": "옥수역노상공영주차장",
      "address": "서울 성동구 한림말5길 20",
      "roadAddress": "",
      "lat": 37.5417791,
      "lng": 127.0170367,
      "phone": "",
      "dong": "옥수동"
    },
    {
      "naverPlaceId": "21185578",
      "name": "공영주차장",
      "address": "서울 성동구 한림말5길 20",
      "roadAddress": "",
      "lat": 37.5423083,
      "lng": 127.017325,
      "phone": "",
      "dong": "옥수동"
    },
    {
      "naverPlaceId": "1157382147",
      "name": "옥수유수지  공영 주차장",
      "address": "서울 성동구 옥수동 77-3",
      "roadAddress": "",
      "lat": 37.5413573,
      "lng": 127.0181867,
      "phone": "",
      "dong": "옥수동"
    },
    {
      "naverPlaceId": "18780901",
      "name": "금호초등학교 공영주차장입구",
      "address": "서울특별시 성동구 금호동2가",
      "roadAddress": "",
      "lat": 37.5522532,
      "lng": 127.0194726,
      "phone": "",
      "dong": "성동"
    },
    {
      "naverPlaceId": "1181404525",
      "name": "금호동1가공영주차장입구",
      "address": "서울특별시 성동구 금호동1가",
      "roadAddress": "",
      "lat": 37.5510089,
      "lng": 127.0263659,
      "phone": "",
      "dong": "성동"
    },
    {
      "naverPlaceId": "1264381602",
      "name": "금호동1가공영주차장입구",
      "address": "서울특별시 성동구 금호동1가",
      "roadAddress": "",
      "lat": 37.5506747,
      "lng": 127.0263431,
      "phone": "",
      "dong": "성동"
    },
    {
      "naverPlaceId": "1986613130",
      "name": "대현산 배수지 공영주차장입구",
      "address": "서울특별시 성동구 금호동1가",
      "roadAddress": "",
      "lat": 37.5561687,
      "lng": 127.0200677,
      "phone": "",
      "dong": "성동"
    },
    {
      "naverPlaceId": "1235562172",
      "name": "성동구 금호초등학교 공영주차장 전기차충전소",
      "address": "서울특별시 성동구 금호동2가 511",
      "roadAddress": "서울특별시 성동구 무수막길 69",
      "lat": 37.5525373,
      "lng": 127.0201047,
      "phone": "1833-9131",
      "dong": "성동"
    },
    {
      "naverPlaceId": "1235526271",
      "name": "성동구 금호동1가 공영주차장 전기차충전소",
      "address": "서울특별시 성동구 금호동1가 639-3",
      "roadAddress": "",
      "lat": 37.5507396,
      "lng": 127.0266467,
      "phone": "1833-9131",
      "dong": "성동"
    },
    {
      "naverPlaceId": "37113822",
      "name": "G car zone 금호초교 공영주차장",
      "address": "서울특별시 성동구 금호동2가 511",
      "roadAddress": "서울특별시 성동구 무수막길 69",
      "lat": 37.5523201,
      "lng": 127.0194061,
      "phone": "1899-1313",
      "dong": "성동"
    },
    {
      "naverPlaceId": "1343520623",
      "name": "금호초교 공영주차장 전기차충전소",
      "address": "서울특별시 성동구 금호동2가 510-3",
      "roadAddress": "서울특별시 성동구 금호산12길 3",
      "lat": 37.552206,
      "lng": 127.020326,
      "phone": "02-1833-4903",
      "dong": "성동"
    },
    {
      "naverPlaceId": "36003306",
      "name": "도선동공영주차장",
      "address": "서울특별시 성동구 홍익동 369",
      "roadAddress": "서울특별시 성동구 무학로8길 8",
      "lat": 37.5654497,
      "lng": 127.0316594,
      "phone": "02-2204-7982",
      "dong": "성동"
    },
    {
      "naverPlaceId": "36003236",
      "name": "홍익동 공영주차장",
      "address": "서울특별시 성동구 홍익동 252 공영주차장",
      "roadAddress": "서울특별시 성동구 무학로10길 28 홍익동 공영주차장",
      "lat": 37.5655963,
      "lng": 127.0338966,
      "phone": "02-2204-7982",
      "dong": "성동"
    },
    {
      "naverPlaceId": "21185837",
      "name": "도선동공영주차장",
      "address": "서울특별시 성동구 홍익동 369 도선동공영주차장",
      "roadAddress": "서울특별시 성동구 무학로8길 8 도선동공영주차장",
      "lat": 37.5653528,
      "lng": 127.0314913,
      "phone": "",
      "dong": "성동"
    },
    {
      "naverPlaceId": "1286388883",
      "name": "홍익동 공영주차장 전기차충전소",
      "address": "서울특별시 성동구 홍익동 252-2",
      "roadAddress": "",
      "lat": 37.5656089,
      "lng": 127.0338592,
      "phone": "02-1833-4903",
      "dong": "성동"
    },
    {
      "naverPlaceId": "1695012296",
      "name": "도선동공영주차장 개방화장실",
      "address": "서울특별시 성동구 홍익동 297",
      "roadAddress": "서울특별시 성동구 무학로8길 12",
      "lat": 37.5655101,
      "lng": 127.0317665,
      "phone": "",
      "dong": "성동"
    },
    {
      "naverPlaceId": "1872099618",
      "name": "도선동 공영주차장 전기차충전소",
      "address": "서울특별시 성동구 홍익동 369",
      "roadAddress": "서울특별시 성동구 무학로8길 8",
      "lat": 37.5654848,
      "lng": 127.0314075,
      "phone": "02-1833-4903",
      "dong": "성동"
    },
    {
      "naverPlaceId": "1896297643",
      "name": "쏘카 도선마을공원 공영주차장",
      "address": "서울특별시 성동구 홍익동 369 도선마을공원 공영주차장",
      "roadAddress": "서울특별시 성동구 무학로8길 8 도선마을공원 공영주차장",
      "lat": 37.565547,
      "lng": 127.031662,
      "phone": "1661-8838",
      "dong": "성동"
    },
    {
      "naverPlaceId": "1423334383",
      "name": "홍익동 공영주차장입구",
      "address": "서울특별시 성동구 홍익동",
      "roadAddress": "",
      "lat": 37.5658139,
      "lng": 127.0338651,
      "phone": "",
      "dong": "성동"
    },
    {
      "naverPlaceId": "1244698876",
      "name": "성동구 홍익동 공영주차장 전기차충전소",
      "address": "서울특별시 성동구 홍익동 252",
      "roadAddress": "서울특별시 성동구 무학로10길 28",
      "lat": 37.5656467,
      "lng": 127.0339432,
      "phone": "1833-9131",
      "dong": "성동"
    },
    {
      "naverPlaceId": "1784680529",
      "name": "성동구 도선동 공영주차장 전기차충전소",
      "address": "서울특별시 성동구 홍익동 373-1",
      "roadAddress": "서울특별시 성동구 무학로6길 9",
      "lat": 37.5656329,
      "lng": 127.0311235,
      "phone": "1833-9131",
      "dong": "성동"
    },
    {
      "naverPlaceId": "1841291344",
      "name": "도선동공영주차장입출구",
      "address": "서울특별시 성동구 홍익동",
      "roadAddress": "",
      "lat": 37.5656086,
      "lng": 127.0317796,
      "phone": "",
      "dong": "성동"
    },
    {
      "naverPlaceId": "1700591572",
      "name": "마장축산물시장 공영주차장",
      "address": "서울특별시 성동구 마장동 525-2",
      "roadAddress": "서울특별시 성동구 살곶이길 18",
      "lat": 37.5714272,
      "lng": 127.040528,
      "phone": "",
      "dong": "성동"
    },
    {
      "naverPlaceId": "579226258",
      "name": "마장 축산물시장 북문 노상 공영 주차장",
      "address": "서울특별시 성동구 마장동 803",
      "roadAddress": "서울특별시 성동구 살곶이길 40 마장동우시장먹자골목",
      "lat": 37.5708425,
      "lng": 127.0419115,
      "phone": "",
      "dong": "성동"
    },
    {
      "naverPlaceId": "2140478651",
      "name": "마장축산물시장북문 임시공영주차장",
      "address": "서울특별시 성동구 마장동 437",
      "roadAddress": "서울특별시 성동구 살곶이길 40",
      "lat": 37.5710676,
      "lng": 127.0414959,
      "phone": "",
      "dong": "성동"
    },
    {
      "naverPlaceId": "36003242",
      "name": "마장축산물시장남문노상공영주차장",
      "address": "서울특별시 성동구 마장동 805",
      "roadAddress": "서울특별시 성동구 마장로39가길 32",
      "lat": 37.5683553,
      "lng": 127.0407072,
      "phone": "",
      "dong": "성동"
    },
    {
      "naverPlaceId": "38313827",
      "name": "마장축산물시장 대형버스 노상 공영 주차장",
      "address": "서울특별시 성동구 마장동 474-28",
      "roadAddress": "서울특별시 성동구 고산자로 340-1",
      "lat": 37.5716358,
      "lng": 127.0382897,
      "phone": "02-2204-7976",
      "dong": "성동"
    },
    {
      "naverPlaceId": "1583712920",
      "name": "공영주차장",
      "address": "서울특별시 성동구 마장동 527-10",
      "roadAddress": "서울특별시 성동구 청계천로 546 성동구도시관리공단) 1층 성동구도시관리공단",
      "lat": 37.5717268,
      "lng": 127.0369167,
      "phone": "02-2204-7970",
      "dong": "성동"
    },
    {
      "naverPlaceId": "1184509433",
      "name": "마장 주민센터 앞 노상 공영 주차장",
      "address": "서울특별시 성동구 마장동 810",
      "roadAddress": "",
      "lat": 37.5659901,
      "lng": 127.0456267,
      "phone": "",
      "dong": "성동"
    },
    {
      "naverPlaceId": "36003233",
      "name": "마장현대아파트노상공영주차장",
      "address": "서울특별시 성동구 마장동 804",
      "roadAddress": "",
      "lat": 37.5701766,
      "lng": 127.0431873,
      "phone": "02-2292-7801",
      "dong": "성동"
    },
    {
      "naverPlaceId": "1163556507",
      "name": "마장동평면공영주차장",
      "address": "서울특별시 성동구 마장동 459-6",
      "roadAddress": "서울특별시 성동구 무학로14길 45",
      "lat": 37.5691676,
      "lng": 127.0348767,
      "phone": "",
      "dong": "성동"
    },
    {
      "naverPlaceId": "1418520959",
      "name": "마장동건물  공영 주차장",
      "address": "서울특별시 성동구 마장동 463-2",
      "roadAddress": "서울특별시 성동구 청계천로10나길 38",
      "lat": 37.569933,
      "lng": 127.035128,
      "phone": "",
      "dong": "성동"
    },
    {
      "naverPlaceId": "36003404",
      "name": "노상공영주차장",
      "address": "서울특별시 성동구 마장동 513-21",
      "roadAddress": "",
      "lat": 37.5679053,
      "lng": 127.0385698,
      "phone": "02-2299-7802",
      "dong": "성동"
    },
    {
      "naverPlaceId": "1080582521",
      "name": "서울특별시성동구도시관리공단 공영주차장",
      "address": "서울특별시 성동구 마장동 527-10",
      "roadAddress": "서울특별시 성동구 청계천로 546",
      "lat": 37.5717268,
      "lng": 127.0369167,
      "phone": "02-2204-7982",
      "dong": "성동"
    },
    {
      "naverPlaceId": "1700897872",
      "name": "마장축산물시장서문공영주차장입출구",
      "address": "서울특별시 성동구 마장동",
      "roadAddress": "",
      "lat": 37.5706951,
      "lng": 127.0383187,
      "phone": "",
      "dong": "성동"
    },
    {
      "naverPlaceId": "1572664188",
      "name": "성동구 마장축산물시장 서문 공영주차장 전기차충전소",
      "address": "서울특별시 성동구 마장동 522-1",
      "roadAddress": "서울특별시 성동구 고산자로26길 6",
      "lat": 37.5704228,
      "lng": 127.0383812,
      "phone": "1833-9131",
      "dong": "성동"
    },
    {
      "naverPlaceId": "1979118829",
      "name": "마장축산물시장 공영주차장입구",
      "address": "서울특별시 성동구 마장동",
      "roadAddress": "",
      "lat": 37.5714909,
      "lng": 127.0399968,
      "phone": "",
      "dong": "성동"
    },
    {
      "naverPlaceId": "1966112499",
      "name": "마장축산물시장 공영주차장 지상2층 전기차충전소",
      "address": "서울특별시 성동구 마장동 525-1",
      "roadAddress": "서울특별시 성동구 살곶이길 18",
      "lat": 37.5713218,
      "lng": 127.0408,
      "phone": "1522-2573",
      "dong": "성동"
    },
    {
      "naverPlaceId": "1356858225",
      "name": "마장축산물시장 공영주차장 전기차충전소",
      "address": "서울특별시 성동구 마장동 525-1",
      "roadAddress": "서울특별시 성동구 살곶이길 18",
      "lat": 37.571437,
      "lng": 127.040391,
      "phone": "1522-2573",
      "dong": "성동"
    },
    {
      "naverPlaceId": "1942035750",
      "name": "하왕십리역공영주차장 안심택배함",
      "address": "서울특별시 성동구 행당동 347-3",
      "roadAddress": "서울특별시 성동구 무학봉길 48",
      "lat": 37.5602747,
      "lng": 127.0279009,
      "phone": "",
      "dong": "성동"
    },
    {
      "naverPlaceId": "21779818",
      "name": "살곶이체육공원공영주차장입구",
      "address": "서울특별시 성동구 사근동",
      "roadAddress": "서울특별시 성동구",
      "lat": 37.5543426,
      "lng": 127.048463,
      "phone": "",
      "dong": "성동"
    },
    {
      "naverPlaceId": "1983389227",
      "name": "쏘카 하왕십리 공영주차장",
      "address": "서울특별시 성동구 행당동 347-3",
      "roadAddress": "서울특별시 성동구 무학봉길 48",
      "lat": 37.560322,
      "lng": 127.02802,
      "phone": "1661-8838",
      "dong": "성동"
    },
    {
      "naverPlaceId": "1169022228",
      "name": "응봉동 공영주차장 스타코프 전기차충전소",
      "address": "서울특별시 성동구 행당동 341-59",
      "roadAddress": "서울특별시 성동구 독서당로63길 40",
      "lat": 37.5534423,
      "lng": 127.0307189,
      "phone": "02-1833-4903",
      "dong": "성동"
    },
    {
      "naverPlaceId": "1244691729",
      "name": "하왕십리 공영주차장 스타코프 전기차충전소",
      "address": "서울특별시 성동구 행당동 347-3",
      "roadAddress": "서울특별시 성동구 무학봉길 48",
      "lat": 37.5602716,
      "lng": 127.0279046,
      "phone": "02-1833-4903",
      "dong": "성동"
    },
    {
      "naverPlaceId": "1374146353",
      "name": "응봉동 공영주차장 환경부 전기차충전소",
      "address": "서울특별시 성동구 행당동 341-59",
      "roadAddress": "서울특별시 성동구 독서당로63길 40",
      "lat": 37.5533896,
      "lng": 127.0307493,
      "phone": "1661-9408",
      "dong": "성동"
    },
    {
      "naverPlaceId": "1516101591",
      "name": "하왕십리 공영주차장 환경부 전기차충전소",
      "address": "서울특별시 성동구 행당동 347-3",
      "roadAddress": "서울특별시 성동구 무학봉길 48",
      "lat": 37.5602716,
      "lng": 127.0279046,
      "phone": "1661-9408",
      "dong": "성동"
    },
    {
      "naverPlaceId": "18777998",
      "name": "응봉동 공영주차장입구",
      "address": "서울특별시 성동구 행당동",
      "roadAddress": "",
      "lat": 37.5533169,
      "lng": 127.030666,
      "phone": "",
      "dong": "성동"
    },
    {
      "naverPlaceId": "36003354",
      "name": "청계8가노상공영주차장",
      "address": "서울특별시 성동구 상왕십리동 12-47",
      "roadAddress": "서울특별시 성동구 난계로24길 19",
      "lat": 37.5709793,
      "lng": 127.0249043,
      "phone": "",
      "dong": "성동"
    },
    {
      "naverPlaceId": "1831287057",
      "name": "성수1가2동공영주차장",
      "address": "서울특별시 성동구 성수동1가 13-22",
      "roadAddress": "",
      "lat": 37.5500471,
      "lng": 127.0497984,
      "phone": "",
      "dong": "성동"
    },
    {
      "naverPlaceId": "21185858",
      "name": "유료노상공영주차장",
      "address": "서울특별시 성동구 성수동2가 277-17 성수아카데미타워",
      "roadAddress": "서울특별시 성동구 성수이로 118 성수아카데미타워",
      "lat": 37.5449755,
      "lng": 127.0580899,
      "phone": "",
      "dong": "성동"
    },
    {
      "naverPlaceId": "21185949",
      "name": "노상공영주차장",
      "address": "서울특별시 성동구 성수동2가",
      "roadAddress": "",
      "lat": 37.544683,
      "lng": 127.0612,
      "phone": "",
      "dong": "성동"
    },
    {
      "naverPlaceId": "36266211",
      "name": "성수문화복지회관 주차장",
      "address": "서울특별시 성동구 성수동1가 656-323 성수문화복지회관",
      "roadAddress": "서울특별시 성동구 뚝섬로1길 43 성수문화복지회관",
      "lat": 37.5453799,
      "lng": 127.0470097,
      "phone": "02-2204-7566",
      "dong": "성동"
    },
    {
      "naverPlaceId": "36003229",
      "name": "뚝도시장노상공영주차장",
      "address": "서울특별시 성동구 성수동2가 335-166",
      "roadAddress": "",
      "lat": 37.5383097,
      "lng": 127.0547825,
      "phone": "02-461-0484",
      "dong": "성동"
    },
    {
      "naverPlaceId": "1657073101",
      "name": "성수1가제1동 주민센터 주차장",
      "address": "서울특별시 성동구 성수동1가 27-23",
      "roadAddress": "서울특별시 성동구 뚝섬로3길 18",
      "lat": 37.5420614,
      "lng": 127.0496866,
      "phone": "",
      "dong": "성동"
    },
    {
      "naverPlaceId": "21186197",
      "name": "강변공영주차장",
      "address": "서울특별시 성동구 성수동1가 366-1 강변공영주차장",
      "roadAddress": "서울특별시 성동구 둘레길 47-5 강변공영주차장",
      "lat": 37.5369071,
      "lng": 127.0488654,
      "phone": "02-2204-7970",
      "dong": "성동"
    },
    {
      "naverPlaceId": "1148054853",
      "name": "성동구민종합센터 부설주차장",
      "address": "서울특별시 성동구 성수동1가 685-697",
      "roadAddress": "서울특별시 성동구 왕십리로 89",
      "lat": 37.5458722,
      "lng": 127.0439963,
      "phone": "",
      "dong": "성동"
    },
    {
      "naverPlaceId": "21185762",
      "name": "공영주차장",
      "address": "서울특별시 성동구 성수동2가 335-166",
      "roadAddress": "",
      "lat": 37.538257,
      "lng": 127.0545397,
      "phone": "",
      "dong": "성동"
    },
    {
      "naverPlaceId": "1350307191",
      "name": "성수2가1동(건물) 주차장",
      "address": "서울특별시 성동구 성수동2가 571-1",
      "roadAddress": "서울특별시 성동구 성덕정길 115",
      "lat": 37.5371671,
      "lng": 127.0561967,
      "phone": "",
      "dong": "성동"
    },
    {
      "naverPlaceId": "1128584124",
      "name": "KT성수분국공영주차장",
      "address": "서울특별시 성동구 성수동2가 278-50",
      "roadAddress": "서울특별시 성동구 아차산로9길 30-21",
      "lat": 37.5453979,
      "lng": 127.0615218,
      "phone": "",
      "dong": "성동"
    },
    {
      "naverPlaceId": "21185799",
      "name": "KT성수분국 노상 공영 주차장",
      "address": "서울특별시 성동구 성수동2가 278-50",
      "roadAddress": "서울특별시 성동구 아차산로9길 30-21",
      "lat": 37.5463668,
      "lng": 127.0629411,
      "phone": "",
      "dong": "성동"
    },
    {
      "naverPlaceId": "777800738",
      "name": "노상공영주차장",
      "address": "서울특별시 성동구 성수동2가 279",
      "roadAddress": "서울특별시 성동구 아차산로13길 38",
      "lat": 37.5463143,
      "lng": 127.0619639,
      "phone": "",
      "dong": "성동"
    },
    {
      "naverPlaceId": "1759791566",
      "name": "성동구민종합센터 부설주차장",
      "address": "서울특별시 성동구 성수동1가 685-697",
      "roadAddress": "서울특별시 성동구 왕십리로 89",
      "lat": 37.5458701,
      "lng": 127.0440144,
      "phone": "",
      "dong": "성동"
    },
    {
      "naverPlaceId": "44413415",
      "name": "성동구 송정동 공영주차장",
      "address": "서울특별시 성동구 송정동 68-57",
      "roadAddress": "서울특별시 성동구 동일로 199",
      "lat": 37.5499473,
      "lng": 127.0680507,
      "phone": "",
      "dong": "성동"
    },
    {
      "naverPlaceId": "1429182136",
      "name": "옥수유수지공영주차장입구",
      "address": "서울특별시 성동구 옥수동",
      "roadAddress": "",
      "lat": 37.5414581,
      "lng": 127.0178661,
      "phone": "",
      "dong": "성동"
    },
    {
      "naverPlaceId": "1828012709",
      "name": "성동구 옥수유수지 공영주차장 전기차충전소",
      "address": "서울특별시 성동구 옥수동 77-3",
      "roadAddress": "",
      "lat": 37.5413918,
      "lng": 127.0182627,
      "phone": "1833-9131",
      "dong": "성동"
    },
    {
      "naverPlaceId": "1569635064",
      "name": "응봉동(평면) 공영주차장",
      "address": "서울특별시 성동구 응봉동 3-11 응봉자전거대여소 공중화장실",
      "roadAddress": "서울특별시 성동구 고산자로 125-18 응봉자전거대여소 공중화장실",
      "lat": 37.5508673,
      "lng": 127.0347385,
      "phone": "02-2204-7982",
      "dong": "성동"
    },
    {
      "naverPlaceId": "1113403753",
      "name": "응봉동(평면) 공영주차장입구",
      "address": "서울특별시 성동구 응봉동",
      "roadAddress": "",
      "lat": 37.5510576,
      "lng": 127.0348895,
      "phone": "",
      "dong": "성동"
    },
    {
      "naverPlaceId": "36003353",
      "name": "청계8가노상공영주차장",
      "address": "서울특별시 성동구 하왕십리동 301-9",
      "roadAddress": "",
      "lat": 37.569668,
      "lng": 127.0295881,
      "phone": "",
      "dong": "성동"
    },
    {
      "naverPlaceId": "1661274609",
      "name": "청계8 노상공영주차장 전기차충전소",
      "address": "서울특별시 성동구 하왕십리동 258",
      "roadAddress": "서울특별시 성동구 무학로 50",
      "lat": 37.5695473,
      "lng": 127.0316831,
      "phone": "02-2640-5199",
      "dong": "성동"
    },
    {
      "naverPlaceId": "1159922737",
      "name": "공영빌딩주차장입구",
      "address": "서울특별시 성동구 하왕십리동",
      "roadAddress": "",
      "lat": 37.5627605,
      "lng": 127.0327795,
      "phone": "",
      "dong": "성동"
    }
  ],
  "sido": "서울특별시",
  "sigungu": "성동구",
  "totalCount": 94,
  "source": "naver-map",
  "scrapedAt": "2026-02-10"
}