{
  "items": [
    {
      "naverPlaceId": "1794551193",
      "name": "삼선동 공영주차장",
      "address": "서울특별시 성북구 삼선동1가 278-5",
      "roadAddress": "서울특별시 성북구 삼선교로4길 71",
      "lat": 37.5846294,
      "lng": 127.0074654,
      "phone": "",
      "dong": "삼선동"
    },
    {
      "naverPlaceId": "102220025",
      "name": "경동고공영주차장",
      "address": "서울특별시 성북구 삼선동3가 43-1",
      "roadAddress": "서울특별시 성북구 보문로29길 49",
      "lat": 37.5869874,
      "lng": 127.0150486,
      "phone": "",
      "dong": "삼선동"
    },
    {
      "naverPlaceId": "1006708209",
      "name": "마을공원 공영 주차장",
      "address": "서울특별시 성북구 장위동 270-134",
      "roadAddress": "",
      "lat": 37.6172668,
      "lng": 127.0529218,
      "phone": "",
      "dong": "장위동"
    },
    {
      "naverPlaceId": "1730813657",
      "name": "석관동공영주차장",
      "address": "서울특별시 성북구 석관동 332-165",
      "roadAddress": "",
      "lat": 37.6070629,
      "lng": 127.0602423,
      "phone": "",
      "dong": "석관동"
    },
    {
      "naverPlaceId": "36003244",
      "name": "장위1동동방고개공영주차장",
      "address": "서울특별시 성북구 장위동 230-110",
      "roadAddress": "서울특별시 성북구 장위로13길 9",
      "lat": 37.6147042,
      "lng": 127.0410109,
      "phone": "",
      "dong": "장위동"
    },
    {
      "naverPlaceId": "36003311",
      "name": "벤처빌딩공영주차장",
      "address": "서울특별시 성북구 장위동 65-154",
      "roadAddress": "서울특별시 성북구 화랑로 211",
      "lat": 37.6093767,
      "lng": 127.0533666,
      "phone": "",
      "dong": "장위동"
    },
    {
      "naverPlaceId": "1248277430",
      "name": "성북동길공영주차장",
      "address": "서울특별시 성북구 성북동 230-20",
      "roadAddress": "",
      "lat": 37.5948795,
      "lng": 126.9937916,
      "phone": "",
      "dong": "성북동"
    },
    {
      "naverPlaceId": "85627650",
      "name": "정릉시장 공영 주차장",
      "address": "서울특별시 성북구 정릉동 405-4",
      "roadAddress": "서울특별시 성북구 정릉시장로 56",
      "lat": 37.6082318,
      "lng": 127.0094024,
      "phone": "",
      "dong": "정릉동"
    },
    {
      "naverPlaceId": "1603941700",
      "name": "장위2전통시장 공영주차장",
      "address": "서울특별시 성북구 장위동 68-110",
      "roadAddress": "서울특별시 성북구 장위로40길 62",
      "lat": 37.6111075,
      "lng": 127.0525067,
      "phone": "",
      "dong": "장위동"
    },
    {
      "naverPlaceId": "36003312",
      "name": "시네마빌딩공영주차장",
      "address": "서울특별시 성북구 돈암동 538-59",
      "roadAddress": "서울특별시 성북구 아리랑로12길 4",
      "lat": 37.5991758,
      "lng": 127.0146798,
      "phone": "02-6906-9264",
      "dong": "돈암동"
    },
    {
      "naverPlaceId": "2146682485",
      "name": "개운산공영주차장",
      "address": "서울특별시 성북구 안암동5가 산1-95",
      "roadAddress": "서울특별시 성북구 북악산로 935-25",
      "lat": 37.5951832,
      "lng": 127.026651,
      "phone": "",
      "dong": "안암동"
    },
    {
      "naverPlaceId": "1836634088",
      "name": "아리랑시네마 공영주차장 전기차충전소",
      "address": "서울특별시 성북구 돈암동 538-59 아리랑시네마 공영주차장",
      "roadAddress": "서울특별시 성북구 아리랑로12길 4 (돈암동) 아리랑시네마 공영주차장",
      "lat": 37.5991446,
      "lng": 127.0147669,
      "phone": "",
      "dong": "돈암동"
    },
    {
      "naverPlaceId": "18894565",
      "name": "시네마빌딩공영주차장입구",
      "address": "서울특별시 성북구 돈암동",
      "roadAddress": "",
      "lat": 37.5992236,
      "lng": 127.0145392,
      "phone": "",
      "dong": "돈암동"
    },
    {
      "naverPlaceId": "37220996",
      "name": "G car zone 돈암동 시네마공영주차장",
      "address": "서울특별시 성북구 돈암동 538-59",
      "roadAddress": "서울특별시 성북구 아리랑로12길 4",
      "lat": 37.5991618,
      "lng": 127.0147166,
      "phone": "1899-1313",
      "dong": "돈암동"
    },
    {
      "naverPlaceId": "1217963851",
      "name": "시네마 공영주차장",
      "address": "서울특별시 성북구 돈암동 538-59 시네마 공영주차장",
      "roadAddress": "서울특별시 성북구 아리랑로12길 4 (돈암동) 시네마 공영주차장",
      "lat": 37.5991446,
      "lng": 127.0147669,
      "phone": "",
      "dong": "돈암동"
    },
    {
      "naverPlaceId": "35824257",
      "name": "성북구청주차장",
      "address": "서울특별시 성북구 삼선동5가 411 성북구청",
      "roadAddress": "서울특별시 성북구 보문로 168 성북구청",
      "lat": 37.5895755,
      "lng": 127.0168142,
      "phone": "",
      "dong": "삼선동"
    },
    {
      "naverPlaceId": "1830625895",
      "name": "국민대앞공영주차장",
      "address": "서울특별시 성북구 정릉동 966-1",
      "roadAddress": "서울특별시 성북구 정릉로6길 41",
      "lat": 37.6100919,
      "lng": 126.9953609,
      "phone": "",
      "dong": "정릉동"
    },
    {
      "naverPlaceId": "21185761",
      "name": "공영거주주차장",
      "address": "서울특별시 성북구 성북동1가 117-1",
      "roadAddress": "서울특별시 성북구 성북로 37",
      "lat": 37.5910822,
      "lng": 127.0033557,
      "phone": "",
      "dong": "성북동"
    },
    {
      "naverPlaceId": "1891006776",
      "name": "삼선동 공영주차장",
      "address": "서울특별시 성북구 삼선동1가 278-5 삼선동 공영주차장",
      "roadAddress": "서울특별시 성북구 삼선교로4길 71 (삼선동1가) 삼선동 공영주차장",
      "lat": 37.5845735,
      "lng": 127.0075433,
      "phone": "",
      "dong": "삼선동"
    },
    {
      "naverPlaceId": "1175688804",
      "name": "경동고 공영주차장 개방화장실",
      "address": "서울특별시 성북구 삼선동3가 43-1",
      "roadAddress": "서울특별시 성북구 보문로29길 49",
      "lat": 37.5856335,
      "lng": 127.0138499,
      "phone": "02-6925-0024",
      "dong": "삼선동"
    },
    {
      "naverPlaceId": "38741296",
      "name": "경동고 공영주차장 개방화장실",
      "address": "서울특별시 성북구 삼선동3가 43-1",
      "roadAddress": "서울특별시 성북구 보문로29길 49",
      "lat": 37.586557,
      "lng": 127.013,
      "phone": "",
      "dong": "삼선동"
    },
    {
      "naverPlaceId": "1439320636",
      "name": "성북구 삼선동 공영주차장 전기차충전소",
      "address": "서울특별시 성북구 삼선동1가 278-5",
      "roadAddress": "서울특별시 성북구 삼선교로4길 71",
      "lat": 37.5845742,
      "lng": 127.0074695,
      "phone": "1833-9131",
      "dong": "삼선동"
    },
    {
      "naverPlaceId": "1017718790",
      "name": "서울 성북구 경동고 공영주차장 지하1층 전기차충전소",
      "address": "서울특별시 성북구 삼선동3가 43-1",
      "roadAddress": "서울특별시 성북구 보문로29길 49",
      "lat": 37.586122,
      "lng": 127.014929,
      "phone": "1833-9131",
      "dong": "삼선동"
    },
    {
      "naverPlaceId": "1378755316",
      "name": "경동고 공영주차장",
      "address": "서울특별시 성북구 삼선동3가 43-1 경동고 공영주차장",
      "roadAddress": "서울특별시 성북구 보문로29길 49 경동고 공영주차장",
      "lat": 37.5863887,
      "lng": 127.01492,
      "phone": "",
      "dong": "삼선동"
    },
    {
      "naverPlaceId": "1414717769",
      "name": "쏘카 경동고공영주차장",
      "address": "서울특별시 성북구 삼선동3가 43-1",
      "roadAddress": "서울특별시 성북구 보문로29길 49",
      "lat": 37.586777,
      "lng": 127.015129,
      "phone": "1661-8838",
      "dong": "삼선동"
    },
    {
      "naverPlaceId": "1513136533",
      "name": "삼선동 공영주차장입구",
      "address": "서울특별시 성북구 삼선동1가",
      "roadAddress": "",
      "lat": 37.5846424,
      "lng": 127.0073297,
      "phone": "",
      "dong": "삼선동"
    },
    {
      "naverPlaceId": "1222893747",
      "name": "성북구청 공영주차장",
      "address": "서울특별시 성북구 삼선동5가 411 부설 공영주차장",
      "roadAddress": "서울특별시 성북구 보문로 168 (삼선동5가) 부설 공영주차장",
      "lat": 37.5894,
      "lng": 127.016749,
      "phone": "",
      "dong": "삼선동"
    },
    {
      "naverPlaceId": "1138379459",
      "name": "삼선동 공영주차장 전기차충전소",
      "address": "서울특별시 성북구 삼선동1가 278-6 삼선동 공영주차장",
      "roadAddress": "서울특별시 성북구 삼선교로4길 71 삼선동 공영주차장",
      "lat": 37.5845763,
      "lng": 127.0074767,
      "phone": "",
      "dong": "삼선동"
    },
    {
      "naverPlaceId": "1330261645",
      "name": "경동고공영주차장입구",
      "address": "서울특별시 성북구 삼선동3가",
      "roadAddress": "",
      "lat": 37.5870032,
      "lng": 127.0150206,
      "phone": "",
      "dong": "삼선동"
    },
    {
      "naverPlaceId": "1570348996",
      "name": "경동고등학교 공영주차장 전기차충전소",
      "address": "서울특별시 성북구 삼선동3가 43-1 경동고 공영주차장",
      "roadAddress": "서울특별시 성북구 보문로29길 49 경동고 공영주차장",
      "lat": 37.5863887,
      "lng": 127.01492,
      "phone": "",
      "dong": "삼선동"
    },
    {
      "naverPlaceId": "1044472461",
      "name": "석관동공영주차장 전기차충전소",
      "address": "서울특별시 성북구 석관동 332-165",
      "roadAddress": "",
      "lat": 37.606959,
      "lng": 127.0600826,
      "phone": "02-2640-5199",
      "dong": "석관동"
    },
    {
      "naverPlaceId": "1834708402",
      "name": "지진옥외대피장소 의릉 공영주차장",
      "address": "서울특별시 성북구 석관동 333-1",
      "roadAddress": "서울특별시 성북구 화랑로32길 146-35 (석관동)",
      "lat": 37.6048972,
      "lng": 127.0585356,
      "phone": "",
      "dong": "석관동"
    },
    {
      "naverPlaceId": "1102299935",
      "name": "석관동공영주차장입구",
      "address": "서울특별시 성북구 석관동",
      "roadAddress": "서울특별시 성북구",
      "lat": 37.6067636,
      "lng": 127.060432,
      "phone": "",
      "dong": "석관동"
    },
    {
      "naverPlaceId": "21185657",
      "name": "공영주차장",
      "address": "서울특별시 성북구 하월곡동",
      "roadAddress": "서울특별시 성북구",
      "lat": 37.6003511,
      "lng": 127.0412705,
      "phone": "",
      "dong": "하월곡동"
    },
    {
      "naverPlaceId": "1158907712",
      "name": "성북동길1길 공영 주차장",
      "address": "서울특별시 성북구 성북동 237-3",
      "roadAddress": "",
      "lat": 37.5948353,
      "lng": 126.9938774,
      "phone": "",
      "dong": "성북동"
    },
    {
      "naverPlaceId": "1414727917",
      "name": "성북동길2길 노상 공영 주차장",
      "address": "서울특별시 성북구 성북동 237-3",
      "roadAddress": "",
      "lat": 37.5948353,
      "lng": 126.9938774,
      "phone": "",
      "dong": "성북동"
    },
    {
      "naverPlaceId": "1027612945",
      "name": "성북동 우리마을공동제9호주차장",
      "address": "서울특별시 성북구 성북동 348-19",
      "roadAddress": "",
      "lat": 37.5954593,
      "lng": 126.9893337,
      "phone": "",
      "dong": "성북동"
    },
    {
      "naverPlaceId": "1200824489",
      "name": "성북동길(임시) 공영주차장",
      "address": "서울특별시 성북구 성북동 256-2 길(임시) 주차장",
      "roadAddress": "서울특별시 성북구 성북로 138 성북동길(임시) 주차장",
      "lat": 37.5948336,
      "lng": 126.9944407,
      "phone": "",
      "dong": "성북동"
    },
    {
      "naverPlaceId": "1728351769",
      "name": "성북동길 공영주차장",
      "address": "서울특별시 성북구 성북동 254-8 237-3",
      "roadAddress": "서울특별시 성북구 성북로28길 10 성북동 237-3",
      "lat": 37.5950772,
      "lng": 126.9938534,
      "phone": "",
      "dong": "성북동"
    },
    {
      "naverPlaceId": "1335062205",
      "name": "장위3동마을공원주차장",
      "address": "서울특별시 성북구 장위동 270-134",
      "roadAddress": "",
      "lat": 37.6173359,
      "lng": 127.0529596,
      "phone": "",
      "dong": "장위동"
    },
    {
      "naverPlaceId": "1554469347",
      "name": "마을공원 공영주차장",
      "address": "서울특별시 성북구 장위동 77-64 마을공원 내 공영주차장",
      "roadAddress": "서울특별시 성북구 돌곶이로32길 43 마을공원 내 공영주차장",
      "lat": 37.6168817,
      "lng": 127.0534743,
      "phone": "",
      "dong": "장위동"
    },
    {
      "naverPlaceId": "1889639807",
      "name": "벤처빌딩 공영주차장",
      "address": "서울특별시 성북구 장위동 65-154 벤처빌딩 공영주차장",
      "roadAddress": "서울특별시 성북구 화랑로 211 (장위동) 벤처빌딩 공영주차장",
      "lat": 37.6093592,
      "lng": 127.0530482,
      "phone": "",
      "dong": "장위동"
    },
    {
      "naverPlaceId": "1257460381",
      "name": "동방고개 공영주차장",
      "address": "서울특별시 성북구 장위동 230-110 공영주차장",
      "roadAddress": "서울특별시 성북구 장위로13길 9 (장위동) 공영주차장",
      "lat": 37.6146996,
      "lng": 127.040997,
      "phone": "",
      "dong": "장위동"
    },
    {
      "naverPlaceId": "1635194088",
      "name": "마을공원 공영주차장 전기차충전소",
      "address": "서울특별시 성북구 장위동 79-12 마을공원 내 공영주차장",
      "roadAddress": "서울특별시 성북구 장월로38길 29 (장위동) 마을공원 내 공영주차장",
      "lat": 37.6170108,
      "lng": 127.0528128,
      "phone": "",
      "dong": "장위동"
    },
    {
      "naverPlaceId": "1219589877",
      "name": "장위1동동방고개공영주차장입출구",
      "address": "서울특별시 성북구 장위동",
      "roadAddress": "",
      "lat": 37.614723,
      "lng": 127.0412063,
      "phone": "",
      "dong": "장위동"
    },
    {
      "naverPlaceId": "1615393126",
      "name": "동방고개 공영주차장 전기차충전소",
      "address": "서울특별시 성북구 장위동 230-110 동방고개 공영주차장",
      "roadAddress": "서울특별시 성북구 장위로13길 9 (장위동) 동방고개 공영주차장",
      "lat": 37.6146996,
      "lng": 127.040997,
      "phone": "",
      "dong": "장위동"
    },
    {
      "naverPlaceId": "18917840",
      "name": "장위3동마을공원공영주차장입출구",
      "address": "서울특별시 성북구 장위동",
      "roadAddress": "",
      "lat": 37.6172269,
      "lng": 127.0528458,
      "phone": "",
      "dong": "장위동"
    },
    {
      "naverPlaceId": "1443381454",
      "name": "국민대 앞 공영주차장 전기차충전소",
      "address": "서울특별시 성북구 정릉동 966-1",
      "roadAddress": "서울특별시 성북구 정릉로6길 41",
      "lat": 37.6100945,
      "lng": 126.9954086,
      "phone": "1833-9131",
      "dong": "정릉동"
    },
    {
      "naverPlaceId": "1182924003",
      "name": "정릉시장 공영주차장",
      "address": "서울특별시 성북구 정릉동 405-4 정릉시장 공영주차장",
      "roadAddress": "서울특별시 성북구 정릉로23길 56 (정릉동) 정릉시장 공영주차장",
      "lat": 37.6082352,
      "lng": 127.009408,
      "phone": "",
      "dong": "정릉동"
    },
    {
      "naverPlaceId": "1938139813",
      "name": "국민대 앞 공영주차장 전기차 충전소",
      "address": "서울특별시 성북구 정릉동 957-14 국민대 앞 공영주차장 전기차 충전소",
      "roadAddress": "서울특별시 성북구 정릉로6가길 3 (정릉동) 국민대 앞 공영주차장 전기차 충전소",
      "lat": 37.6094595,
      "lng": 126.9958663,
      "phone": "",
      "dong": "정릉동"
    },
    {
      "naverPlaceId": "1018460191",
      "name": "국민대앞 공영주차장",
      "address": "서울특별시 성북구 정릉동 865-3 노상 주차장",
      "roadAddress": "서울특별시 성북구 정릉로6가길 8 노상 주차장",
      "lat": 37.609558,
      "lng": 126.9955884,
      "phone": "",
      "dong": "정릉동"
    },
    {
      "naverPlaceId": "1660883973",
      "name": "국민대앞공영주차장입구",
      "address": "서울특별시 성북구 정릉동",
      "roadAddress": "",
      "lat": 37.6099332,
      "lng": 126.9956105,
      "phone": "",
      "dong": "정릉동"
    }
  ],
  "sido": "서울특별시",
  "sigungu": "성북구",
  "totalCount": 52,
  "source": "naver-map",
  "scrapedAt": "2026-02-10"
}