{
  "items": [
    {
      "naverPlaceId": "1540666624",
      "name": "탄천 공영 주차장",
      "address": "서울특별시 강남구 대치동 78-25",
      "roadAddress": "",
      "lat": 37.5086403,
      "lng": 127.0683938,
      "phone": "",
      "dong": "대치동"
    },
    {
      "naverPlaceId": "21295745",
      "name": "복정역환승주차장",
      "address": "서울특별시 송파구 장지동 600-2",
      "roadAddress": "",
      "lat": 37.4700992,
      "lng": 127.1280937,
      "phone": "",
      "dong": "장지동"
    },
    {
      "naverPlaceId": "35977162",
      "name": "복정역 공영 주차장",
      "address": "서울특별시 송파구 장지동 600-2",
      "roadAddress": "",
      "lat": 37.4700897,
      "lng": 127.1280942,
      "phone": "02-3405-4075",
      "dong": "장지동"
    },
    {
      "naverPlaceId": "35977159",
      "name": "잠실역 공영 주차장",
      "address": "서울특별시 송파구 신천동 29",
      "roadAddress": "서울특별시 송파구 올림픽로 300",
      "lat": 37.5143855,
      "lng": 127.1043579,
      "phone": "02-2290-6402",
      "dong": "신천동"
    },
    {
      "naverPlaceId": "21295749",
      "name": "잠실역환승지하주차장",
      "address": "서울특별시 송파구 신천동 27",
      "roadAddress": "",
      "lat": 37.5150193,
      "lng": 127.1053854,
      "phone": "",
      "dong": "신천동"
    },
    {
      "naverPlaceId": "1308497195",
      "name": "서울송파 송파근린공원 공영주차장 전기차충전소",
      "address": "서울특별시 송파구 송파동 113",
      "roadAddress": "서울특별시 송파구 송파대로42길 29",
      "lat": 37.5063491,
      "lng": 127.1100015,
      "phone": "1661-7766",
      "dong": "송파동"
    },
    {
      "naverPlaceId": "35977945",
      "name": "문정근린공원 공영 주차장",
      "address": "서울특별시 송파구 문정동 38-3",
      "roadAddress": "서울특별시 송파구 문정로 12",
      "lat": 37.4859709,
      "lng": 127.1238637,
      "phone": "02-431-0166",
      "dong": "문정동"
    },
    {
      "naverPlaceId": "18852745",
      "name": "풍납유수지공영주차장",
      "address": "서울특별시 송파구 풍납동 387",
      "roadAddress": "서울특별시 송파구 올림픽로41길 108",
      "lat": 37.5250832,
      "lng": 127.1061011,
      "phone": "02-474-9906",
      "dong": "풍납동"
    },
    {
      "naverPlaceId": "36028513",
      "name": "신천유수지공영주차장",
      "address": "서울특별시 송파구 신천동 14",
      "roadAddress": "서울특별시 송파구 오금로 1",
      "lat": 37.5218008,
      "lng": 127.1026468,
      "phone": "02-414-6417",
      "dong": "신천동"
    },
    {
      "naverPlaceId": "1371717153",
      "name": "마천동1공영주차장 전기차충전소",
      "address": "서울특별시 송파구 마천동 215",
      "roadAddress": "서울특별시 송파구 성내천로43길 6",
      "lat": 37.495181,
      "lng": 127.155564,
      "phone": "1899-2100",
      "dong": "마천동"
    },
    {
      "naverPlaceId": "21186191",
      "name": "삼전동공영주차장",
      "address": "서울특별시 송파구 삼전동 175-8",
      "roadAddress": "서울특별시 송파구 백제고분로32길 25-17",
      "lat": 37.5002216,
      "lng": 127.0958682,
      "phone": "02-412-1532",
      "dong": "삼전동"
    },
    {
      "naverPlaceId": "21186003",
      "name": "천마공영주차장",
      "address": "서울특별시 송파구 마천동 산1-5",
      "roadAddress": "서울특별시 송파구 성내천로33가길 20",
      "lat": 37.5002666,
      "lng": 127.154925,
      "phone": "02-430-7240",
      "dong": "마천동"
    },
    {
      "naverPlaceId": "18886662",
      "name": "거여동공영주차장",
      "address": "서울특별시 송파구 거여동 33-16",
      "roadAddress": "서울특별시 송파구 오금로68길 8",
      "lat": 37.4922815,
      "lng": 127.1503496,
      "phone": "02-430-4819",
      "dong": "거여동"
    },
    {
      "naverPlaceId": "1977734469",
      "name": "송파구 마천동 2공영주차장 전기차충전소",
      "address": "서울특별시 송파구 마천동 372-2",
      "roadAddress": "",
      "lat": 37.4943704,
      "lng": 127.1564292,
      "phone": "1833-9131",
      "dong": "마천동"
    },
    {
      "naverPlaceId": "18848839",
      "name": "아시아공원공영주차장",
      "address": "서울특별시 송파구 잠실동 84",
      "roadAddress": "서울특별시 송파구 올림픽로 44",
      "lat": 37.5102199,
      "lng": 127.0782355,
      "phone": "02-415-7734",
      "dong": "잠실동"
    },
    {
      "naverPlaceId": "1273356266",
      "name": "송파동공영주차장",
      "address": "서울특별시 송파구 송파동 128",
      "roadAddress": "서울특별시 송파구 백제고분로44길 13-25",
      "lat": 37.5070509,
      "lng": 127.1133718,
      "phone": "02-424-2372",
      "dong": "송파동"
    },
    {
      "naverPlaceId": "1612232833",
      "name": "교통공원길 공영주차장 전기차충전소",
      "address": "서울특별시 송파구 신천동 10-2",
      "roadAddress": "",
      "lat": 37.5155358,
      "lng": 127.1041149,
      "phone": "02-2640-5199",
      "dong": "신천동"
    },
    {
      "naverPlaceId": "1673395097",
      "name": "풍납동2공영주차장",
      "address": "서울특별시 송파구 풍납동 175",
      "roadAddress": "서울특별시 송파구 풍성로5길 16",
      "lat": 37.5359035,
      "lng": 127.1161646,
      "phone": "",
      "dong": "풍납동"
    },
    {
      "naverPlaceId": "1974120415",
      "name": "문정골길 노상 공영 주차장",
      "address": "서울특별시 송파구 문정동 41-14",
      "roadAddress": "",
      "lat": 37.4890494,
      "lng": 127.124222,
      "phone": "",
      "dong": "문정동"
    },
    {
      "naverPlaceId": "35977948",
      "name": "석촌고분공영주차장",
      "address": "서울특별시 송파구 석촌동 248 백제초기적석총",
      "roadAddress": "서울특별시 송파구 가락로7길 21 백제초기적석총",
      "lat": 37.5008934,
      "lng": 127.1028756,
      "phone": "02-3431-1763",
      "dong": "석촌동"
    },
    {
      "naverPlaceId": "35977947",
      "name": "방이고분공영주차장",
      "address": "서울특별시 송파구 방이동 125 방이백제고분",
      "roadAddress": "서울특별시 송파구 오금로 219 방이백제고분",
      "lat": 37.5074444,
      "lng": 127.1183238,
      "phone": "02-3431-4155",
      "dong": "방이동"
    },
    {
      "naverPlaceId": "448258947",
      "name": "풍납동1공영주차장",
      "address": "서울특별시 송파구 풍납동 154",
      "roadAddress": "서울특별시 송파구 풍성로25나길 6",
      "lat": 37.5355136,
      "lng": 127.120275,
      "phone": "02-431-0166",
      "dong": "풍납동"
    },
    {
      "naverPlaceId": "35913874",
      "name": "봉상시길노상공영주차장",
      "address": "서울특별시 송파구 잠실동 177-8",
      "roadAddress": "",
      "lat": 37.5110139,
      "lng": 127.0801976,
      "phone": "02-431-0166",
      "dong": "잠실동"
    },
    {
      "naverPlaceId": "35992970",
      "name": "로데오길노상공영주차장",
      "address": "서울특별시 송파구 문정동 3-2",
      "roadAddress": "서울특별시 송파구 동남로 112-2",
      "lat": 37.4905178,
      "lng": 127.124644,
      "phone": "02-431-0166",
      "dong": "문정동"
    },
    {
      "naverPlaceId": "35977291",
      "name": "마천3 공영 주차장",
      "address": "서울특별시 송파구 마천동 128-4 3공영주차장",
      "roadAddress": "서울특별시 송파구 마천로 301-1 마천동3공영주차장",
      "lat": 37.4960101,
      "lng": 127.1496631,
      "phone": "02-430-6790",
      "dong": "마천동"
    },
    {
      "naverPlaceId": "1051107323",
      "name": "석촌역 노상 공영 주차장",
      "address": "서울특별시 송파구 송파동 68",
      "roadAddress": "서울특별시 송파구 백제고분로 377-2",
      "lat": 37.5059134,
      "lng": 127.1080877,
      "phone": "02-431-0166",
      "dong": "송파동"
    },
    {
      "naverPlaceId": "35992972",
      "name": "비석거리노상공영주차장",
      "address": "서울특별시 송파구 가락동 95-6",
      "roadAddress": "서울특별시 송파구 송파대로32길 8-2",
      "lat": 37.495952,
      "lng": 127.1173031,
      "phone": "02-431-0166",
      "dong": "가락동"
    },
    {
      "naverPlaceId": "1583856253",
      "name": "잠실나루역 공영주차장(성내역)",
      "address": "서울특별시 송파구 신천동 11-1",
      "roadAddress": "",
      "lat": 37.5167931,
      "lng": 127.10483,
      "phone": "",
      "dong": "신천동"
    },
    {
      "naverPlaceId": "1465473193",
      "name": "서호2 공영주차장",
      "address": "서울특별시 송파구 잠실동 47",
      "roadAddress": "서울특별시 송파구 석촌호수로 191",
      "lat": 37.5066526,
      "lng": 127.0983311,
      "phone": "",
      "dong": "잠실동"
    },
    {
      "naverPlaceId": "1783012027",
      "name": "서울놀이마당 공영 주차장",
      "address": "서울특별시 송파구 잠실동 47 석촌호수 서호 놀이마당 화장실",
      "roadAddress": "서울특별시 송파구 송파나루길 34 석촌호수 서호 놀이마당 화장실",
      "lat": 37.5088944,
      "lng": 127.0976947,
      "phone": "",
      "dong": "잠실동"
    },
    {
      "naverPlaceId": "1638723929",
      "name": "서호1공영주차장",
      "address": "서울특별시 송파구 잠실동 47",
      "roadAddress": "서울특별시 송파구 송파나루길 256",
      "lat": 37.5105186,
      "lng": 127.1010653,
      "phone": "",
      "dong": "잠실동"
    },
    {
      "naverPlaceId": "1896916559",
      "name": "서울시농수산식품공사 주차장",
      "address": "서울특별시 송파구 가락동 600",
      "roadAddress": "서울특별시 송파구 양재대로 932",
      "lat": 37.4961026,
      "lng": 127.1110027,
      "phone": "02-3435-0693",
      "dong": "가락동"
    },
    {
      "naverPlaceId": "573789725",
      "name": "오금로노상공영주차장",
      "address": "서울특별시 송파구 가락동 908",
      "roadAddress": "",
      "lat": 37.4958195,
      "lng": 127.1387641,
      "phone": "",
      "dong": "가락동"
    },
    {
      "naverPlaceId": "1737610433",
      "name": "삼전근린공원공영주차장",
      "address": "서울특별시 송파구 삼전동 62-1 삼전제1경로당",
      "roadAddress": "서울특별시 송파구 백제고분로32길 6-30 삼전제1경로당",
      "lat": 37.5026348,
      "lng": 127.0930177,
      "phone": "",
      "dong": "삼전동"
    },
    {
      "naverPlaceId": "1874864127",
      "name": "새마을시장노상공영주차장",
      "address": "서울특별시 송파구 잠실동 279",
      "roadAddress": "서울특별시 송파구 석촌호수로 68-3",
      "lat": 37.5091721,
      "lng": 127.0864973,
      "phone": "02-431-0166",
      "dong": "잠실동"
    },
    {
      "naverPlaceId": "1292447918",
      "name": "석촌역 2구역 공영주차장",
      "address": "서울특별시 송파구 석촌동 209",
      "roadAddress": "서울특별시 송파구 송파대로 439",
      "lat": 37.5049322,
      "lng": 127.1061502,
      "phone": "02-431-0166",
      "dong": "석촌동"
    },
    {
      "naverPlaceId": "21186192",
      "name": "위례성길공영주차장",
      "address": "서울특별시 송파구 방이동 18",
      "roadAddress": "",
      "lat": 37.5147379,
      "lng": 127.119591,
      "phone": "02-431-0166",
      "dong": "방이동"
    },
    {
      "naverPlaceId": "1304024707",
      "name": "새마을시장주차장",
      "address": "서울특별시 송파구 잠실동 279",
      "roadAddress": "서울특별시 송파구 석촌호수로 72-5",
      "lat": 37.5091482,
      "lng": 127.086525,
      "phone": "",
      "dong": "잠실동"
    },
    {
      "naverPlaceId": "1622751623",
      "name": "거여동주차장",
      "address": "서울특별시 송파구 거여동 11-6 거여.마천 자전거대여소",
      "roadAddress": "서울특별시 송파구 문정로 196 거여.마천 자전거대여소",
      "lat": 37.4963605,
      "lng": 127.1400753,
      "phone": "",
      "dong": "거여동"
    },
    {
      "naverPlaceId": "1766992601",
      "name": "거여동공영주차장출구",
      "address": "서울특별시 송파구 거여동",
      "roadAddress": "",
      "lat": 37.4922113,
      "lng": 127.1503039,
      "phone": "",
      "dong": "거여동"
    },
    {
      "naverPlaceId": "1163577865",
      "name": "거여동 공영주차장 개방화장실",
      "address": "서울특별시 송파구 거여동 33-16",
      "roadAddress": "서울특별시 송파구 오금로68길 8",
      "lat": 37.4922688,
      "lng": 127.1503847,
      "phone": "02-2147-3320",
      "dong": "거여동"
    },
    {
      "naverPlaceId": "1488802998",
      "name": "거여동공영주차장입구",
      "address": "서울특별시 송파구 거여동",
      "roadAddress": "",
      "lat": 37.4923189,
      "lng": 127.1505813,
      "phone": "",
      "dong": "거여동"
    },
    {
      "naverPlaceId": "1330947925",
      "name": "거여동공영주차장 전기차충전소",
      "address": "서울특별시 송파구 거여동 33-16",
      "roadAddress": "서울특별시 송파구 오금로68길 8",
      "lat": 37.4922455,
      "lng": 127.1503302,
      "phone": "1661-9408",
      "dong": "거여동"
    },
    {
      "naverPlaceId": "35992974",
      "name": "마천1공영주차장",
      "address": "서울특별시 송파구 마천동 215 마천1공영주차장",
      "roadAddress": "서울특별시 송파구 성내천로43길 6 마천1공영주차장",
      "lat": 37.4951896,
      "lng": 127.1555437,
      "phone": "02-404-6275",
      "dong": "마천동"
    },
    {
      "naverPlaceId": "35940209",
      "name": "장지동공영주차장",
      "address": "서울특별시 송파구 문정동 2-5",
      "roadAddress": "서울특별시 송파구 문정로 170",
      "lat": 37.490525,
      "lng": 127.1341042,
      "phone": "02-407-1500",
      "dong": "문정동"
    },
    {
      "naverPlaceId": "37766199",
      "name": "방이습지노상공영주차장",
      "address": "서울특별시 송파구 방이동 452-12",
      "roadAddress": "",
      "lat": 37.5083087,
      "lng": 127.1369672,
      "phone": "02-431-0166",
      "dong": "방이동"
    },
    {
      "naverPlaceId": "21185724",
      "name": "마천1동공영공동주차장",
      "address": "서울특별시 송파구 마천동",
      "roadAddress": "",
      "lat": 37.4951896,
      "lng": 127.1555437,
      "phone": "",
      "dong": "마천동"
    },
    {
      "naverPlaceId": "35992975",
      "name": "마천2 공영 주차장",
      "address": "서울특별시 송파구 마천동 364-5 2공영주차장",
      "roadAddress": "서울특별시 송파구 성내천로 299-7 마천동2공영주차장",
      "lat": 37.4942761,
      "lng": 127.1561193,
      "phone": "02-407-4947",
      "dong": "마천동"
    },
    {
      "naverPlaceId": "21185791",
      "name": "마천2동공영주차장",
      "address": "서울특별시 송파구 마천동",
      "roadAddress": "",
      "lat": 37.4942761,
      "lng": 127.1561193,
      "phone": "",
      "dong": "마천동"
    },
    {
      "naverPlaceId": "21185781",
      "name": "마천동4공영공동주차장",
      "address": "서울특별시 송파구 마천동",
      "roadAddress": "",
      "lat": 37.4939482,
      "lng": 127.1568874,
      "phone": "",
      "dong": "마천동"
    },
    {
      "naverPlaceId": "1063931552",
      "name": "마천3 공영주차장 개방화장실",
      "address": "서울특별시 송파구 마천동 128-4",
      "roadAddress": "서울특별시 송파구 마천로 301-1",
      "lat": 37.496117,
      "lng": 127.1498082,
      "phone": "02-2147-3200",
      "dong": "마천동"
    },
    {
      "naverPlaceId": "1325624227",
      "name": "천마공영주차장 전기차충전소",
      "address": "서울특별시 송파구 마천동 산2 천마공원 화장실(치유숲) ( 2)",
      "roadAddress": "서울특별시 송파구 성내천로29길 32 천마공원 화장실(치유숲) (마천동 2)",
      "lat": 37.5000197,
      "lng": 127.1549214,
      "phone": "1661-9408",
      "dong": "마천동"
    },
    {
      "naverPlaceId": "1739880177",
      "name": "마천1 공영주차장 개방화장실",
      "address": "서울특별시 송파구 마천동 216-7",
      "roadAddress": "서울특별시 송파구 성내천로43가길 2-5",
      "lat": 37.4954793,
      "lng": 127.1555652,
      "phone": "02-2147-3200",
      "dong": "마천동"
    },
    {
      "naverPlaceId": "1947216148",
      "name": "천마공영주차장 개방화장실",
      "address": "서울특별시 송파구 마천동 산1-5",
      "roadAddress": "서울특별시 송파구 성내천로33가길 20",
      "lat": 37.5002882,
      "lng": 127.1548162,
      "phone": "02-2147-3200",
      "dong": "마천동"
    },
    {
      "naverPlaceId": "1706984457",
      "name": "마천동1 공영주차장 전기차충전소",
      "address": "서울특별시 송파구 마천동 215",
      "roadAddress": "서울특별시 송파구 성내천로43길 6",
      "lat": 37.4952871,
      "lng": 127.1555585,
      "phone": "02-2640-5199",
      "dong": "마천동"
    },
    {
      "naverPlaceId": "1708027634",
      "name": "송파구 마천1공영주차장 전기차충전소",
      "address": "서울특별시 송파구 마천동 215",
      "roadAddress": "서울특별시 송파구 성내천로43길 6",
      "lat": 37.4950907,
      "lng": 127.1555745,
      "phone": "1833-9131",
      "dong": "마천동"
    },
    {
      "naverPlaceId": "1801128186",
      "name": "마천2공영주차장 개방화장실",
      "address": "서울특별시 송파구 마천동 364-5",
      "roadAddress": "서울특별시 송파구 성내천로 299-7",
      "lat": 37.4943115,
      "lng": 127.1561362,
      "phone": "02-2147-3200",
      "dong": "마천동"
    },
    {
      "naverPlaceId": "1142577791",
      "name": "쏘카 천마공영주차장",
      "address": "서울특별시 송파구 마천동 산1-5 산 1-5",
      "roadAddress": "서울특별시 송파구 성내천로33가길 16 산 1-5",
      "lat": 37.500168,
      "lng": 127.154874,
      "phone": "1661-8838",
      "dong": "마천동"
    },
    {
      "naverPlaceId": "1155297717",
      "name": "마천동 2공영주차장 전기차충전소",
      "address": "서울특별시 송파구 마천동 364-5",
      "roadAddress": "서울특별시 송파구 성내천로 299-7",
      "lat": 37.4944142,
      "lng": 127.1563583,
      "phone": "1661-9408",
      "dong": "마천동"
    },
    {
      "naverPlaceId": "37449589",
      "name": "G car zone 마천동 1공영주차장",
      "address": "서울특별시 송파구 마천동 215",
      "roadAddress": "서울특별시 송파구 성내천로43길 6",
      "lat": 37.495122,
      "lng": 127.1557495,
      "phone": "1899-1313",
      "dong": "마천동"
    },
    {
      "naverPlaceId": "1274438963",
      "name": "송파구 천마공영주차장 전기차충전소",
      "address": "서울특별시 송파구 마천동 산2",
      "roadAddress": "서울특별시 송파구 성내천로29길 32",
      "lat": 37.5002128,
      "lng": 127.1548153,
      "phone": "1833-9131",
      "dong": "마천동"
    },
    {
      "naverPlaceId": "1614747440",
      "name": "마천2공영주차장입구",
      "address": "서울특별시 송파구 마천동",
      "roadAddress": "",
      "lat": 37.4944563,
      "lng": 127.1563705,
      "phone": "",
      "dong": "마천동"
    },
    {
      "naverPlaceId": "35992971",
      "name": "문정골길노상공영주차장",
      "address": "서울특별시 송파구 문정동 39-1",
      "roadAddress": "서울특별시 송파구 문정로 19",
      "lat": 37.4866409,
      "lng": 127.1248783,
      "phone": "",
      "dong": "문정동"
    },
    {
      "naverPlaceId": "20893939",
      "name": "문정근린공원 공영 주차장입구",
      "address": "서울특별시 송파구 문정동",
      "roadAddress": "",
      "lat": 37.4860836,
      "lng": 127.123924,
      "phone": "",
      "dong": "문정동"
    },
    {
      "naverPlaceId": "1373114286",
      "name": "문정근린공원 공영주차장 지하1층 대피소",
      "address": "서울특별시 송파구 문정동 38-3",
      "roadAddress": "서울특별시 송파구 문정로 12",
      "lat": 37.4860088,
      "lng": 127.123954,
      "phone": "",
      "dong": "문정동"
    },
    {
      "naverPlaceId": "1991975747",
      "name": "복정역 환승공영주차장 개방화장실",
      "address": "서울특별시 송파구 장지동 595-10",
      "roadAddress": "서울특별시 송파구 성남대로 1570-2",
      "lat": 37.4702166,
      "lng": 127.1270568,
      "phone": "02-2290-6397",
      "dong": "장지동"
    },
    {
      "naverPlaceId": "1041789397",
      "name": "문정근린공원 공영주차장 서울시 전기차충전소",
      "address": "서울특별시 송파구 문정동 38-3",
      "roadAddress": "서울특별시 송파구 문정로 12",
      "lat": 37.4859494,
      "lng": 127.1238939,
      "phone": "02-2640-5199",
      "dong": "문정동"
    },
    {
      "naverPlaceId": "20943444",
      "name": "문정근린공원 공영 주차장출구",
      "address": "서울특별시 송파구 문정동",
      "roadAddress": "",
      "lat": 37.4858158,
      "lng": 127.1235529,
      "phone": "",
      "dong": "문정동"
    },
    {
      "naverPlaceId": "1075347536",
      "name": "문정근린공원공영주차장 전기차충전소",
      "address": "서울특별시 송파구 문정동 38-3",
      "roadAddress": "서울특별시 송파구 문정로 12",
      "lat": 37.485984,
      "lng": 127.12467,
      "phone": "1533-2920",
      "dong": "문정동"
    },
    {
      "naverPlaceId": "1008629044",
      "name": "복정역 공영주차장 서울시 전기차충전소",
      "address": "서울특별시 송파구 장지동 600-2",
      "roadAddress": "",
      "lat": 37.4701651,
      "lng": 127.1280899,
      "phone": "02-2640-5199",
      "dong": "장지동"
    },
    {
      "naverPlaceId": "1026638853",
      "name": "문정근린공원 공영주차장 한국전력 전기차충전소",
      "address": "서울특별시 송파구 문정동 38-3",
      "roadAddress": "서울특별시 송파구 문정로 12",
      "lat": 37.4859415,
      "lng": 127.1236855,
      "phone": "1899-2100",
      "dong": "문정동"
    },
    {
      "naverPlaceId": "1241435789",
      "name": "쏘카 문정근린공원공영 주차장",
      "address": "서울특별시 송파구 문정동 38-3 지하 공영주차장",
      "roadAddress": "서울특별시 송파구 문정로 12 지하 공영주차장",
      "lat": 37.485984,
      "lng": 127.12467,
      "phone": "1661-8838",
      "dong": "문정동"
    },
    {
      "naverPlaceId": "1169385460",
      "name": "복정역 공영주차장 시그넷 전기차충전소",
      "address": "서울특별시 송파구 장지동 600-2",
      "roadAddress": "",
      "lat": 37.4699626,
      "lng": 127.127415,
      "phone": "1661-7737",
      "dong": "장지동"
    },
    {
      "naverPlaceId": "1108292740",
      "name": "피플카 복정역 2번출구(복정역 공영주차장)",
      "address": "서울특별시 송파구 장지동 600-2",
      "roadAddress": "",
      "lat": 37.4700215,
      "lng": 127.1277766,
      "phone": "",
      "dong": "장지동"
    },
    {
      "naverPlaceId": "1396331411",
      "name": "장지동 공영 주차장입구",
      "address": "서울특별시 송파구 문정동",
      "roadAddress": "",
      "lat": 37.4905503,
      "lng": 127.1342149,
      "phone": "",
      "dong": "문정동"
    },
    {
      "naverPlaceId": "1704219757",
      "name": "G car zone 장지공영주차장",
      "address": "서울특별시 송파구 문정동 2-5",
      "roadAddress": "서울특별시 송파구 문정로 170",
      "lat": 37.490577,
      "lng": 127.1341554,
      "phone": "1899-1313",
      "dong": "문정동"
    },
    {
      "naverPlaceId": "21185577",
      "name": "위례성길공영주차장",
      "address": "서울특별시 송파구 방이동",
      "roadAddress": "",
      "lat": 37.51675,
      "lng": 127.1145125,
      "phone": "02-431-0166",
      "dong": "방이동"
    },
    {
      "naverPlaceId": "35992969",
      "name": "위례성길노상공영주차장",
      "address": "서울특별시 송파구 방이동 18",
      "roadAddress": "",
      "lat": 37.5148716,
      "lng": 127.1192433,
      "phone": "02-431-0166",
      "dong": "방이동"
    },
    {
      "naverPlaceId": "20640281",
      "name": "공영주차장",
      "address": "서울특별시 송파구 방이동",
      "roadAddress": "서울특별시 송파구",
      "lat": 37.5128719,
      "lng": 127.1245562,
      "phone": "",
      "dong": "방이동"
    },
    {
      "naverPlaceId": "21185755",
      "name": "위례성길공영주차장",
      "address": "서울특별시 송파구 방이동 181-7",
      "roadAddress": "",
      "lat": 37.5123099,
      "lng": 127.125989,
      "phone": "02-431-0166",
      "dong": "방이동"
    },
    {
      "naverPlaceId": "21185757",
      "name": "위례성길공영주차장",
      "address": "서울특별시 송파구 방이동 75",
      "roadAddress": "",
      "lat": 37.513729,
      "lng": 127.122434,
      "phone": "02-431-0166",
      "dong": "방이동"
    },
    {
      "naverPlaceId": "1717926227",
      "name": "위례성길 공영주차장 전기차충전소",
      "address": "서울특별시 송파구 방이동 171-5 한양빌딩",
      "roadAddress": "서울특별시 송파구 위례성대로 68 방이동한양빌딩",
      "lat": 37.5146718,
      "lng": 127.119592,
      "phone": "02-2640-5199",
      "dong": "방이동"
    },
    {
      "naverPlaceId": "1952043105",
      "name": "송파구 방이고분공영주차장 전기차충전소",
      "address": "서울특별시 송파구 방이동 125",
      "roadAddress": "서울특별시 송파구 오금로 219",
      "lat": 37.5075674,
      "lng": 127.1182491,
      "phone": "1833-9131",
      "dong": "방이동"
    },
    {
      "naverPlaceId": "35940208",
      "name": "송파구청 주차장",
      "address": "서울특별시 송파구 신천동 29-5 송파구청",
      "roadAddress": "서울특별시 송파구 올림픽로 326 송파구청",
      "lat": 37.5150089,
      "lng": 127.1062819,
      "phone": "02-2147-2130",
      "dong": "신천동"
    },
    {
      "naverPlaceId": "18850144",
      "name": "잠실역공영주차장",
      "address": "서울특별시 송파구 신천동 10-2",
      "roadAddress": "",
      "lat": 37.5156918,
      "lng": 127.1039628,
      "phone": "",
      "dong": "신천동"
    },
    {
      "naverPlaceId": "35992967",
      "name": "교통공원길노상공영주차장",
      "address": "서울특별시 송파구 신천동 10-2",
      "roadAddress": "",
      "lat": 37.5163993,
      "lng": 127.1036004,
      "phone": "02-431-0166",
      "dong": "신천동"
    },
    {
      "naverPlaceId": "1928406896",
      "name": "삼전근린공원 공영주차장 지하1~2층 대피소",
      "address": "서울특별시 송파구 삼전동 62-1",
      "roadAddress": "서울특별시 송파구 백제고분로 240",
      "lat": 37.5026147,
      "lng": 127.0930254,
      "phone": "",
      "dong": "삼전동"
    },
    {
      "naverPlaceId": "1937217719",
      "name": "삼전동 공영주차장 개방화장실",
      "address": "서울특별시 송파구 삼전동 175-8",
      "roadAddress": "서울특별시 송파구 백제고분로32길 25-17",
      "lat": 37.5002931,
      "lng": 127.0959776,
      "phone": "02-2147-3200",
      "dong": "삼전동"
    },
    {
      "naverPlaceId": "1069785981",
      "name": "송파구 삼전동 공영주차장 전기차충전소",
      "address": "서울특별시 송파구 삼전동 175-8",
      "roadAddress": "서울특별시 송파구 백제고분로32길 25-17",
      "lat": 37.5002619,
      "lng": 127.0958353,
      "phone": "1833-9131",
      "dong": "삼전동"
    },
    {
      "naverPlaceId": "1148569663",
      "name": "삼전동 공영주차장 SK일렉링크 전기차충전소",
      "address": "서울특별시 송파구 삼전동 175-8",
      "roadAddress": "서울특별시 송파구 백제고분로32길 25-17",
      "lat": 37.5002482,
      "lng": 127.0958791,
      "phone": "1566-1704",
      "dong": "삼전동"
    },
    {
      "naverPlaceId": "1358185204",
      "name": "삼전동 공영주차장 한국전력 전기차충전소",
      "address": "서울특별시 송파구 삼전동 175-8",
      "roadAddress": "서울특별시 송파구 백제고분로32길 25-17",
      "lat": 37.5002403,
      "lng": 127.0958633,
      "phone": "1899-2100",
      "dong": "삼전동"
    },
    {
      "naverPlaceId": "1496291712",
      "name": "삼전동 공영주차장 서울시 전기차충전소",
      "address": "서울특별시 송파구 삼전동 175-8",
      "roadAddress": "서울특별시 송파구 백제고분로32길 25-17",
      "lat": 37.5002482,
      "lng": 127.0958791,
      "phone": "02-2640-5199",
      "dong": "삼전동"
    },
    {
      "naverPlaceId": "1009221009",
      "name": "삼전근린공원공영주차장입구",
      "address": "서울특별시 송파구 삼전동",
      "roadAddress": "",
      "lat": 37.5027691,
      "lng": 127.0930225,
      "phone": "",
      "dong": "삼전동"
    },
    {
      "naverPlaceId": "854000915",
      "name": "잠실종합운동장 주차장",
      "address": "서울특별시 송파구 잠실동 10 서울종합운동장",
      "roadAddress": "서울특별시 송파구 올림픽로 25 서울종합운동장",
      "lat": 37.5133392,
      "lng": 127.073848,
      "phone": "02-2240-8876",
      "dong": "잠실동"
    },
    {
      "naverPlaceId": "1331382959",
      "name": "서울석촌동고분군공영주차장",
      "address": "서울특별시 송파구 석촌동 248",
      "roadAddress": "서울특별시 송파구 가락로7길 21",
      "lat": 37.5010052,
      "lng": 127.102791,
      "phone": "",
      "dong": "석촌동"
    },
    {
      "naverPlaceId": "1533264695",
      "name": "송파구 석촌고분공영주차장 전기차충전소",
      "address": "서울특별시 송파구 석촌동 248",
      "roadAddress": "서울특별시 송파구 가락로7길 21",
      "lat": 37.5009971,
      "lng": 127.1028224,
      "phone": "1833-9131",
      "dong": "석촌동"
    },
    {
      "naverPlaceId": "18861571",
      "name": "석촌고분공영주차장입구",
      "address": "서울특별시 송파구 석촌동",
      "roadAddress": "서울특별시 송파구",
      "lat": 37.5012332,
      "lng": 127.1029251,
      "phone": "",
      "dong": "석촌동"
    },
    {
      "naverPlaceId": "1420997436",
      "name": "송파공영주차장 전기차충전소",
      "address": "서울특별시 송파구 송파동 128",
      "roadAddress": "서울특별시 송파구 백제고분로44길 13-25",
      "lat": 37.5070083,
      "lng": 127.1133489,
      "phone": "1899-2100",
      "dong": "송파동"
    },
    {
      "naverPlaceId": "1917334040",
      "name": "송파동 공영주차장 개방화장실",
      "address": "서울특별시 송파구 송파동 128",
      "roadAddress": "서울특별시 송파구 백제고분로44길 13-25",
      "lat": 37.5070707,
      "lng": 127.1132862,
      "phone": "02-2147-3200",
      "dong": "송파동"
    },
    {
      "naverPlaceId": "1267665763",
      "name": "송파동 공영주차장 전기차충전소",
      "address": "서울특별시 송파구 송파동 128",
      "roadAddress": "서울특별시 송파구 백제고분로44길 13-25",
      "lat": 37.507025,
      "lng": 127.113342,
      "phone": "1566-1704",
      "dong": "송파동"
    },
    {
      "naverPlaceId": "1637698472",
      "name": "잠실 한강공원 1주차장",
      "address": "서울특별시 송파구 잠실동 1-1",
      "roadAddress": "서울특별시 송파구 한가람로 65",
      "lat": 37.5199149,
      "lng": 127.0940369,
      "phone": "",
      "dong": "잠실동"
    },
    {
      "naverPlaceId": "37766198",
      "name": "교통공원길노상공영주차장",
      "address": "서울특별시 송파구 신천동 7-21",
      "roadAddress": "",
      "lat": 37.5156621,
      "lng": 127.1001666,
      "phone": "02-431-0166",
      "dong": "신천동"
    },
    {
      "naverPlaceId": "1002206545",
      "name": "성내역 노상 공영 주차장",
      "address": "서울특별시 송파구 신천동 11-1",
      "roadAddress": "",
      "lat": 37.5179238,
      "lng": 127.104955,
      "phone": "",
      "dong": "신천동"
    },
    {
      "naverPlaceId": "37049190",
      "name": "광나루풍납지구 공영 주차장",
      "address": "서울특별시 송파구 신천동 255-1",
      "roadAddress": "",
      "lat": 37.5271602,
      "lng": 127.1059054,
      "phone": "02-312-4173",
      "dong": "신천동"
    },
    {
      "naverPlaceId": "1443091209",
      "name": "잠실역 공영주차장(지하1~2층) 대피소",
      "address": "서울특별시 송파구 신천동 7-4",
      "roadAddress": "서울특별시 송파구 올림픽로 305",
      "lat": 37.5149597,
      "lng": 127.1043072,
      "phone": "",
      "dong": "신천동"
    },
    {
      "naverPlaceId": "1356979923",
      "name": "잠실공영주차장 전기차충전소",
      "address": "서울특별시 송파구 신천동 29",
      "roadAddress": "서울특별시 송파구 올림픽로 300",
      "lat": 37.5137525,
      "lng": 127.104446,
      "phone": "02-1833-4903",
      "dong": "신천동"
    },
    {
      "naverPlaceId": "1543844354",
      "name": "잠실역공영주차장 전기차충전소",
      "address": "서울특별시 송파구 신천동 29",
      "roadAddress": "서울특별시 송파구 올림픽로 300",
      "lat": 37.5142288,
      "lng": 127.1040052,
      "phone": "1522-1782",
      "dong": "신천동"
    },
    {
      "naverPlaceId": "18850870",
      "name": "신천유수지공영주차장입구",
      "address": "서울특별시 송파구 신천동",
      "roadAddress": "",
      "lat": 37.5217923,
      "lng": 127.1032939,
      "phone": "",
      "dong": "신천동"
    },
    {
      "naverPlaceId": "1311856275",
      "name": "잠실역 노상 공영주차장 전기차충전소",
      "address": "서울특별시 송파구 신천동 10-2",
      "roadAddress": "",
      "lat": 37.5156598,
      "lng": 127.1039574,
      "phone": "1522-2573",
      "dong": "신천동"
    },
    {
      "naverPlaceId": "18849971",
      "name": "잠실역공영주차장입구",
      "address": "서울특별시 송파구 신천동",
      "roadAddress": "",
      "lat": 37.5158258,
      "lng": 127.1038534,
      "phone": "",
      "dong": "신천동"
    },
    {
      "naverPlaceId": "1834198440",
      "name": "신천유수지 공영주차장 전기차충전소",
      "address": "서울특별시 송파구 신천동 14",
      "roadAddress": "서울특별시 송파구 오금로2길 22",
      "lat": 37.521688,
      "lng": 127.1023302,
      "phone": "1566-1704",
      "dong": "신천동"
    },
    {
      "naverPlaceId": "1803911430",
      "name": "쏘카 잠실나루역 공영주차장",
      "address": "서울특별시 송파구 신천동 11-2 천주교회",
      "roadAddress": "서울특별시 송파구 오금로 54 신천동천주교회",
      "lat": 37.517819,
      "lng": 127.10504,
      "phone": "1661-8838",
      "dong": "신천동"
    },
    {
      "naverPlaceId": "1630009992",
      "name": "잠실역 공영주차장 에버온 전기차충전소",
      "address": "서울특별시 송파구 신천동 29",
      "roadAddress": "서울특별시 송파구 올림픽로 300",
      "lat": 37.514321,
      "lng": 127.1041408,
      "phone": "1661-7766",
      "dong": "신천동"
    },
    {
      "naverPlaceId": "1318595700",
      "name": "잠실역 공영주차장 시그넷 전기차충전소",
      "address": "서울특별시 송파구 신천동 29",
      "roadAddress": "서울특별시 송파구 올림픽로 300",
      "lat": 37.514233,
      "lng": 127.1039481,
      "phone": "1661-7737",
      "dong": "신천동"
    },
    {
      "naverPlaceId": "1825722845",
      "name": "잠실 한강공원 3주차장",
      "address": "서울특별시 송파구 잠실동 1-1 한강사업본부 잠실안내센터",
      "roadAddress": "서울특별시 송파구 한가람로 65 한강사업본부 잠실안내센터",
      "lat": 37.5176268,
      "lng": 127.0878016,
      "phone": "",
      "dong": "잠실동"
    },
    {
      "naverPlaceId": "1740581835",
      "name": "잠실 잠실대교 밑 공영 주차장",
      "address": "서울특별시 송파구 잠실동 1-1",
      "roadAddress": "서울특별시 송파구 한가람로 65",
      "lat": 37.5199047,
      "lng": 127.0940646,
      "phone": "",
      "dong": "잠실동"
    },
    {
      "naverPlaceId": "1262698550",
      "name": "잠실3동 주민센터 주차장",
      "address": "서울특별시 송파구 잠실동 27-4",
      "roadAddress": "서울특별시 송파구 잠실로 51-29",
      "lat": 37.513279,
      "lng": 127.0943914,
      "phone": "",
      "dong": "잠실동"
    },
    {
      "naverPlaceId": "35977261",
      "name": "잠실 자연학습장 앞 공영 주차장",
      "address": "서울특별시 송파구 잠실동 1-1 한강사업본부 잠실안내센터",
      "roadAddress": "서울특별시 송파구 한가람로 65 한강사업본부 잠실안내센터",
      "lat": 37.5175662,
      "lng": 127.0877121,
      "phone": "02-3780-0841",
      "dong": "잠실동"
    },
    {
      "naverPlaceId": "1432245618",
      "name": "잠실 안내센터 앞 공영 주차장",
      "address": "서울특별시 송파구 잠실동 1-1",
      "roadAddress": "서울특별시 송파구 한가람로 65",
      "lat": 37.5177771,
      "lng": 127.0887294,
      "phone": "",
      "dong": "잠실동"
    },
    {
      "naverPlaceId": "30886690",
      "name": "아시아공원공영주차장입출구",
      "address": "서울특별시 송파구 잠실동",
      "roadAddress": "",
      "lat": 37.509981,
      "lng": 127.078571,
      "phone": "",
      "dong": "잠실동"
    },
    {
      "naverPlaceId": "1211303477",
      "name": "서호2 공영주차장입구",
      "address": "서울특별시 송파구 잠실동",
      "roadAddress": "서울특별시 송파구",
      "lat": 37.5065924,
      "lng": 127.0981967,
      "phone": "",
      "dong": "잠실동"
    },
    {
      "naverPlaceId": "1009090807",
      "name": "서울놀이마당 공영주차장 전기차충전소",
      "address": "서울특별시 송파구 잠실동 47",
      "roadAddress": "서울특별시 송파구 송파나루길 34",
      "lat": 37.5086836,
      "lng": 127.0977343,
      "phone": "1566-1704",
      "dong": "잠실동"
    },
    {
      "naverPlaceId": "1232655455",
      "name": "서호2 공영주차장출구",
      "address": "서울특별시 송파구 잠실동",
      "roadAddress": "서울특별시 송파구",
      "lat": 37.5065815,
      "lng": 127.0984505,
      "phone": "",
      "dong": "잠실동"
    },
    {
      "naverPlaceId": "1512630922",
      "name": "서호1공영주차장 전기차충전소",
      "address": "서울특별시 송파구 잠실동 47 문화실험공간호수",
      "roadAddress": "서울특별시 송파구 송파나루길 256 문화실험공간호수",
      "lat": 37.5105411,
      "lng": 127.1011935,
      "phone": "1566-1704",
      "dong": "잠실동"
    },
    {
      "naverPlaceId": "138980014",
      "name": "잠실주공521동건너편자전거대여소",
      "address": "서울특별시 송파구 잠실동",
      "roadAddress": "",
      "lat": 37.5120042,
      "lng": 127.0961535,
      "phone": "",
      "dong": "잠실동"
    },
    {
      "naverPlaceId": "18922865",
      "name": "천호역지하환승주차장",
      "address": "서울특별시 송파구 풍납동 70-18",
      "roadAddress": "",
      "lat": 37.5390911,
      "lng": 127.1222155,
      "phone": "02-2290-6201",
      "dong": "풍납동"
    },
    {
      "naverPlaceId": "35977293",
      "name": "풍납유수지공영주차장",
      "address": "서울특별시 송파구 풍납동 388-1 서울아산병원",
      "roadAddress": "서울특별시 송파구 올림픽로43길 88 서울아산병원",
      "lat": 37.5250832,
      "lng": 127.1061011,
      "phone": "",
      "dong": "풍납동"
    },
    {
      "naverPlaceId": "36028601",
      "name": "광나루 천호대교 밑 공영 주차장",
      "address": "서울특별시 송파구 풍납동 49-2",
      "roadAddress": "",
      "lat": 37.5414492,
      "lng": 127.1162839,
      "phone": "02-3780-0841",
      "dong": "풍납동"
    },
    {
      "naverPlaceId": "18852105",
      "name": "풍납유수지공영주차장입출구",
      "address": "서울특별시 송파구 풍납동",
      "roadAddress": "",
      "lat": 37.5247699,
      "lng": 127.1069871,
      "phone": "",
      "dong": "풍납동"
    },
    {
      "naverPlaceId": "1111116659",
      "name": "풍납동2공영주차장입구",
      "address": "서울특별시 송파구 풍납동",
      "roadAddress": "",
      "lat": 37.5357118,
      "lng": 127.1164536,
      "phone": "",
      "dong": "풍납동"
    }
  ],
  "sido": "서울특별시",
  "sigungu": "송파구",
  "totalCount": 130,
  "source": "naver-map",
  "scrapedAt": "2026-02-10"
}