{
  "items": [
    {
      "naverPlaceId": "36046391",
      "name": "양천구도서관공영주차장",
      "address": "서울특별시 양천구 목동 905-32",
      "roadAddress": "",
      "lat": 37.5335126,
      "lng": 126.8765934,
      "phone": "",
      "dong": "목동"
    },
    {
      "naverPlaceId": "1251404031",
      "name": "가로공원 공영 주차장",
      "address": "서울특별시 양천구 신월동 263",
      "roadAddress": "서울특별시 양천구 가로공원로 116-1",
      "lat": 37.5360945,
      "lng": 126.8301806,
      "phone": "",
      "dong": "신월동"
    },
    {
      "naverPlaceId": "1692402409",
      "name": "한마음공영주차장",
      "address": "서울특별시 양천구 목동 914-5",
      "roadAddress": "",
      "lat": 37.5306694,
      "lng": 126.8779005,
      "phone": "",
      "dong": "목동"
    },
    {
      "naverPlaceId": "38282218",
      "name": "해맞이공영주차장",
      "address": "서울특별시 양천구 신월동 987 해맞이 공영주차장",
      "roadAddress": "서울특별시 양천구 지양로 53 해맞이 공영주차장",
      "lat": 37.5200023,
      "lng": 126.8345682,
      "phone": "",
      "dong": "신월동"
    },
    {
      "naverPlaceId": "36005507",
      "name": "바람개비공영주차장",
      "address": "서울특별시 양천구 목동 919-8",
      "roadAddress": "",
      "lat": 37.5302827,
      "lng": 126.8742536,
      "phone": "02-2644-1386",
      "dong": "목동"
    },
    {
      "naverPlaceId": "21186184",
      "name": "양천구당곡공영주차장",
      "address": "서울특별시 양천구 신월동 482-11",
      "roadAddress": "",
      "lat": 37.5243883,
      "lng": 126.8450407,
      "phone": "02-2644-1386",
      "dong": "신월동"
    },
    {
      "naverPlaceId": "1466805161",
      "name": "신정1,3동 복개 공영주차장",
      "address": "서울특별시 양천구 신정1동 1146",
      "roadAddress": "",
      "lat": 37.519321,
      "lng": 126.8539339,
      "phone": "02-2644-1386",
      "dong": ""
    },
    {
      "naverPlaceId": "18834925",
      "name": "양천구마을마당공영주차장",
      "address": "서울특별시 양천구 신월동 129-6",
      "roadAddress": "서울특별시 양천구 곰달래로3길 13",
      "lat": 37.5307432,
      "lng": 126.8331719,
      "phone": "",
      "dong": "신월동"
    },
    {
      "naverPlaceId": "36005515",
      "name": "신정4동길노상공영주차장",
      "address": "서울특별시 양천구 신정4동 1065",
      "roadAddress": "",
      "lat": 37.5264805,
      "lng": 126.861712,
      "phone": "",
      "dong": ""
    },
    {
      "naverPlaceId": "36005580",
      "name": "곰달래 공영 주차장",
      "address": "서울특별시 양천구 신월동 226-9 공영주차장",
      "roadAddress": "서울특별시 양천구 곰달래로10길 4 공영주차장",
      "lat": 37.5295184,
      "lng": 126.8362997,
      "phone": "02-1855-3433",
      "dong": "신월동"
    },
    {
      "naverPlaceId": "18840807",
      "name": "신월3동구립신우공영주차장",
      "address": "서울특별시 양천구 신월동 166-23",
      "roadAddress": "",
      "lat": 37.5344868,
      "lng": 126.8285743,
      "phone": "",
      "dong": "신월동"
    },
    {
      "naverPlaceId": "35913855",
      "name": "다락골 공영 주차장",
      "address": "서울특별시 양천구 신정동 1158-1 신정3공영주차장",
      "roadAddress": "서울특별시 양천구 중앙로29길 41 신정3공영주차장",
      "lat": 37.516154,
      "lng": 126.8496584,
      "phone": "",
      "dong": "신정동"
    },
    {
      "naverPlaceId": "1576972844",
      "name": "목3동등마루공영주차장",
      "address": "서울특별시 양천구 목동 965-1 목3동 등마루 공영주차장",
      "roadAddress": "서울특별시 양천구 목동중앙북로8다길 4 목3동 등마루 공영주차장",
      "lat": 37.5460048,
      "lng": 126.8655332,
      "phone": "",
      "dong": "목동"
    },
    {
      "naverPlaceId": "21186189",
      "name": "양천문화회관지하공영주차장",
      "address": "서울특별시 양천구 신정동 322 양천문화회관",
      "roadAddress": "서울특별시 양천구 목동서로 367 양천문화회관",
      "lat": 37.5164076,
      "lng": 126.8632802,
      "phone": "",
      "dong": "신정동"
    },
    {
      "naverPlaceId": "21185814",
      "name": "한사랑교회 앞 공영 주차장",
      "address": "서울특별시 양천구 신정동 324-11",
      "roadAddress": "",
      "lat": 37.5146317,
      "lng": 126.8603344,
      "phone": "",
      "dong": "신정동"
    },
    {
      "naverPlaceId": "21186113",
      "name": "목2동월촌공영주차장",
      "address": "서울특별시 양천구 목동 525",
      "roadAddress": "서울특별시 양천구 목동중앙북로 104",
      "lat": 37.5459431,
      "lng": 126.8746111,
      "phone": "",
      "dong": "목동"
    },
    {
      "naverPlaceId": "1239598044",
      "name": "신정네거리 공영주차장",
      "address": "서울특별시 양천구 신정동 1326-6",
      "roadAddress": "서울특별시 양천구 중앙로45길 19",
      "lat": 37.5211763,
      "lng": 126.8506799,
      "phone": "",
      "dong": "신정동"
    },
    {
      "naverPlaceId": "1515781352",
      "name": "양천문화회관 동측주차장",
      "address": "서울특별시 양천구 신정동 322",
      "roadAddress": "서울특별시 양천구 목동서로 367",
      "lat": 37.5164076,
      "lng": 126.8632802,
      "phone": "",
      "dong": "신정동"
    },
    {
      "naverPlaceId": "35992783",
      "name": "웃우물공영주차장",
      "address": "서울특별시 양천구 신정동 943-25 공영주차장",
      "roadAddress": "서울특별시 양천구 중앙로 310 공영주차장",
      "lat": 37.5237267,
      "lng": 126.8514011,
      "phone": "02-2290-6311",
      "dong": "신정동"
    },
    {
      "naverPlaceId": "1294786460",
      "name": "여울 공영 주차장",
      "address": "서울특별시 양천구 신월동 151-5",
      "roadAddress": "서울특별시 양천구 가로공원로 72",
      "lat": 37.5350374,
      "lng": 126.8241439,
      "phone": "",
      "dong": "신월동"
    },
    {
      "naverPlaceId": "2142138551",
      "name": "벚꽃길공영주차장",
      "address": "서울특별시 양천구 신정동 884-8",
      "roadAddress": "서울특별시 양천구 신정중앙로17길 7",
      "lat": 37.5275593,
      "lng": 126.8599668,
      "phone": "",
      "dong": "신정동"
    },
    {
      "naverPlaceId": "1129993804",
      "name": "서서울공영주차장",
      "address": "서울특별시 양천구 신월동 268-95",
      "roadAddress": "",
      "lat": 37.5282387,
      "lng": 126.8325344,
      "phone": "080-330-3600",
      "dong": "신월동"
    },
    {
      "naverPlaceId": "37033229",
      "name": "양천구청공영주차장",
      "address": "서울특별시 양천구 신정동 321-4 양천구청",
      "roadAddress": "서울특별시 양천구 목동동로 105 양천구청",
      "lat": 37.5171103,
      "lng": 126.8662789,
      "phone": "",
      "dong": "신정동"
    },
    {
      "naverPlaceId": "1366479529",
      "name": "양천구청 해운공영주차장 전기차충전소",
      "address": "서울특별시 양천구 목동 711-6",
      "roadAddress": "서울특별시 양천구 목동중앙남로14가길 39",
      "lat": 37.5420325,
      "lng": 126.8651199,
      "phone": "1811-1350",
      "dong": "목동"
    },
    {
      "naverPlaceId": "21185728",
      "name": "능골공영주차장",
      "address": "서울특별시 양천구 신월동 152-38",
      "roadAddress": "",
      "lat": 37.5331782,
      "lng": 126.8246039,
      "phone": "",
      "dong": "신월동"
    },
    {
      "naverPlaceId": "36005517",
      "name": "신월1동 저지1구역 노상 공영 주차장",
      "address": "서울특별시 양천구 신월1동 827",
      "roadAddress": "",
      "lat": 37.5297582,
      "lng": 126.8377243,
      "phone": "",
      "dong": ""
    },
    {
      "naverPlaceId": "1668182808",
      "name": "목동체비지 공영 주차장",
      "address": "서울특별시 양천구 목동 908-26",
      "roadAddress": "",
      "lat": 37.5367924,
      "lng": 126.8806468,
      "phone": "02-2642-6209",
      "dong": "목동"
    },
    {
      "naverPlaceId": "35913872",
      "name": "신월5동 복개 노상 공영 주차장",
      "address": "서울특별시 양천구 신월동 273",
      "roadAddress": "",
      "lat": 37.5390856,
      "lng": 126.8272093,
      "phone": "",
      "dong": "신월동"
    },
    {
      "naverPlaceId": "36005516",
      "name": "로데오길노상공영주차장",
      "address": "서울특별시 양천구 신정4동 890-1",
      "roadAddress": "서울특별시 양천구 목동로25길 19",
      "lat": 37.5278205,
      "lng": 126.8619161,
      "phone": "02-2695-8597",
      "dong": ""
    },
    {
      "naverPlaceId": "1466444218",
      "name": "광장 공영 주차장",
      "address": "서울특별시 양천구 목동 907-19",
      "roadAddress": "",
      "lat": 37.535405,
      "lng": 126.8793575,
      "phone": "",
      "dong": "목동"
    },
    {
      "naverPlaceId": "37033226",
      "name": "우리 공영 주차장",
      "address": "서울특별시 양천구 목동 907-8",
      "roadAddress": "",
      "lat": 37.5366403,
      "lng": 126.8791748,
      "phone": "",
      "dong": "목동"
    },
    {
      "naverPlaceId": "1162146344",
      "name": "법안정사공영주차장",
      "address": "서울특별시 양천구 목동 907-2",
      "roadAddress": "서울특별시 양천구 목동동로 371",
      "lat": 37.5354741,
      "lng": 126.8784978,
      "phone": "",
      "dong": "목동"
    },
    {
      "naverPlaceId": "1054923389",
      "name": "한두공영주차장",
      "address": "서울특별시 양천구 목동",
      "roadAddress": "",
      "lat": 37.5487935,
      "lng": 126.8662113,
      "phone": "",
      "dong": "목동"
    },
    {
      "naverPlaceId": "36005518",
      "name": "신월1동 저지2구역 노상 공영 주차장",
      "address": "서울특별시 양천구 신월1동 289",
      "roadAddress": "",
      "lat": 37.536367,
      "lng": 126.8337552,
      "phone": "",
      "dong": ""
    },
    {
      "naverPlaceId": "21186044",
      "name": "어울림 공영 주차장",
      "address": "서울특별시 양천구 신정동 318-2",
      "roadAddress": "",
      "lat": 37.5221852,
      "lng": 126.8692503,
      "phone": "02-2644-1386",
      "dong": "신정동"
    },
    {
      "naverPlaceId": "1745287724",
      "name": "경창시장 고객 공영 주차장",
      "address": "서울특별시 양천구 신월동 446-3",
      "roadAddress": "",
      "lat": 37.523977,
      "lng": 126.842324,
      "phone": "",
      "dong": "신월동"
    },
    {
      "naverPlaceId": "35977136",
      "name": "양천경찰서노상공영주차장",
      "address": "서울특별시 양천구 신정동 322-3",
      "roadAddress": "",
      "lat": 37.5168282,
      "lng": 126.864986,
      "phone": "",
      "dong": "신정동"
    },
    {
      "naverPlaceId": "35913854",
      "name": "하늘 공영 주차장",
      "address": "서울특별시 양천구 신정7동 323-33",
      "roadAddress": "",
      "lat": 37.5152348,
      "lng": 126.8614914,
      "phone": "",
      "dong": ""
    },
    {
      "naverPlaceId": "35977134",
      "name": "한국통신노상공영주차장",
      "address": "서울특별시 양천구 목1동 924-1",
      "roadAddress": "",
      "lat": 37.5282402,
      "lng": 126.8713475,
      "phone": "",
      "dong": ""
    },
    {
      "naverPlaceId": "640206700",
      "name": "현대41타워 옆 노상 공영 주차장",
      "address": "서울특별시 양천구 목동 917-2",
      "roadAddress": "서울특별시 양천구 목동서로 159-3",
      "lat": 37.5276911,
      "lng": 126.8752251,
      "phone": "",
      "dong": "목동"
    },
    {
      "naverPlaceId": "38282219",
      "name": "한전뒷길 노상 공영 주차장",
      "address": "서울특별시 양천구 신정동 319-25",
      "roadAddress": "",
      "lat": 37.51947,
      "lng": 126.8691465,
      "phone": "",
      "dong": "신정동"
    },
    {
      "naverPlaceId": "35913853",
      "name": "문화회관서측공영주차장",
      "address": "서울특별시 양천구 신정동 323-25",
      "roadAddress": "",
      "lat": 37.5163307,
      "lng": 126.8625504,
      "phone": "",
      "dong": "신정동"
    },
    {
      "naverPlaceId": "36005508",
      "name": "신영시장 공영 주차장",
      "address": "서울특별시 양천구 신월동 114-16",
      "roadAddress": "",
      "lat": 37.5330158,
      "lng": 126.8362126,
      "phone": "",
      "dong": "신월동"
    },
    {
      "naverPlaceId": "35913836",
      "name": "밝은빛 공영 주차장",
      "address": "서울특별시 양천구 신정동 323-18",
      "roadAddress": "",
      "lat": 37.5162025,
      "lng": 126.8613756,
      "phone": "",
      "dong": "신정동"
    },
    {
      "naverPlaceId": "35913852",
      "name": "누리공영주차장",
      "address": "서울특별시 양천구 신정동 323-13",
      "roadAddress": "",
      "lat": 37.5154287,
      "lng": 126.8627107,
      "phone": "",
      "dong": "신정동"
    },
    {
      "naverPlaceId": "35913864",
      "name": "법마을 공영 주차장",
      "address": "서울특별시 양천구 신정동 1018-3",
      "roadAddress": "",
      "lat": 37.5217078,
      "lng": 126.8605741,
      "phone": "",
      "dong": "신정동"
    },
    {
      "naverPlaceId": "151726328",
      "name": "동문굿모닝탑 앞 노상 공영 주차장",
      "address": "서울특별시 양천구 신정동 324-3",
      "roadAddress": "",
      "lat": 37.5154576,
      "lng": 126.8610429,
      "phone": "",
      "dong": "신정동"
    },
    {
      "naverPlaceId": "1635201218",
      "name": "부영그린공영주차장",
      "address": "서울특별시 양천구 목동 908-35",
      "roadAddress": "",
      "lat": 37.5368659,
      "lng": 126.8815034,
      "phone": "",
      "dong": "목동"
    },
    {
      "naverPlaceId": "21295746",
      "name": "목동공영주차장 개방화장실",
      "address": "서울특별시 양천구 목동 915",
      "roadAddress": "서울특별시 양천구 목동동로 298",
      "lat": 37.5267851,
      "lng": 126.8765656,
      "phone": "02-2644-1384",
      "dong": "목동"
    },
    {
      "naverPlaceId": "18822275",
      "name": "목2동공영주차장",
      "address": "서울특별시 양천구 목동 532-18",
      "roadAddress": "",
      "lat": 37.544361,
      "lng": 126.8715991,
      "phone": "",
      "dong": "목동"
    },
    {
      "naverPlaceId": "35913859",
      "name": "해운 공영 주차장",
      "address": "서울특별시 양천구 목3동 711-6",
      "roadAddress": "서울특별시 양천구 목동중앙남로14가길 39",
      "lat": 37.5420347,
      "lng": 126.8651216,
      "phone": "02-2061-7887",
      "dong": ""
    },
    {
      "naverPlaceId": "35977133",
      "name": "파리공원노상공영주차장",
      "address": "서울특별시 양천구 목동 906-1",
      "roadAddress": "",
      "lat": 37.5339429,
      "lng": 126.8764369,
      "phone": "",
      "dong": "목동"
    },
    {
      "naverPlaceId": "1164894384",
      "name": "목동체비지  공영 주차장",
      "address": "서울특별시 양천구 목동 908-27",
      "roadAddress": "",
      "lat": 37.5369833,
      "lng": 126.8812274,
      "phone": "",
      "dong": "목동"
    },
    {
      "naverPlaceId": "36005510",
      "name": "공단본부공영주차장",
      "address": "서울특별시 양천구 목동 919-5",
      "roadAddress": "서울특별시 양천구 목동서로 190",
      "lat": 37.530167,
      "lng": 126.8713007,
      "phone": "",
      "dong": "목동"
    },
    {
      "naverPlaceId": "1046447851",
      "name": "목3동 주민센터 주차장",
      "address": "서울특별시 양천구 목동 642-1",
      "roadAddress": "서울특별시 양천구 목동중앙남로16나길 55",
      "lat": 37.5447045,
      "lng": 126.8644277,
      "phone": "",
      "dong": "목동"
    },
    {
      "naverPlaceId": "1555550636",
      "name": "양천구 가로공원 공영주차장",
      "address": "서울특별시 양천구 신월동 82-1",
      "roadAddress": "서울특별시 양천구 가로공원로 133",
      "lat": 37.5367261,
      "lng": 126.8308283,
      "phone": "02-2065-8332",
      "dong": "신월동"
    },
    {
      "naverPlaceId": "21186181",
      "name": "신곡공영주차장",
      "address": "서울특별시 양천구 신월동 549-18",
      "roadAddress": "서울특별시 양천구",
      "lat": 37.5170705,
      "lng": 126.8409545,
      "phone": "",
      "dong": "신월동"
    },
    {
      "naverPlaceId": "1036094277",
      "name": "서서울시공영주차장",
      "address": "서울특별시 양천구 신월동 264 8",
      "roadAddress": "",
      "lat": 37.5387937,
      "lng": 126.8269348,
      "phone": "",
      "dong": "신월동"
    },
    {
      "naverPlaceId": "1955259556",
      "name": "신월3동여울공영주차장",
      "address": "서울특별시 양천구 신월동 151-5 신월3동 여울공영주차장",
      "roadAddress": "서울특별시 양천구 가로공원로 72 신월3동 여울공영주차장",
      "lat": 37.5351028,
      "lng": 126.8241634,
      "phone": "",
      "dong": "신월동"
    },
    {
      "naverPlaceId": "36046383",
      "name": "곰달래5길 노상 공영 주차장",
      "address": "서울특별시 양천구 신월동 804",
      "roadAddress": "",
      "lat": 37.5300986,
      "lng": 126.8346281,
      "phone": "02-2698-1386",
      "dong": "신월동"
    },
    {
      "naverPlaceId": "35913869",
      "name": "오솔길 공영 주차장",
      "address": "서울특별시 양천구 신월동 963-2",
      "roadAddress": "서울특별시 양천구 남부순환로70길 16-8",
      "lat": 37.5221921,
      "lng": 126.834746,
      "phone": "",
      "dong": "신월동"
    },
    {
      "naverPlaceId": "1663134609",
      "name": "신월6동마을사랑주차장",
      "address": "서울특별시 양천구 신월동 1002-18",
      "roadAddress": "",
      "lat": 37.5163347,
      "lng": 126.8379294,
      "phone": "",
      "dong": "신월동"
    },
    {
      "naverPlaceId": "1745278841",
      "name": "신월4동 공영 주차장",
      "address": "서울특별시 양천구 신월동 411-1",
      "roadAddress": "서울특별시 양천구 국회대로 28",
      "lat": 37.5256957,
      "lng": 126.8379025,
      "phone": "",
      "dong": "신월동"
    }
  ],
  "sido": "서울특별시",
  "sigungu": "양천구",
  "totalCount": 63,
  "source": "naver-map",
  "scrapedAt": "2026-02-10"
}