{
  "items": [
    {
      "naverPlaceId": "35977186",
      "name": "영등포 영남 공영 주차장",
      "address": "서울특별시 영등포구 영등포동4가 123",
      "roadAddress": "서울특별시 영등포구 영등포로34길 9",
      "lat": 37.5194564,
      "lng": 126.9025865,
      "phone": "",
      "dong": "영등포동"
    },
    {
      "naverPlaceId": "884252715",
      "name": "양평유수지공영주차장",
      "address": "서울특별시 영등포구 양평동3가 57-3",
      "roadAddress": "서울특별시 영등포구 국회대로22길 20",
      "lat": 37.5279623,
      "lng": 126.8903551,
      "phone": "",
      "dong": "양평동"
    },
    {
      "naverPlaceId": "35977154",
      "name": "당산공영주차장",
      "address": "서울특별시 영등포구 당산동3가 2-1",
      "roadAddress": "",
      "lat": 37.5262222,
      "lng": 126.8995413,
      "phone": "",
      "dong": "당산동"
    },
    {
      "naverPlaceId": "21186030",
      "name": "대림어린이공원 공영 주차장",
      "address": "서울특별시 영등포구 대림동 870",
      "roadAddress": "서울특별시 영등포구 대림로 106",
      "lat": 37.4911045,
      "lng": 126.90328,
      "phone": "",
      "dong": "대림동"
    },
    {
      "naverPlaceId": "693844674",
      "name": "영등포본동제1 공영 주차장",
      "address": "서울특별시 영등포구 영등포동 592-10",
      "roadAddress": "서울특별시 영등포구 영등포동 영신로10길 15",
      "lat": 37.5143981,
      "lng": 126.9091626,
      "phone": "",
      "dong": "영등포동"
    },
    {
      "naverPlaceId": "36039658",
      "name": "대림운동장공영주차장",
      "address": "서울특별시 영등포구 대림동 780",
      "roadAddress": "서울특별시 영등포구 가마산로31길 16",
      "lat": 37.4989909,
      "lng": 126.894093,
      "phone": "",
      "dong": "대림동"
    },
    {
      "naverPlaceId": "37416199",
      "name": "당산근린공원공영주차장",
      "address": "서울특별시 영등포구 당산동3가 385-1 영등포구청",
      "roadAddress": "서울특별시 영등포구 당산로 123 영등포구청",
      "lat": 37.5261084,
      "lng": 126.8955497,
      "phone": "",
      "dong": "당산동"
    },
    {
      "naverPlaceId": "18997129",
      "name": "영등포동 제3공영주차장",
      "address": "서울특별시 영등포구 영등포동4가 442-6 영등포구 관광정보센터",
      "roadAddress": "서울특별시 영등포구 문래로 196 영등포구 관광정보센터",
      "lat": 37.5179384,
      "lng": 126.9030871,
      "phone": "",
      "dong": "영등포동"
    },
    {
      "naverPlaceId": "36039656",
      "name": "대림1동공영주차장",
      "address": "서울특별시 영등포구 대림동 834-1",
      "roadAddress": "서울특별시 영등포구 대림로22길 2",
      "lat": 37.493177,
      "lng": 126.9016685,
      "phone": "",
      "dong": "대림동"
    },
    {
      "naverPlaceId": "36039657",
      "name": "대림중앙시장공영주차장",
      "address": "서울특별시 영등포구 대림동 1072-25",
      "roadAddress": "서울특별시 영등포구 디지털로37나길 21",
      "lat": 37.491633,
      "lng": 126.8999416,
      "phone": "",
      "dong": "대림동"
    },
    {
      "naverPlaceId": "1209534060",
      "name": "쏘카 도림초교 공영주차장",
      "address": "서울특별시 영등포구 신길동 299-1",
      "roadAddress": "서울특별시 영등포구 가마산로65길 22",
      "lat": 37.508209,
      "lng": 126.906563,
      "phone": "1661-8838",
      "dong": "신길동"
    },
    {
      "naverPlaceId": "38328263",
      "name": "경부 제3녹지 공영 주차장",
      "address": "서울특별시 영등포구 신길동 69-39 경부제3녹지 지하공영주차장",
      "roadAddress": "서울특별시 영등포구 영등포로 405 경부제3녹지 지하공영주차장",
      "lat": 37.5132448,
      "lng": 126.9242368,
      "phone": "",
      "dong": "신길동"
    },
    {
      "naverPlaceId": "93849640",
      "name": "영등포구청역공영주차장",
      "address": "서울특별시 영등포구 당산동3가 370",
      "roadAddress": "서울특별시 영등포구 양산로19길 8",
      "lat": 37.5248761,
      "lng": 126.8951529,
      "phone": "02-2290-6089",
      "dong": "당산동"
    },
    {
      "naverPlaceId": "1647895917",
      "name": "쏘카 신길4동1동1마을공원 공영주차장",
      "address": "서울특별시 영등포구 신길동 232-20",
      "roadAddress": "서울특별시 영등포구 신길로40길 5",
      "lat": 37.5071579,
      "lng": 126.911672,
      "phone": "1661-8838",
      "dong": "신길동"
    },
    {
      "naverPlaceId": "1643251383",
      "name": "영등포구 신길환승5호선 공영주차장 전기차충전소",
      "address": "서울특별시 영등포구 영등포동1가 35",
      "roadAddress": "서울특별시 영등포구 경인로114가길 9",
      "lat": 37.5177129,
      "lng": 126.9145095,
      "phone": "1833-9131",
      "dong": "영등포동"
    },
    {
      "naverPlaceId": "35977257",
      "name": "여의도서강대교남단공영주차장",
      "address": "서울특별시 영등포구 여의도동 83-6",
      "roadAddress": "서울특별시 영등포구 여의서로 62",
      "lat": 37.5323721,
      "lng": 126.9236912,
      "phone": "02-782-8634",
      "dong": "여의도동"
    },
    {
      "naverPlaceId": "21185867",
      "name": "대림3동 공영 주차장",
      "address": "서울특별시 영등포구 대림동 745-1",
      "roadAddress": "",
      "lat": 37.4982347,
      "lng": 126.9001684,
      "phone": "",
      "dong": "대림동"
    },
    {
      "naverPlaceId": "36005524",
      "name": "영등포여자고등학교지하공영주차장",
      "address": "서울특별시 영등포구 신길동 184-3 영등포여자고등학교",
      "roadAddress": "서울특별시 영등포구 영등포로62길 13 영등포여자고등학교",
      "lat": 37.5155522,
      "lng": 126.9151774,
      "phone": "",
      "dong": "신길동"
    },
    {
      "naverPlaceId": "1160590942",
      "name": "양평2동청사 공영 주차장",
      "address": "서울특별시 영등포구 양평동4가 92-5",
      "roadAddress": "서울특별시 영등포구 양평로19길 10-8",
      "lat": 37.5366132,
      "lng": 126.8943095,
      "phone": "",
      "dong": "양평동"
    },
    {
      "naverPlaceId": "19002119",
      "name": "영등포구청역환승주차장",
      "address": "서울특별시 영등포구 당산동3가 370-4",
      "roadAddress": "서울특별시 영등포구 양산로 111",
      "lat": 37.5245022,
      "lng": 126.8956248,
      "phone": "02-2650-1435",
      "dong": "당산동"
    },
    {
      "naverPlaceId": "1796225447",
      "name": "영등포동 전통시장 공영주차장",
      "address": "서울특별시 영등포구 영등포동2가 466 영등포동 공공복합센터",
      "roadAddress": "서울특별시 영등포구 양산로 232 (영등포동2가) 영등포동 공공복합센터",
      "lat": 37.5222527,
      "lng": 126.9089111,
      "phone": "",
      "dong": "영등포동"
    },
    {
      "naverPlaceId": "36005582",
      "name": "영등포본동 제2공영주차장",
      "address": "서울특별시 영등포구 신길동 186-355",
      "roadAddress": "서울특별시 영등포구 신길로60길 34",
      "lat": 37.5132847,
      "lng": 126.9140684,
      "phone": "",
      "dong": "신길동"
    },
    {
      "naverPlaceId": "21185978",
      "name": "문래근린공원공영주차장",
      "address": "서울특별시 영등포구 문래동3가 60-2",
      "roadAddress": "서울특별시 영등포구 당산로 1",
      "lat": 37.5152505,
      "lng": 126.8936999,
      "phone": "",
      "dong": "문래동"
    },
    {
      "naverPlaceId": "18996111",
      "name": "영등포동제1공영주차장",
      "address": "서울특별시 영등포구 영등포동2가 241",
      "roadAddress": "서울특별시 영등포구 영등포로53길 28",
      "lat": 37.5207359,
      "lng": 126.910031,
      "phone": "02-845-2913",
      "dong": "영등포동"
    },
    {
      "naverPlaceId": "35896065",
      "name": "당산2동 공영 주차장",
      "address": "서울특별시 영등포구 당산동 121-105",
      "roadAddress": "",
      "lat": 37.528249,
      "lng": 126.9077945,
      "phone": "",
      "dong": "당산동"
    },
    {
      "naverPlaceId": "38488125",
      "name": "영등포시장제2공영주차장",
      "address": "서울특별시 영등포구 영등포동7가 29-122",
      "roadAddress": "",
      "lat": 37.5237679,
      "lng": 126.9085581,
      "phone": "080-772-6400",
      "dong": "영등포동"
    },
    {
      "naverPlaceId": "1504001453",
      "name": "신길5동 공영주차장",
      "address": "서울특별시 영등포구 신길5동 400-1",
      "roadAddress": "",
      "lat": 37.5022304,
      "lng": 126.9047984,
      "phone": "0507-1378-1435",
      "dong": ""
    },
    {
      "naverPlaceId": "1408604314",
      "name": "도림동 공영 주차장",
      "address": "서울특별시 영등포구 도림동 226-13",
      "roadAddress": "서울특별시 영등포구 도신로15길 36",
      "lat": 37.5083194,
      "lng": 126.8967778,
      "phone": "",
      "dong": "도림동"
    },
    {
      "naverPlaceId": "1416634784",
      "name": "당산고가밑 노상공영주차장",
      "address": "서울특별시 영등포구 당산동5가 11-39",
      "roadAddress": "",
      "lat": 37.5325616,
      "lng": 126.9008458,
      "phone": "",
      "dong": "당산동"
    },
    {
      "naverPlaceId": "1102997405",
      "name": "신길4동1동1마을공원지하공영주차장",
      "address": "서울특별시 영등포구 신길동 232-20 신길4동 공원지하주차장",
      "roadAddress": "서울특별시 영등포구 신길로40길 5 신길4동 공원지하주차장",
      "lat": 37.5071031,
      "lng": 126.9116313,
      "phone": "",
      "dong": "신길동"
    },
    {
      "naverPlaceId": "35977689",
      "name": "해군본부앞노상공영주차장",
      "address": "서울특별시 영등포구 신길동 812",
      "roadAddress": "",
      "lat": 37.5043047,
      "lng": 126.9212308,
      "phone": "",
      "dong": "신길동"
    },
    {
      "naverPlaceId": "1622172269",
      "name": "영등포구 대림2동 중앙시장 공영주차장 전기차충전소",
      "address": "서울특별시 영등포구 대림동 1072-25",
      "roadAddress": "서울특별시 영등포구 디지털로37나길 21",
      "lat": 37.4915718,
      "lng": 126.8997046,
      "phone": "1833-9131",
      "dong": "대림동"
    },
    {
      "naverPlaceId": "1105361596",
      "name": "신길7동공영주차장",
      "address": "서울특별시 영등포구 신길동 1166-1",
      "roadAddress": "",
      "lat": 37.5083366,
      "lng": 126.9222423,
      "phone": "",
      "dong": "신길동"
    },
    {
      "naverPlaceId": "35824717",
      "name": "당산1동공영주차장",
      "address": "서울특별시 영등포구 당산동3가 6-1",
      "roadAddress": "서울특별시 영등포구 양산로 147",
      "lat": 37.5237696,
      "lng": 126.8994283,
      "phone": "",
      "dong": "당산동"
    },
    {
      "naverPlaceId": "37049193",
      "name": "양화전망카페공영주차장",
      "address": "서울특별시 영등포구 당산동 95-1",
      "roadAddress": "서울특별시 영등포구 한강남자전거길 1203",
      "lat": 37.5387324,
      "lng": 126.9017813,
      "phone": "02-3780-0841",
      "dong": "당산동"
    },
    {
      "naverPlaceId": "35977216",
      "name": "양화당산철교밑노상공영주차장",
      "address": "서울특별시 영등포구 당산동 95-1",
      "roadAddress": "서울특별시 영등포구 한강남자전거길 1203",
      "lat": 37.5374654,
      "lng": 126.9037942,
      "phone": "",
      "dong": "당산동"
    },
    {
      "naverPlaceId": "1166215700",
      "name": "영등포구청역 주차장",
      "address": "서울특별시 영등포구 당산동3가 370-3",
      "roadAddress": "",
      "lat": 37.5242837,
      "lng": 126.8956047,
      "phone": "",
      "dong": "당산동"
    },
    {
      "naverPlaceId": "19002301",
      "name": "당산근린공원공영주차장입출구",
      "address": "서울특별시 영등포구 당산동3가",
      "roadAddress": "",
      "lat": 37.5261453,
      "lng": 126.8954594,
      "phone": "",
      "dong": "당산동"
    },
    {
      "naverPlaceId": "19472972",
      "name": "당산고가밑 노상공영주차장입구",
      "address": "서울특별시 영등포구 당산동5가",
      "roadAddress": "",
      "lat": 37.5328401,
      "lng": 126.9009975,
      "phone": "",
      "dong": "당산동"
    },
    {
      "naverPlaceId": "1300959580",
      "name": "영등포구청역 공영주차장 전기차충전소",
      "address": "서울특별시 영등포구 당산동3가 370-4",
      "roadAddress": "서울특별시 영등포구 양산로 111",
      "lat": 37.5245767,
      "lng": 126.8955988,
      "phone": "1661-7737",
      "dong": "당산동"
    },
    {
      "naverPlaceId": "1090647308",
      "name": "당산근린공원 공영주차장 전기차충전소",
      "address": "서울특별시 영등포구 당산동3가 385",
      "roadAddress": "서울특별시 영등포구 당산로27길 12",
      "lat": 37.525177,
      "lng": 126.895134,
      "phone": "1522-1782",
      "dong": "당산동"
    },
    {
      "naverPlaceId": "1880787239",
      "name": "당산노외공영주차장 전기차충전소",
      "address": "서울특별시 영등포구 당산동3가 4",
      "roadAddress": "",
      "lat": 37.5265367,
      "lng": 126.8994048,
      "phone": "1533-0702",
      "dong": "당산동"
    },
    {
      "naverPlaceId": "1277644201",
      "name": "당산2동 공영주차장",
      "address": "서울특별시 영등포구 당산동 121-106 당산2동 공영주차장",
      "roadAddress": "서울특별시 영등포구 버드나루로 111 (당산동) 당산2동 공영주차장",
      "lat": 37.5279675,
      "lng": 126.9078422,
      "phone": "",
      "dong": "당산동"
    },
    {
      "naverPlaceId": "21187804",
      "name": "당산고가밑 노상공영주차장출구",
      "address": "서울특별시 영등포구 당산동5가",
      "roadAddress": "",
      "lat": 37.5327482,
      "lng": 126.9010782,
      "phone": "",
      "dong": "당산동"
    },
    {
      "naverPlaceId": "1576480998",
      "name": "영등포구청 환승공영주차장 환경부 전기차충전소",
      "address": "서울특별시 영등포구 당산동3가 370-4 영등포구청 별관",
      "roadAddress": "서울특별시 영등포구 양산로 111 영등포구청 별관",
      "lat": 37.5245784,
      "lng": 126.8953756,
      "phone": "1661-9408",
      "dong": "당산동"
    },
    {
      "naverPlaceId": "1248523884",
      "name": "영등포구청역공영주차장 전기차충전소",
      "address": "서울특별시 영등포구 당산동3가 370-3",
      "roadAddress": "",
      "lat": 37.5242705,
      "lng": 126.8956045,
      "phone": "1522-1782",
      "dong": "당산동"
    },
    {
      "naverPlaceId": "1914433610",
      "name": "영등포구청 환승공영주차장 한국전력 전기차충전소",
      "address": "서울특별시 영등포구 당산동3가 370-4 영등포구청 별관",
      "roadAddress": "서울특별시 영등포구 양산로 111 영등포구청 별관",
      "lat": 37.5245789,
      "lng": 126.8956811,
      "phone": "1899-2100",
      "dong": "당산동"
    },
    {
      "naverPlaceId": "36848986",
      "name": "구로디지털단지노상공영주차장",
      "address": "서울특별시 영등포구 대림동 1064-3",
      "roadAddress": "",
      "lat": 37.4854544,
      "lng": 126.902374,
      "phone": "",
      "dong": "대림동"
    },
    {
      "naverPlaceId": "19016355",
      "name": "구로디지털단지역2카드전용환승주차장",
      "address": "서울특별시 영등포구 대림동 1064-3",
      "roadAddress": "",
      "lat": 37.4853178,
      "lng": 126.9024874,
      "phone": "",
      "dong": "대림동"
    },
    {
      "naverPlaceId": "1932261355",
      "name": "대림중앙시장공영주차장입출구",
      "address": "서울특별시 영등포구 대림동",
      "roadAddress": "",
      "lat": 37.4915892,
      "lng": 126.9000355,
      "phone": "",
      "dong": "대림동"
    },
    {
      "naverPlaceId": "1905739690",
      "name": "구로디지털단지역노상공영주차장입구",
      "address": "서울특별시 영등포구 대림동",
      "roadAddress": "",
      "lat": 37.4853461,
      "lng": 126.902449,
      "phone": "",
      "dong": "대림동"
    },
    {
      "naverPlaceId": "20620643",
      "name": "대림운동장공영주차장입구",
      "address": "서울특별시 영등포구 대림동",
      "roadAddress": "",
      "lat": 37.4990003,
      "lng": 126.8940491,
      "phone": "",
      "dong": "대림동"
    },
    {
      "naverPlaceId": "1657461660",
      "name": "대림3동 공영 주차장입구",
      "address": "서울특별시 영등포구 대림동",
      "roadAddress": "",
      "lat": 37.4981413,
      "lng": 126.8999995,
      "phone": "",
      "dong": "대림동"
    },
    {
      "naverPlaceId": "1703027924",
      "name": "대림3동 공영 주차장입구",
      "address": "서울특별시 영등포구 대림동",
      "roadAddress": "",
      "lat": 37.4976779,
      "lng": 126.9010126,
      "phone": "",
      "dong": "대림동"
    },
    {
      "naverPlaceId": "19017476",
      "name": "대림1동공영주차장입구",
      "address": "서울특별시 영등포구 대림동",
      "roadAddress": "",
      "lat": 37.4933783,
      "lng": 126.9014035,
      "phone": "",
      "dong": "대림동"
    },
    {
      "naverPlaceId": "19018271",
      "name": "대림어린이공원 공영 주차장입구",
      "address": "서울특별시 영등포구 대림동",
      "roadAddress": "",
      "lat": 37.4910653,
      "lng": 126.9032137,
      "phone": "",
      "dong": "대림동"
    },
    {
      "naverPlaceId": "1738038368",
      "name": "대림운동장 공영주차장",
      "address": "서울특별시 영등포구 대림동 780 대림운동장 공영주차장",
      "roadAddress": "서울특별시 영등포구 가마산로31길 16 (대림동) 대림운동장 공영주차장",
      "lat": 37.4996703,
      "lng": 126.8939969,
      "phone": "",
      "dong": "대림동"
    },
    {
      "naverPlaceId": "1702801761",
      "name": "대림2동 공영주차장",
      "address": "서울특별시 영등포구 대림동 1072-25 대림2동 공영주차장",
      "roadAddress": "서울특별시 영등포구 디지털로37나길 21 (대림동) 대림2동 공영주차장",
      "lat": 37.4915533,
      "lng": 126.8997042,
      "phone": "",
      "dong": "대림동"
    },
    {
      "naverPlaceId": "1031901115",
      "name": "대림어린이공원 공영주차장",
      "address": "서울특별시 영등포구 대림동 870 대림어린이공원 공영주차장",
      "roadAddress": "서울특별시 영등포구 대림로 106 (대림동) 대림어린이공원 공영주차장",
      "lat": 37.4913482,
      "lng": 126.9030222,
      "phone": "",
      "dong": "대림동"
    },
    {
      "naverPlaceId": "1461535962",
      "name": "전기차충전소(대림운동장 공영주차장)",
      "address": "서울특별시 영등포구 대림동 780 대림운동장공영주차장",
      "roadAddress": "서울특별시 영등포구 가마산로31길 16 (대림동) 대림운동장공영주차장",
      "lat": 37.4996703,
      "lng": 126.8939969,
      "phone": "",
      "dong": "대림동"
    },
    {
      "naverPlaceId": "1415543673",
      "name": "대림어린이공원 공영주차장 전기차충전소",
      "address": "서울특별시 영등포구 대림동 870",
      "roadAddress": "서울특별시 영등포구 대림로 106",
      "lat": 37.4910844,
      "lng": 126.9033538,
      "phone": "1899-2100",
      "dong": "대림동"
    },
    {
      "naverPlaceId": "1279137728",
      "name": "도림동 공영주차장",
      "address": "서울특별시 영등포구 도림동 226-13 공영주차장",
      "roadAddress": "서울특별시 영등포구 도신로15길 36 (도림동) 도림동 공영주차장",
      "lat": 37.5082136,
      "lng": 126.8967541,
      "phone": "",
      "dong": "도림동"
    },
    {
      "naverPlaceId": "21185913",
      "name": "문래동공영주차장",
      "address": "서울특별시 영등포구 문래동5가 3",
      "roadAddress": "",
      "lat": 37.5163319,
      "lng": 126.887894,
      "phone": "",
      "dong": "문래동"
    },
    {
      "naverPlaceId": "36005523",
      "name": "신길환승공영주차장",
      "address": "서울특별시 영등포구 영등포동1가 35",
      "roadAddress": "서울특별시 영등포구 경인로112길 20",
      "lat": 37.5176903,
      "lng": 126.9146561,
      "phone": "",
      "dong": "영등포동"
    },
    {
      "naverPlaceId": "35949137",
      "name": "문래1동노상공영주차장",
      "address": "서울특별시 영등포구 문래동3가 54-12",
      "roadAddress": "",
      "lat": 37.5135401,
      "lng": 126.897064,
      "phone": "02-3405-4599",
      "dong": "문래동"
    },
    {
      "naverPlaceId": "21186007",
      "name": "영등포공원공영주차장",
      "address": "서울특별시 영등포구 영등포동 582-3",
      "roadAddress": "서울특별시 영등포구 영등포동 신길로 275",
      "lat": 37.5138735,
      "lng": 126.9105163,
      "phone": "070-7516-7516",
      "dong": "영등포동"
    },
    {
      "naverPlaceId": "21185764",
      "name": "영등포중앙시장 노상공영주차장",
      "address": "서울특별시 영등포구 영등포동7가 205-2",
      "roadAddress": "",
      "lat": 37.5222666,
      "lng": 126.9083875,
      "phone": "",
      "dong": "영등포동"
    },
    {
      "naverPlaceId": "36005535",
      "name": "도림고가노상공영주차장",
      "address": "서울특별시 영등포구 문래동1가 39-1",
      "roadAddress": "",
      "lat": 37.5121619,
      "lng": 126.897643,
      "phone": "",
      "dong": "문래동"
    },
    {
      "naverPlaceId": "21185827",
      "name": "공영주차장",
      "address": "서울특별시 영등포구 문래동2가 63",
      "roadAddress": "",
      "lat": 37.511375,
      "lng": 126.891437,
      "phone": "",
      "dong": "문래동"
    },
    {
      "naverPlaceId": "1563329342",
      "name": "임광그대가아파트 주차장",
      "address": "서울특별시 영등포구 문래동6가 8",
      "roadAddress": "서울특별시 영등포구 선유로 71",
      "lat": 37.5201065,
      "lng": 126.8892439,
      "phone": "1588-5783",
      "dong": "문래동"
    },
    {
      "naverPlaceId": "1775964807",
      "name": "문래동 공영주차장",
      "address": "서울특별시 영등포구 문래동5가 3-4 문래동 공영주차장",
      "roadAddress": "서울특별시 영등포구 선유로5길 8 문래동 공영주차장",
      "lat": 37.5164552,
      "lng": 126.8874726,
      "phone": "",
      "dong": "문래동"
    },
    {
      "naverPlaceId": "1490286022",
      "name": "문래동 공영주차장 전기차충전소",
      "address": "서울특별시 영등포구 문래동5가 3-4",
      "roadAddress": "서울특별시 영등포구 선유로5길 8",
      "lat": 37.5164662,
      "lng": 126.8874871,
      "phone": "1566-1704",
      "dong": "문래동"
    },
    {
      "naverPlaceId": "1513209779",
      "name": "문래근린공원 공영주차장",
      "address": "서울특별시 영등포구 문래동3가 60-2 문래근린공원 공영주차장",
      "roadAddress": "서울특별시 영등포구 당산로 1 문래근린공원 공영주차장",
      "lat": 37.5153222,
      "lng": 126.893826,
      "phone": "",
      "dong": "문래동"
    },
    {
      "naverPlaceId": "1250107433",
      "name": "전기차충전소(문래동 공영주차장)",
      "address": "서울특별시 영등포구 문래동5가 3-4 문래동 공영주차장",
      "roadAddress": "서울특별시 영등포구 선유로5길 8 문래동 공영주차장",
      "lat": 37.5164552,
      "lng": 126.8874726,
      "phone": "",
      "dong": "문래동"
    },
    {
      "naverPlaceId": "1251827803",
      "name": "문래동공영주차장입구",
      "address": "서울특별시 영등포구 문래동5가",
      "roadAddress": "",
      "lat": 37.5161,
      "lng": 126.8880255,
      "phone": "",
      "dong": "문래동"
    },
    {
      "naverPlaceId": "19006832",
      "name": "문래근린공원입구",
      "address": "서울특별시 영등포구 문래동3가",
      "roadAddress": "",
      "lat": 37.5151843,
      "lng": 126.8933684,
      "phone": "",
      "dong": "문래동"
    },
    {
      "naverPlaceId": "1970890077",
      "name": "도림고가노상공영주차장입구",
      "address": "서울특별시 영등포구 문래동1가",
      "roadAddress": "서울특별시 영등포구",
      "lat": 37.5120184,
      "lng": 126.8979229,
      "phone": "",
      "dong": "문래동"
    },
    {
      "naverPlaceId": "1993509537",
      "name": "문래근린공원공영주차장입출구",
      "address": "서울특별시 영등포구 문래동3가",
      "roadAddress": "",
      "lat": 37.5153377,
      "lng": 126.8939529,
      "phone": "",
      "dong": "문래동"
    },
    {
      "naverPlaceId": "1222350457",
      "name": "도림고가 공영노상주차장",
      "address": "서울특별시 영등포구 문래동1가 39 도림고가 공영노상주차장",
      "roadAddress": "서울특별시 영등포구 경인로82길 3-4 (문래동1가) 도림고가 공영노상주차장",
      "lat": 37.512066,
      "lng": 126.8969829,
      "phone": "",
      "dong": "문래동"
    },
    {
      "naverPlaceId": "21185574",
      "name": "신길4동공용공영주차장",
      "address": "서울특별시 영등포구 신길동 236-10",
      "roadAddress": "서울특별시 영등포구 가마산로 502",
      "lat": 37.5054095,
      "lng": 126.9120411,
      "phone": "",
      "dong": "신길동"
    },
    {
      "naverPlaceId": "35977675",
      "name": "도림초등학교공영주차장",
      "address": "서울특별시 영등포구 신길동 285-1",
      "roadAddress": "서울특별시 영등포구 가마산로65길 22",
      "lat": 37.5078409,
      "lng": 126.9074748,
      "phone": "02-845-8453",
      "dong": "신길동"
    },
    {
      "naverPlaceId": "773042470",
      "name": "성애병원앞노상공영주차장",
      "address": "서울특별시 영등포구 신길동 470-3",
      "roadAddress": "서울특별시 영등포구 여의대방로53길 24-2",
      "lat": 37.5117424,
      "lng": 126.9228281,
      "phone": "",
      "dong": "신길동"
    },
    {
      "naverPlaceId": "19013073",
      "name": "신길역사 거주자우선주차장",
      "address": "서울특별시 영등포구 신길동 54-1",
      "roadAddress": "",
      "lat": 37.5163908,
      "lng": 126.9175288,
      "phone": "",
      "dong": "신길동"
    },
    {
      "naverPlaceId": "1596161610",
      "name": "신길1동공영주차장",
      "address": "서울특별시 영등포구 신길동 119-6",
      "roadAddress": "서울특별시 영등포구 도신로62길 22",
      "lat": 37.5104416,
      "lng": 126.9186239,
      "phone": "",
      "dong": "신길동"
    },
    {
      "naverPlaceId": "1014107605",
      "name": "신길제1동공영주차장",
      "address": "서울특별시 영등포구 신길동 120-82",
      "roadAddress": "",
      "lat": 37.5103238,
      "lng": 126.9187301,
      "phone": "",
      "dong": "신길동"
    },
    {
      "naverPlaceId": "1940128877",
      "name": "경부제3녹지 공영 주차장",
      "address": "서울특별시 영등포구 신길동 70-31",
      "roadAddress": "",
      "lat": 37.5132511,
      "lng": 126.9233274,
      "phone": "",
      "dong": "신길동"
    },
    {
      "naverPlaceId": "1254250796",
      "name": "경부 제3녹지 공영 주차장입구",
      "address": "서울특별시 영등포구 신길동",
      "roadAddress": "",
      "lat": 37.5132745,
      "lng": 126.9233003,
      "phone": "",
      "dong": "신길동"
    },
    {
      "naverPlaceId": "1985001974",
      "name": "신길7동 공영주차장",
      "address": "서울특별시 영등포구 신길동 1166-2 신길7동 공영주차장",
      "roadAddress": "서울특별시 영등포구 여의대방로45길 12 신길7동 공영주차장",
      "lat": 37.5080957,
      "lng": 126.9222389,
      "phone": "",
      "dong": "신길동"
    },
    {
      "naverPlaceId": "1947921131",
      "name": "해군본부앞 노상공영주차장 전기차충전소",
      "address": "서울특별시 영등포구 신길동 816",
      "roadAddress": "",
      "lat": 37.5042982,
      "lng": 126.9208979,
      "phone": "1522-2573",
      "dong": "신길동"
    },
    {
      "naverPlaceId": "1908249283",
      "name": "신길4동1동1마을공영주차장 안심택배함",
      "address": "서울특별시 영등포구 신길동 232-20",
      "roadAddress": "서울특별시 영등포구 신길로40길 5",
      "lat": 37.5071398,
      "lng": 126.9116385,
      "phone": "",
      "dong": "신길동"
    },
    {
      "naverPlaceId": "1076044610",
      "name": "쏘카 경부제3녹지공영주차장",
      "address": "서울특별시 영등포구 신길동 69-39",
      "roadAddress": "서울특별시 영등포구 영등포로 405",
      "lat": 37.513298,
      "lng": 126.923325,
      "phone": "1661-8838",
      "dong": "신길동"
    },
    {
      "naverPlaceId": "1040332731",
      "name": "양평동동 노상 공영 주차장",
      "address": "서울특별시 영등포구 양평동5가 44-1",
      "roadAddress": "",
      "lat": 37.539631,
      "lng": 126.8901523,
      "phone": "",
      "dong": "양평동"
    },
    {
      "naverPlaceId": "1997407126",
      "name": "양평2동청사 공영주차장",
      "address": "서울특별시 영등포구 양평동4가 96 양평2동청사 공영주차장",
      "roadAddress": "서울특별시 영등포구 선유로47길 30 (양평동4가) 양평2동청사 공영주차장",
      "lat": 37.5365008,
      "lng": 126.8940136,
      "phone": "",
      "dong": "양평동"
    },
    {
      "naverPlaceId": "1702546298",
      "name": "양평유수지 공영주차장 전기차충전소",
      "address": "서울특별시 영등포구 양평동3가 57-3",
      "roadAddress": "서울특별시 영등포구 국회대로22길 20",
      "lat": 37.5272422,
      "lng": 126.8901348,
      "phone": "1566-1704",
      "dong": "양평동"
    },
    {
      "naverPlaceId": "1398546311",
      "name": "쏘카 양평2동 주민센터 공영주차장",
      "address": "서울특별시 영등포구 양평동4가 96",
      "roadAddress": "서울특별시 영등포구 선유로47길 30",
      "lat": 37.53643,
      "lng": 126.89412,
      "phone": "1661-8838",
      "dong": "양평동"
    },
    {
      "naverPlaceId": "1369590145",
      "name": "영등포구 양평유수지 공영주차장 전기차충전소",
      "address": "서울특별시 영등포구 양평동3가 57-3",
      "roadAddress": "서울특별시 영등포구 국회대로22길 20",
      "lat": 37.5274081,
      "lng": 126.8902311,
      "phone": "1833-9131",
      "dong": "양평동"
    },
    {
      "naverPlaceId": "1201061034",
      "name": "양평유수지 공영주차장",
      "address": "서울특별시 영등포구 양평동3가 57-3 양평유수지 공영주차장",
      "roadAddress": "서울특별시 영등포구 국회대로22길 20 (양평동3가) 양평유수지 공영주차장",
      "lat": 37.5287528,
      "lng": 126.8909763,
      "phone": "",
      "dong": "양평동"
    },
    {
      "naverPlaceId": "1196615352",
      "name": "전기차충전소(양평2동주민센터 공영주차장)",
      "address": "서울특별시 영등포구 양평동4가 96 양평2동주민센터 공영주차장",
      "roadAddress": "서울특별시 영등포구 선유로47길 30 (양평동4가) 양평2동주민센터 공영주차장",
      "lat": 37.5364739,
      "lng": 126.8939535,
      "phone": "",
      "dong": "양평동"
    },
    {
      "naverPlaceId": "1377027154",
      "name": "전기차충전소(양평유수지 공영주차장)",
      "address": "서울특별시 영등포구 양평동3가 57-3 양평유수지 공영주차장",
      "roadAddress": "서울특별시 영등포구 국회대로22길 20 (양평동3가) 양평유수지 공영주차장",
      "lat": 37.5287528,
      "lng": 126.8909763,
      "phone": "",
      "dong": "양평동"
    },
    {
      "naverPlaceId": "1985538482",
      "name": "양평유수지공영주차장입구",
      "address": "서울특별시 영등포구 양평동3가",
      "roadAddress": "",
      "lat": 37.5282466,
      "lng": 126.8907055,
      "phone": "",
      "dong": "양평동"
    },
    {
      "naverPlaceId": "2143676395",
      "name": "양평2동청사 공영 주차장입구",
      "address": "서울특별시 영등포구 양평동4가",
      "roadAddress": "서울특별시 영등포구",
      "lat": 37.5363736,
      "lng": 126.8938559,
      "phone": "",
      "dong": "양평동"
    },
    {
      "naverPlaceId": "35824367",
      "name": "MBC방송국뒤노상공영주차장",
      "address": "서울특별시 영등포구 여의도동 3-1",
      "roadAddress": "",
      "lat": 37.5237865,
      "lng": 126.9310702,
      "phone": "02-2650-1436",
      "dong": "여의도동"
    },
    {
      "naverPlaceId": "36005548",
      "name": "여의도공원앞1노상공영주차장",
      "address": "서울특별시 영등포구 여의도동 2-11",
      "roadAddress": "서울특별시 영등포구 여의대로 122-2",
      "lat": 37.5239696,
      "lng": 126.917398,
      "phone": "02-2650-1455",
      "dong": "여의도동"
    },
    {
      "naverPlaceId": "1278189907",
      "name": "여의도공원공영주차장",
      "address": "서울특별시 영등포구 여의도동 2",
      "roadAddress": "서울특별시 영등포구 여의도동 여의공원로 68-1 서울달",
      "lat": 37.522747,
      "lng": 126.9168967,
      "phone": "",
      "dong": "여의도동"
    },
    {
      "naverPlaceId": "847121094",
      "name": "KBS본관앞노상공영주차장",
      "address": "서울특별시 영등포구 여의도동 1-7",
      "roadAddress": "서울특별시 영등포구 의사당대로 26-8",
      "lat": 37.526254,
      "lng": 126.9182064,
      "phone": "",
      "dong": "여의도동"
    },
    {
      "naverPlaceId": "36005556",
      "name": "한국거래소앞노상공영주차장",
      "address": "서울특별시 영등포구 여의도동 3-3",
      "roadAddress": "서울특별시 영등포구 국제금융로 48-2",
      "lat": 37.5226987,
      "lng": 126.9288469,
      "phone": "02-2650-1455",
      "dong": "여의도동"
    },
    {
      "naverPlaceId": "36005557",
      "name": "KBS별관옆노상공영주차장",
      "address": "서울특별시 영등포구 여의도동 4-4",
      "roadAddress": "서울특별시 영등포구 국제금융로8길 15-2",
      "lat": 37.519043,
      "lng": 126.930184,
      "phone": "02-2650-1455",
      "dong": "여의도동"
    },
    {
      "naverPlaceId": "38301005",
      "name": "여의도 마포대교 남단 공영 주차장",
      "address": "서울특별시 영등포구 여의도동 84-4",
      "roadAddress": "서울특별시 영등포구 여의동로 350",
      "lat": 37.5284126,
      "lng": 126.9315194,
      "phone": "02-3780-0841",
      "dong": "여의도동"
    },
    {
      "naverPlaceId": "169158195",
      "name": "KBS본관 뒤 노상 공영 주차장",
      "address": "서울특별시 영등포구 여의도동 1-7",
      "roadAddress": "서울특별시 영등포구 의사당대로 26-8",
      "lat": 37.5255048,
      "lng": 126.9179972,
      "phone": "02-2650-1455",
      "dong": "여의도동"
    },
    {
      "naverPlaceId": "36046440",
      "name": "신흥증권앞노상공영주차장",
      "address": "서울특별시 영등포구 여의도동 2-4",
      "roadAddress": "서울특별시 영등포구 여의나루로 77-7",
      "lat": 37.5241989,
      "lng": 126.9268869,
      "phone": "02-2650-1455",
      "dong": "여의도동"
    },
    {
      "naverPlaceId": "1339385661",
      "name": "여의도1 공영 주차장",
      "address": "서울특별시 영등포구 여의도동 86-5",
      "roadAddress": "서울특별시 영등포구 한강남자전거길 1593",
      "lat": 37.522522,
      "lng": 126.9398078,
      "phone": "",
      "dong": "여의도동"
    },
    {
      "naverPlaceId": "35977700",
      "name": "여의서로노상공영주차장",
      "address": "서울특별시 영등포구 여의도동 8-1",
      "roadAddress": "",
      "lat": 37.5307571,
      "lng": 126.9120031,
      "phone": "",
      "dong": "여의도동"
    },
    {
      "naverPlaceId": "37430400",
      "name": "여의도 성모병원 앞 공영 주차장",
      "address": "서울특별시 영등포구 여의도동 63",
      "roadAddress": "",
      "lat": 37.5170108,
      "lng": 126.9339994,
      "phone": "02-3780-0841",
      "dong": "여의도동"
    },
    {
      "naverPlaceId": "36046426",
      "name": "KBS별관뒤노상공영주차장",
      "address": "서울특별시 영등포구 여의도동 4-5",
      "roadAddress": "서울특별시 영등포구 국제금융로8길 37-2",
      "lat": 37.5190136,
      "lng": 126.9287025,
      "phone": "02-2650-1455",
      "dong": "여의도동"
    },
    {
      "naverPlaceId": "36003411",
      "name": "홍우빌딩앞 노상공영주차장",
      "address": "서울특별시 영등포구 여의도동 4-3",
      "roadAddress": "",
      "lat": 37.5208699,
      "lng": 126.9305266,
      "phone": "02-2650-1455",
      "dong": "여의도동"
    },
    {
      "naverPlaceId": "36005542",
      "name": "산업은행앞노상공영주차장",
      "address": "서울특별시 영등포구 여의도동 1-5",
      "roadAddress": "서울특별시 영등포구 국회대로66길 12-2",
      "lat": 37.5272863,
      "lng": 126.9200884,
      "phone": "02-2650-1455",
      "dong": "여의도동"
    },
    {
      "naverPlaceId": "35977698",
      "name": "원효대교 노상 공영 주차장",
      "address": "서울특별시 영등포구 여의도동 5 구두수선대40",
      "roadAddress": "서울특별시 영등포구 여의대방로 414-3 구두수선대40",
      "lat": 37.5224694,
      "lng": 126.9370712,
      "phone": "",
      "dong": "여의도동"
    },
    {
      "naverPlaceId": "36005529",
      "name": "경호빌딩앞노상공영주차장",
      "address": "서울특별시 영등포구 여의도동 2-5",
      "roadAddress": "",
      "lat": 37.5235389,
      "lng": 126.9260735,
      "phone": "02-2650-1455",
      "dong": "여의도동"
    },
    {
      "naverPlaceId": "1631841270",
      "name": "KBS본관 후면 노상 공영 주차장",
      "address": "서울특별시 영등포구 여의도동 18",
      "roadAddress": "서울특별시 영등포구 여의공원로 13",
      "lat": 37.5237738,
      "lng": 126.9159775,
      "phone": "",
      "dong": "여의도동"
    },
    {
      "naverPlaceId": "36005551",
      "name": "여의도백화점앞노상공영주차장",
      "address": "서울특별시 영등포구 여의도동 3-5",
      "roadAddress": "서울특별시 영등포구 국제금융로6길 23-2",
      "lat": 37.521245,
      "lng": 126.9270213,
      "phone": "02-2650-1455",
      "dong": "여의도동"
    },
    {
      "naverPlaceId": "36005527",
      "name": "경남아파트앞노상공영주차장",
      "address": "서울특별시 영등포구 영등포동7가 56-2",
      "roadAddress": "",
      "lat": 37.524173,
      "lng": 126.9021864,
      "phone": "",
      "dong": "영등포동"
    },
    {
      "naverPlaceId": "1153195120",
      "name": "영등포시장 제1공영주차장",
      "address": "서울특별시 영등포구 영등포동2가 230",
      "roadAddress": "",
      "lat": 37.520846,
      "lng": 126.9102058,
      "phone": "",
      "dong": "영등포동"
    },
    {
      "naverPlaceId": "35977688",
      "name": "영등포로타리고가밑노상공영주차장",
      "address": "서울특별시 영등포구 영등포동3가 36",
      "roadAddress": "",
      "lat": 37.5182033,
      "lng": 126.9115074,
      "phone": "",
      "dong": "영등포동"
    },
    {
      "naverPlaceId": "930638847",
      "name": "중마루공원 앞 노상 공영 주차장",
      "address": "서울특별시 영등포구 영등포동2가 222-1",
      "roadAddress": "",
      "lat": 37.5200849,
      "lng": 126.9114249,
      "phone": "",
      "dong": "영등포동"
    },
    {
      "naverPlaceId": "21185558",
      "name": "신길역환승주차장",
      "address": "서울특별시 영등포구 영등포동1가 35",
      "roadAddress": "서울특별시 영등포구 경인로112길 20",
      "lat": 37.5177076,
      "lng": 126.9151695,
      "phone": "",
      "dong": "영등포동"
    },
    {
      "naverPlaceId": "36005552",
      "name": "중마루공원앞노상공영주차장",
      "address": "서울특별시 영등포구 영등포동2가",
      "roadAddress": "",
      "lat": 37.5193256,
      "lng": 126.9115248,
      "phone": "02-2635-8055",
      "dong": "영등포동"
    },
    {
      "naverPlaceId": "1375416148",
      "name": "영등포 영남 공영 주차장입구",
      "address": "서울특별시 영등포구 영등포동4가",
      "roadAddress": "",
      "lat": 37.5197352,
      "lng": 126.9029756,
      "phone": "",
      "dong": "영등포동"
    },
    {
      "naverPlaceId": "1869395772",
      "name": "영등포동제1공영주차장입구",
      "address": "서울특별시 영등포구 영등포동2가",
      "roadAddress": "",
      "lat": 37.520794,
      "lng": 126.9098954,
      "phone": "",
      "dong": "영등포동"
    },
    {
      "naverPlaceId": "37596955",
      "name": "영등포동 제3공영주차장입출구",
      "address": "서울특별시 영등포구 영등포동4가",
      "roadAddress": "",
      "lat": 37.517994,
      "lng": 126.902506,
      "phone": "",
      "dong": "영등포동"
    },
    {
      "naverPlaceId": "18997431",
      "name": "영등포 영남 공영 주차장입출구",
      "address": "서울특별시 영등포구 영등포동4가",
      "roadAddress": "",
      "lat": 37.5195721,
      "lng": 126.902278,
      "phone": "",
      "dong": "영등포동"
    },
    {
      "naverPlaceId": "1027684468",
      "name": "영등포구 영등포제3공영주차장 전기차충전소",
      "address": "서울특별시 영등포구 영등포동4가 442-6",
      "roadAddress": "서울특별시 영등포구 문래로 196",
      "lat": 37.5178932,
      "lng": 126.9037275,
      "phone": "1833-9131",
      "dong": "영등포동"
    },
    {
      "naverPlaceId": "1386409357",
      "name": "영남공영주차장 C열 전기차충전소",
      "address": "서울특별시 영등포구 영등포동4가 123",
      "roadAddress": "서울특별시 영등포구 영등포로34길 9",
      "lat": 37.519216,
      "lng": 126.902522,
      "phone": "1522-2573",
      "dong": "영등포동"
    }
  ],
  "sido": "서울특별시",
  "sigungu": "영등포구",
  "totalCount": 132,
  "source": "naver-map",
  "scrapedAt": "2026-02-10"
}