{
  "items": [
    {
      "naverPlaceId": "35913843",
      "name": "삼각지역노상공영주차장",
      "address": "서울특별시 용산구 한강로1가 138",
      "roadAddress": "서울특별시 용산구 한강대로62길 32-1",
      "lat": 37.5334664,
      "lng": 126.9736248,
      "phone": "",
      "dong": "한강로1가"
    },
    {
      "naverPlaceId": "36015741",
      "name": "용산주차빌딩 공영주차장",
      "address": "서울특별시 용산구 새창로49길 42",
      "roadAddress": "서울 용산구 새창로49길 42",
      "lat": 37.5343001,
      "lng": 126.9652973,
      "phone": "02-2290-6014",
      "dong": "한강로2가"
    },
    {
      "naverPlaceId": "37878473",
      "name": "한남동공영주차장",
      "address": "서울특별시 용산구 이태원로 224-19",
      "roadAddress": "서울 용산구 이태원로 224-19",
      "lat": 37.5348122,
      "lng": 127.0002894,
      "phone": "02-749-5314",
      "dong": "한남동"
    },
    {
      "naverPlaceId": "21185950",
      "name": "용산전자상가1 공영 주차장",
      "address": "서울특별시 용산구 한강로3가 12",
      "roadAddress": "서울 용산구 새창로 170-4",
      "lat": 37.5321479,
      "lng": 126.9641488,
      "phone": "02-749-5314",
      "dong": "한강로3가"
    },
    {
      "naverPlaceId": "21185780",
      "name": "용산전자상가2 공영 주차장",
      "address": "서울특별시 용산구 한강로3가 14-1",
      "roadAddress": "서울 용산구 새창로 170-4",
      "lat": 37.5325561,
      "lng": 126.9630489,
      "phone": "02-749-5314",
      "dong": "한강로3가"
    },
    {
      "naverPlaceId": "36061286",
      "name": "한강진역공영주차장",
      "address": "서울특별시 용산구 한남동 728-27",
      "roadAddress": "",
      "lat": 37.5390332,
      "lng": 127.0024999,
      "phone": "02-795-6406",
      "dong": "한남동"
    },
    {
      "naverPlaceId": "1513372050",
      "name": "삼각지임시공영주차장",
      "address": "서울특별시 용산구 한강대로 160",
      "roadAddress": "서울 용산구 한강대로 159 160",
      "lat": 37.5331691,
      "lng": 126.9726406,
      "phone": "02-749-5314",
      "dong": "한강로1가"
    },
    {
      "naverPlaceId": "21185759",
      "name": "용산전자상가3 공영 주차장",
      "address": "서울특별시 용산구 한강로3가 19-2",
      "roadAddress": "서울 용산구 청파로 74",
      "lat": 37.5324893,
      "lng": 126.9609741,
      "phone": "02-749-5314",
      "dong": "한강로3가"
    },
    {
      "naverPlaceId": "1857354546",
      "name": "한남유수지공영주차장",
      "address": "서울특별시 용산구 독서당로 18",
      "roadAddress": "서울 용산구 독서당로 18",
      "lat": 37.5300186,
      "lng": 127.0073833,
      "phone": "02-749-5314",
      "dong": "한남동"
    },
    {
      "naverPlaceId": "21185829",
      "name": "용산전자상가4 공영 주차장",
      "address": "서울특별시 용산구 원효로3가 51-5",
      "roadAddress": "서울 용산구 청파로 77",
      "lat": 37.5339975,
      "lng": 126.960749,
      "phone": "02-749-5314",
      "dong": "원효로3가"
    },
    {
      "naverPlaceId": "834246339",
      "name": "이태원2동 공영 주차장",
      "address": "서울특별시 용산구 회나무로 55",
      "roadAddress": "서울 용산구 회나무로 55",
      "lat": 37.5402473,
      "lng": 126.9927083,
      "phone": "02-749-5314",
      "dong": "이태원동"
    },
    {
      "naverPlaceId": "21185876",
      "name": "신창동공영주차장",
      "address": "서울특별시 용산구 원효로35길 53",
      "roadAddress": "서울 용산구 원효로35길 53 신창공영주차장",
      "lat": 37.5352973,
      "lng": 126.9553495,
      "phone": "02-749-5314",
      "dong": "신창동"
    },
    {
      "naverPlaceId": "21186080",
      "name": "청파동1마을공원공영주차장",
      "address": "서울특별시 용산구 원효로97길 50",
      "roadAddress": "서울 용산구 원효로97길 50",
      "lat": 37.5427749,
      "lng": 126.9685374,
      "phone": "02-749-5314",
      "dong": "청파동3가"
    },
    {
      "naverPlaceId": "35940201",
      "name": "용산2가동 주민센터공영주차장",
      "address": "서울특별시 용산구 신흥로 90",
      "roadAddress": "서울 용산구 신흥로 90",
      "lat": 37.5461327,
      "lng": 126.9855777,
      "phone": "02-749-5314",
      "dong": "용산동2가"
    },
    {
      "naverPlaceId": "1098970205",
      "name": "용산2가동 기계식 공영 주차장",
      "address": "서울특별시 용산구 신흥로2길 74",
      "roadAddress": "서울 용산구 신흥로2길 74",
      "lat": 37.5430073,
      "lng": 126.9880269,
      "phone": "02-749-5314",
      "dong": "용산동2가"
    },
    {
      "naverPlaceId": "21186042",
      "name": "전자상가제5공영주차장",
      "address": "서울특별시 용산구 한강로3가 2-1",
      "roadAddress": "서울 용산구 새창로49길 4",
      "lat": 37.5339659,
      "lng": 126.9633643,
      "phone": "02-749-5314",
      "dong": "한강로3가"
    },
    {
      "naverPlaceId": "661674408",
      "name": "서울특별시교육청남산도서관주차장",
      "address": "서울특별시 용산구 후암로35길 23",
      "roadAddress": "서울 용산구 소월로 109",
      "lat": 37.5530861,
      "lng": 126.9817963,
      "phone": "02-749-5314",
      "dong": "후암동"
    },
    {
      "naverPlaceId": "35992941",
      "name": "용문동공영주차장",
      "address": "서울특별시 용산구 새창로12길 13",
      "roadAddress": "서울 용산구 새창로12길 13",
      "lat": 37.5390155,
      "lng": 126.9576261,
      "phone": "02-749-5314",
      "dong": "도원동"
    },
    {
      "naverPlaceId": "36022203",
      "name": "서계동 공영 주차장",
      "address": "서울특별시 용산구 효창원로104가길 16",
      "roadAddress": "서울 용산구 효창원로104가길 16 서계공영주차장",
      "lat": 37.5516513,
      "lng": 126.9643276,
      "phone": "02-749-5314",
      "dong": "서계동"
    },
    {
      "naverPlaceId": "1953441419",
      "name": "청파동청사 공영주차장",
      "address": "서울특별시 용산구 청파로49길 6",
      "roadAddress": "서울 용산구 청파로49길 6",
      "lat": 37.5455963,
      "lng": 126.9697998,
      "phone": "02-749-5314",
      "dong": "청파동2가"
    },
    {
      "naverPlaceId": "430003059",
      "name": "이촌로54길 노상 공영 주차장",
      "address": "서울특별시 용산구 이촌동 302-31",
      "roadAddress": "서울 용산구 이촌로54길 17",
      "lat": 37.520588,
      "lng": 126.967576,
      "phone": "02-749-5314",
      "dong": "이촌동"
    },
    {
      "naverPlaceId": "1967719582",
      "name": "삼각지 고가밑 노상 공영 주차장",
      "address": "서울특별시 용산구 백범로90길 34",
      "roadAddress": "서울 용산구 백범로90길 34",
      "lat": 37.537175,
      "lng": 126.9688774,
      "phone": "",
      "dong": "문배동"
    },
    {
      "naverPlaceId": "35913846",
      "name": "한강로2가동노상공영주차장",
      "address": "서울특별시 용산구 한강대로 118-1",
      "roadAddress": "서울 용산구 한강대로38길 35",
      "lat": 37.5287615,
      "lng": 126.9701976,
      "phone": "02-749-5314",
      "dong": "한강로2가"
    },
    {
      "naverPlaceId": "703453883",
      "name": "한강쇼핑센터공영 주차장",
      "address": "서울특별시 용산구 이촌로 291",
      "roadAddress": "서울 용산구 이촌로 224 리버뷰맨션",
      "lat": 37.5202762,
      "lng": 126.9720999,
      "phone": "02-749-5314",
      "dong": "이촌동"
    },
    {
      "naverPlaceId": "147148770",
      "name": "이촌한강공원공영주차장",
      "address": "서울특별시 용산구 이촌동 301-244",
      "roadAddress": "서울 용산구 서빙고로62길 5-486",
      "lat": 37.5174735,
      "lng": 126.9704423,
      "phone": "02-749-5314",
      "dong": "이촌동"
    },
    {
      "naverPlaceId": "35977141",
      "name": "해방촌공영주차장",
      "address": "서울특별시 용산구 용산동2가 1-1497",
      "roadAddress": "서울특별시 용산구 소월로20길 56",
      "lat": 37.5444063,
      "lng": 126.9843608,
      "phone": "02-773-7797",
      "dong": "용산동"
    },
    {
      "naverPlaceId": "35913848",
      "name": "후암재래시장공영주차장",
      "address": "서울특별시 용산구 후암동 65-4",
      "roadAddress": "서울특별시 용산구 후암로35길 23",
      "lat": 37.5505368,
      "lng": 126.9764623,
      "phone": "02-749-5314",
      "dong": "후암동"
    },
    {
      "naverPlaceId": "35824359",
      "name": "전쟁기념관 대형주차장",
      "address": "서울특별시 용산구 용산동1가 8",
      "roadAddress": "서울특별시 용산구 이태원로 29",
      "lat": 37.5360375,
      "lng": 126.9753375,
      "phone": "02-709-3162",
      "dong": "용산동"
    },
    {
      "naverPlaceId": "1176888032",
      "name": "삼각지역주차장",
      "address": "서울특별시 용산구 한강로1가 236-5",
      "roadAddress": "서울특별시 용산구 한강대로 182",
      "lat": 37.5344434,
      "lng": 126.973564,
      "phone": "",
      "dong": ""
    },
    {
      "naverPlaceId": "274382236",
      "name": "효창운동장 주차장",
      "address": "서울특별시 용산구 효창동 255-11",
      "roadAddress": "",
      "lat": 37.5441543,
      "lng": 126.9618952,
      "phone": "02-703-1246",
      "dong": "효창동"
    },
    {
      "naverPlaceId": "1870299697",
      "name": "청파마을공원 공영 주차장",
      "address": "서울특별시 용산구 청파동3가 119-2",
      "roadAddress": "서울특별시 용산구 원효로97길 46",
      "lat": 37.5426536,
      "lng": 126.9685851,
      "phone": "",
      "dong": "청파동"
    },
    {
      "naverPlaceId": "35977246",
      "name": "이촌 반포대교 북단하류 공영 주차장",
      "address": "서울특별시 용산구 서빙고동 287-4",
      "roadAddress": "",
      "lat": 37.5180507,
      "lng": 126.9922716,
      "phone": "02-3780-0841",
      "dong": "서빙고동"
    },
    {
      "naverPlaceId": "1386508636",
      "name": "이촌 한강공원1주차장",
      "address": "서울특별시 용산구 서빙고동 287-4",
      "roadAddress": "",
      "lat": 37.5180624,
      "lng": 126.9922488,
      "phone": "02-3478-1533",
      "dong": "서빙고동"
    },
    {
      "naverPlaceId": "35992888",
      "name": "종합행정타운 주차장",
      "address": "서울특별시 용산구 이태원1동 34-87",
      "roadAddress": "서울특별시 용산구 녹사평대로 150",
      "lat": 37.5326519,
      "lng": 126.990416,
      "phone": "02-2199-8253",
      "dong": ""
    },
    {
      "naverPlaceId": "35913845",
      "name": "이태원1동 노상 공영  주차장",
      "address": "서울특별시 용산구 이태원동 20-91",
      "roadAddress": "",
      "lat": 37.5308589,
      "lng": 126.9957992,
      "phone": "02-749-5314",
      "dong": "이태원동"
    },
    {
      "naverPlaceId": "35824345",
      "name": "가족공원 공영 주차장",
      "address": "서울특별시 용산구 용산동6가 93-6",
      "roadAddress": "서울특별시 용산구 서빙고로 185 용산공원",
      "lat": 37.5201304,
      "lng": 126.9835827,
      "phone": "",
      "dong": "용산동"
    },
    {
      "naverPlaceId": "35977140",
      "name": "동작대교공영주차장",
      "address": "서울특별시 용산구 용산동6가 69-11",
      "roadAddress": "서울특별시 용산구 이촌로 343-20",
      "lat": 37.5178471,
      "lng": 126.9830629,
      "phone": "02-790-0812",
      "dong": "용산동"
    },
    {
      "naverPlaceId": "35977218",
      "name": "이촌 한강공원2주차장",
      "address": "서울특별시 용산구 용산동6가 452-1",
      "roadAddress": "서울특별시 용산구",
      "lat": 37.5155728,
      "lng": 126.9831053,
      "phone": "02-3780-0841",
      "dong": "용산동"
    },
    {
      "naverPlaceId": "18730359",
      "name": "한남동공영주차장입구",
      "address": "서울특별시 용산구 한남동",
      "roadAddress": "",
      "lat": 37.534908,
      "lng": 126.99965,
      "phone": "",
      "dong": "한남동"
    },
    {
      "naverPlaceId": "1084234386",
      "name": "한남동공영주차장복합문화센터1층출입구 무인안심택배함",
      "address": "서울특별시 용산구 한남동 685-46",
      "roadAddress": "서울특별시 용산구 이태원로 224-19",
      "lat": 37.5348426,
      "lng": 127.0002509,
      "phone": "",
      "dong": "한남동"
    },
    {
      "naverPlaceId": "1145702497",
      "name": "한남동 공영주차장 개방화장실",
      "address": "서울특별시 용산구 한남동 685-46",
      "roadAddress": "서울특별시 용산구 이태원로 224-19",
      "lat": 37.5348186,
      "lng": 127.0002839,
      "phone": "",
      "dong": "한남동"
    },
    {
      "naverPlaceId": "1285191175",
      "name": "한남동 공영주차장 채비 전기차충전소",
      "address": "서울특별시 용산구 한남동 685-46",
      "roadAddress": "서울특별시 용산구 이태원로 224-19",
      "lat": 37.534856,
      "lng": 127.000287,
      "phone": "1522-2573",
      "dong": "한남동"
    },
    {
      "naverPlaceId": "1292890669",
      "name": "한남동 공영주차장 전기차충전소",
      "address": "서울특별시 용산구 한남동 685-46 공영주차장 ( 685-46)",
      "roadAddress": "서울특별시 용산구 이태원로 224-19 한남동공영주차장 (한남동 685-46)",
      "lat": 37.5349284,
      "lng": 127.0002489,
      "phone": "1661-9408",
      "dong": "한남동"
    },
    {
      "naverPlaceId": "2140000365",
      "name": "용산구공영주차장통합관제센터",
      "address": "서울특별시 용산구 한남동 685-46",
      "roadAddress": "서울특별시 용산구 이태원로 224-19 한남동공영주차장",
      "lat": 37.534807,
      "lng": 127.0001475,
      "phone": "",
      "dong": "한남동"
    },
    {
      "naverPlaceId": "1686186705",
      "name": "한강진역 공영주차장 전기차충전소",
      "address": "서울특별시 용산구 한남동 728-27",
      "roadAddress": "",
      "lat": 37.5394762,
      "lng": 127.0024242,
      "phone": "1522-1782",
      "dong": "한남동"
    },
    {
      "naverPlaceId": "1514728949",
      "name": "한남유수지 공영주차장 전기차충전소",
      "address": "서울특별시 용산구 한남동 522-44",
      "roadAddress": "서울특별시 용산구 독서당로 18",
      "lat": 37.5297284,
      "lng": 127.0071503,
      "phone": "1522-2573",
      "dong": "한남동"
    },
    {
      "naverPlaceId": "1271900047",
      "name": "한남동공영주차장 안심택배함",
      "address": "서울특별시 용산구 한남동 685-46",
      "roadAddress": "서울특별시 용산구 이태원로 224-19",
      "lat": 37.5348409,
      "lng": 127.0002505,
      "phone": "",
      "dong": "한남동"
    },
    {
      "naverPlaceId": "1074654253",
      "name": "용산등기소공영주차장",
      "address": "서울특별시 용산구 문배동 12-1",
      "roadAddress": "서울특별시 용산구 백범로90길 34",
      "lat": 37.5369328,
      "lng": 126.9694973,
      "phone": "",
      "dong": "문배동"
    },
    {
      "naverPlaceId": "35824347",
      "name": "국립중앙박물관 주차장",
      "address": "서울특별시 용산구 용산동6가 168-6 국립중앙박물관",
      "roadAddress": "서울특별시 용산구 서빙고로 137 국립중앙박물관",
      "lat": 37.5240145,
      "lng": 126.977084,
      "phone": "02-2077-9656",
      "dong": "용산동"
    },
    {
      "naverPlaceId": "38741721",
      "name": "이태원공영주차장 개방화장실",
      "address": "서울특별시 용산구 이태원동 227-9",
      "roadAddress": "서울특별시 용산구 회나무로 55",
      "lat": 37.5402859,
      "lng": 126.9926556,
      "phone": "02-796-3472",
      "dong": "이태원동"
    },
    {
      "naverPlaceId": "38752338",
      "name": "신창동공영주차장 개방화장실",
      "address": "서울특별시 용산구 신창동 53-1",
      "roadAddress": "서울특별시 용산구 원효로35길 53",
      "lat": 37.5352671,
      "lng": 126.9553612,
      "phone": "02-711-1924",
      "dong": "신창동"
    },
    {
      "naverPlaceId": "1845221746",
      "name": "피플카 동작대교 공영주차장",
      "address": "서울특별시 용산구 용산동6가 69-11",
      "roadAddress": "서울특별시 용산구 이촌로 343-20",
      "lat": 37.5180299,
      "lng": 126.9840789,
      "phone": "",
      "dong": "용산동"
    },
    {
      "naverPlaceId": "1461440741",
      "name": "피플카 금강 아산병원 앞 공영주차장",
      "address": "서울특별시 용산구 용산동6가 69-11",
      "roadAddress": "서울특별시 용산구 이촌로 343-20",
      "lat": 37.5178332,
      "lng": 126.9832542,
      "phone": "",
      "dong": "용산동"
    },
    {
      "naverPlaceId": "1829092935",
      "name": "동작대교공영주차장입구",
      "address": "서울특별시 용산구 용산동6가",
      "roadAddress": "",
      "lat": 37.5178353,
      "lng": 126.9829535,
      "phone": "",
      "dong": "용산동"
    },
    {
      "naverPlaceId": "18722523",
      "name": "용산전자상가4 공영 주차장입출구",
      "address": "서울특별시 용산구 신계동",
      "roadAddress": "",
      "lat": 37.5339055,
      "lng": 126.9613476,
      "phone": "",
      "dong": "신계동"
    },
    {
      "naverPlaceId": "474834545",
      "name": "전자상가제5공영주차장입구",
      "address": "서울특별시 용산구 신계동",
      "roadAddress": "",
      "lat": 37.5342887,
      "lng": 126.963581,
      "phone": "",
      "dong": "신계동"
    },
    {
      "naverPlaceId": "1053668775",
      "name": "쏘카 용문동 공영주차장",
      "address": "서울특별시 용산구 도원동 4-5",
      "roadAddress": "서울특별시 용산구 새창로12길 13",
      "lat": 37.538959,
      "lng": 126.957562,
      "phone": "1661-8838",
      "dong": "도원동"
    },
    {
      "naverPlaceId": "1462210801",
      "name": "전자상가제4공영주차장 전기차충전소",
      "address": "서울특별시 용산구 원효로3가 50-1",
      "roadAddress": "",
      "lat": 37.5341125,
      "lng": 126.9609912,
      "phone": "1588-5339",
      "dong": ""
    },
    {
      "naverPlaceId": "1647358209",
      "name": "노상공영주차장",
      "address": "서울특별시 용산구 이촌동 409-3",
      "roadAddress": "",
      "lat": 37.5205557,
      "lng": 126.9741826,
      "phone": "",
      "dong": "이촌동"
    },
    {
      "naverPlaceId": "35913844",
      "name": "한강쇼핑노상공영주차장",
      "address": "서울특별시 용산구 이촌동 301-5",
      "roadAddress": "서울특별시 용산구 이촌로 200-1",
      "lat": 37.5211312,
      "lng": 126.9694932,
      "phone": "",
      "dong": "이촌동"
    },
    {
      "naverPlaceId": "35913847",
      "name": "충신교회노상공영주차장",
      "address": "서울특별시 용산구 이촌동 302-31",
      "roadAddress": "",
      "lat": 37.5202866,
      "lng": 126.9671996,
      "phone": "02-749-5314",
      "dong": "이촌동"
    },
    {
      "naverPlaceId": "1560230656",
      "name": "이태원2동 공영주차장 전기차충전소",
      "address": "서울특별시 용산구 이태원동 227-9",
      "roadAddress": "서울특별시 용산구 회나무로 55",
      "lat": 37.5404781,
      "lng": 126.9927159,
      "phone": "1588-5339",
      "dong": "이태원동"
    },
    {
      "naverPlaceId": "37113919",
      "name": "G car zone 이태원2동 공영주차장",
      "address": "서울특별시 용산구 이태원동 227-9",
      "roadAddress": "서울특별시 용산구 회나무로 55 (이태원동)",
      "lat": 37.5403599,
      "lng": 126.9926588,
      "phone": "1899-1313",
      "dong": "이태원동"
    },
    {
      "naverPlaceId": "18728320",
      "name": "이태원2동 공영 주차장입구",
      "address": "서울특별시 용산구 이태원동",
      "roadAddress": "",
      "lat": 37.5401818,
      "lng": 126.9927015,
      "phone": "",
      "dong": "이태원동"
    },
    {
      "naverPlaceId": "18730648",
      "name": "한남유수지공영주차장입구",
      "address": "서울특별시 용산구 한남동",
      "roadAddress": "",
      "lat": 37.5298821,
      "lng": 127.0072503,
      "phone": "",
      "dong": "한남동"
    },
    {
      "naverPlaceId": "1146972032",
      "name": "쏘카 한남유수지 공영주차장",
      "address": "서울특별시 용산구 한남동 522-44",
      "roadAddress": "서울특별시 용산구 독서당로 18",
      "lat": 37.529758,
      "lng": 127.007401,
      "phone": "1661-8838",
      "dong": "한남동"
    },
    {
      "naverPlaceId": "1413913510",
      "name": "지진옥외대피장소 한남동공영주차장",
      "address": "서울특별시 용산구 한남동 685-46",
      "roadAddress": "서울특별시 용산구 이태원로 224-19 (한남동)",
      "lat": 37.5348307,
      "lng": 127.0002419,
      "phone": "",
      "dong": "한남동"
    },
    {
      "naverPlaceId": "1788601875",
      "name": "청파동1마을공원공영주차장입출구",
      "address": "서울특별시 용산구 청파동3가",
      "roadAddress": "",
      "lat": 37.5426476,
      "lng": 126.9685662,
      "phone": "",
      "dong": "청파동"
    },
    {
      "naverPlaceId": "1844656233",
      "name": "청파동1마을공원 공영주차장 전기차충전소",
      "address": "서울특별시 용산구 청파동3가 118-102",
      "roadAddress": "서울특별시 용산구 원효로97길 50",
      "lat": 37.542771,
      "lng": 126.968595,
      "phone": "1522-2573",
      "dong": "청파동"
    },
    {
      "naverPlaceId": "1419748169",
      "name": "쏘카 청파1마을공영주차장",
      "address": "서울특별시 용산구 청파동3가 118-102 청파동 1 마을공원 공영주차장",
      "roadAddress": "서울특별시 용산구 원효로97길 50 청파동 1 마을공원 공영주차장",
      "lat": 37.542767,
      "lng": 126.968589,
      "phone": "1661-8838",
      "dong": "청파동"
    },
    {
      "naverPlaceId": "1051076655",
      "name": "삼각지역공영주차장 전기차충전소",
      "address": "서울특별시 용산구 한강로1가 231-30",
      "roadAddress": "서울특별시 용산구 한강대로54길 17",
      "lat": 37.532986,
      "lng": 126.9727871,
      "phone": "1577-1556",
      "dong": ""
    },
    {
      "naverPlaceId": "1582502442",
      "name": "용산전자상가1 공영주차장 전기차충전소",
      "address": "서울특별시 용산구 한강로3가 23-1 23-1",
      "roadAddress": "서울특별시 용산구 새창로 170-4 (한강로3가 23-1)",
      "lat": 37.5318406,
      "lng": 126.9649634,
      "phone": "1899-2100",
      "dong": ""
    },
    {
      "naverPlaceId": "1262902325",
      "name": "전자상가제2공영주차장 전기차충전소",
      "address": "서울특별시 용산구 한강로3가 23-1",
      "roadAddress": "서울특별시 용산구 새창로 170-4",
      "lat": 37.5324841,
      "lng": 126.9631824,
      "phone": "1588-5339",
      "dong": ""
    },
    {
      "naverPlaceId": "1439228905",
      "name": "전자상가제1공영주차장 전기차충전소",
      "address": "서울특별시 용산구 한강로3가 23-1",
      "roadAddress": "서울특별시 용산구 새창로 170-4",
      "lat": 37.5321543,
      "lng": 126.9642436,
      "phone": "1588-5339",
      "dong": ""
    },
    {
      "naverPlaceId": "1030597301",
      "name": "전자상가제3공영주차장 전기차충전소",
      "address": "서울특별시 용산구 한강로3가 22-1",
      "roadAddress": "",
      "lat": 37.5325213,
      "lng": 126.9608881,
      "phone": "1588-5339",
      "dong": ""
    },
    {
      "naverPlaceId": "1141732591",
      "name": "쏘카 용산전자상가 제3공영주차장",
      "address": "서울특별시 용산구 한강로3가 22-1",
      "roadAddress": "",
      "lat": 37.532483,
      "lng": 126.960922,
      "phone": "1661-8838",
      "dong": ""
    },
    {
      "naverPlaceId": "1911372411",
      "name": "쏘카 용산전자상가 제1공영주차장",
      "address": "서울특별시 용산구 한강로3가 23-1",
      "roadAddress": "서울특별시 용산구 새창로 170-4",
      "lat": 37.532182,
      "lng": 126.964186,
      "phone": "1661-8838",
      "dong": ""
    },
    {
      "naverPlaceId": "1305950514",
      "name": "전자상가제5공영주차장 전기차충전소",
      "address": "서울특별시 용산구 한강로3가 1-8",
      "roadAddress": "",
      "lat": 37.533961,
      "lng": 126.9633765,
      "phone": "1588-5339",
      "dong": ""
    },
    {
      "naverPlaceId": "1391371454",
      "name": "용산전자상가2 공영 주차장입구",
      "address": "서울특별시 용산구 한강로3가",
      "roadAddress": "",
      "lat": 37.5325472,
      "lng": 126.963259,
      "phone": "",
      "dong": ""
    },
    {
      "naverPlaceId": "1709333822",
      "name": "삼각지임시공영주차장입구",
      "address": "서울특별시 용산구 한강로2가",
      "roadAddress": "서울특별시 용산구",
      "lat": 37.5326166,
      "lng": 126.9726545,
      "phone": "",
      "dong": ""
    },
    {
      "naverPlaceId": "18725241",
      "name": "용산전자상가3 공영 주차장입구",
      "address": "서울특별시 용산구 한강로3가",
      "roadAddress": "",
      "lat": 37.5324259,
      "lng": 126.9613122,
      "phone": "",
      "dong": ""
    },
    {
      "naverPlaceId": "1485073982",
      "name": "한남동 공영주차장 서울시 전기차충전소",
      "address": "서울특별시 용산구 한남동 685-46",
      "roadAddress": "서울특별시 용산구 이태원로 224-19",
      "lat": 37.534857,
      "lng": 127.0002687,
      "phone": "02-2640-5199",
      "dong": "한남동"
    },
    {
      "naverPlaceId": "18731762",
      "name": "한강진역공영주차장입구",
      "address": "서울특별시 용산구 한남동",
      "roadAddress": "",
      "lat": 37.5388699,
      "lng": 127.0023387,
      "phone": "",
      "dong": "한남동"
    },
    {
      "naverPlaceId": "1962108734",
      "name": "후암거주자우선 노상 공영 주차장",
      "address": "서울특별시 용산구 후암동 406-101",
      "roadAddress": "서울특별시 용산구 소월로 168",
      "lat": 37.5476696,
      "lng": 126.9842147,
      "phone": "",
      "dong": "후암동"
    },
    {
      "naverPlaceId": "1317567039",
      "name": "쏘카 후암공영주차장",
      "address": "서울특별시 용산구 후암동 65-4",
      "roadAddress": "서울특별시 용산구 후암로35길 23",
      "lat": 37.550453,
      "lng": 126.976067,
      "phone": "1661-8838",
      "dong": "후암동"
    },
    {
      "naverPlaceId": "1893348574",
      "name": "후암재래시장공영주차장입구",
      "address": "서울특별시 용산구 후암동",
      "roadAddress": "",
      "lat": 37.5504741,
      "lng": 126.976173,
      "phone": "",
      "dong": "후암동"
    }
  ],
  "sido": "서울특별시",
  "sigungu": "용산구",
  "totalCount": 86,
  "source": "naver-map",
  "scrapedAt": "2026-02-10"
}