{
  "items": [
    {
      "naverPlaceId": "35992964",
      "name": "구파발역 공영 주차장",
      "address": "서울특별시 은평구 진관동 67-38",
      "roadAddress": "",
      "lat": 37.6380025,
      "lng": 126.9191669,
      "phone": "",
      "dong": "진관동"
    },
    {
      "naverPlaceId": "1532380429",
      "name": "은평한옥마을한문화공영주차장",
      "address": "서울특별시 은평구 진관동 184",
      "roadAddress": "",
      "lat": 37.6407338,
      "lng": 126.9426457,
      "phone": "02-350-5114",
      "dong": "진관동"
    },
    {
      "naverPlaceId": "1818130139",
      "name": "응암3동공영주차장",
      "address": "서울특별시 은평구 응암동 580-4",
      "roadAddress": "서울특별시 은평구 불광천길 436",
      "lat": 37.5935056,
      "lng": 126.9152893,
      "phone": "",
      "dong": "응암동"
    },
    {
      "naverPlaceId": "1199989445",
      "name": "은평평화공원 지하공영주차장",
      "address": "서울특별시 은평구 녹번동 153-31",
      "roadAddress": "서울특별시 은평구 서오릉로 63",
      "lat": 37.606039,
      "lng": 126.9229679,
      "phone": "02-350-5185",
      "dong": "녹번동"
    },
    {
      "naverPlaceId": "1830869990",
      "name": "연신중학교 지하공영주차장입구",
      "address": "서울특별시 은평구 불광동",
      "roadAddress": "",
      "lat": 37.622898,
      "lng": 126.9257433,
      "phone": "",
      "dong": "불광동"
    },
    {
      "naverPlaceId": "1740260541",
      "name": "수색공영주차장",
      "address": "서울특별시 은평구 수색동 78-2",
      "roadAddress": "서울특별시 은평구 수색로12길 2",
      "lat": 37.5804986,
      "lng": 126.8990494,
      "phone": "",
      "dong": "수색동"
    },
    {
      "naverPlaceId": "1667871175",
      "name": "서신초교 지하 공영주차장",
      "address": "서울특별시 은평구 신사동 194",
      "roadAddress": "서울특별시 은평구 은평터널로 150",
      "lat": 37.5921971,
      "lng": 126.9075035,
      "phone": "1833-9131",
      "dong": "신사동"
    },
    {
      "naverPlaceId": "1769733059",
      "name": "봉산도시자연공원지하 공영 주차장",
      "address": "서울특별시 은평구 신사동 산55-5",
      "roadAddress": "서울특별시 은평구 가좌로11가길 38-11",
      "lat": 37.5973124,
      "lng": 126.9039719,
      "phone": "",
      "dong": "신사동"
    },
    {
      "naverPlaceId": "1374667795",
      "name": "매바위공영주차장",
      "address": "서울특별시 은평구 응암동 747-8",
      "roadAddress": "서울특별시 은평구 가좌로5길 16",
      "lat": 37.5865146,
      "lng": 126.921047,
      "phone": "",
      "dong": "응암동"
    },
    {
      "naverPlaceId": "419845758",
      "name": "진흥로 노상 공영 주차장",
      "address": "서울특별시 은평구 역촌동 41-8",
      "roadAddress": "",
      "lat": 37.601553,
      "lng": 126.9205376,
      "phone": "0507-1376-1362",
      "dong": "역촌동"
    },
    {
      "naverPlaceId": "21185997",
      "name": "구산동마을공원 공영 주차장",
      "address": "서울특별시 은평구 구산동 340-7",
      "roadAddress": "서울특별시 은평구 서오릉로17길 2-9",
      "lat": 37.614832,
      "lng": 126.9083999,
      "phone": "",
      "dong": "구산동"
    },
    {
      "naverPlaceId": "1599017890",
      "name": "갈현2동 주민센터 주차장",
      "address": "서울특별시 은평구 갈현동 502-3",
      "roadAddress": "서울특별시 은평구 연서로27길 31-6",
      "lat": 37.6185399,
      "lng": 126.9158371,
      "phone": "",
      "dong": "갈현동"
    },
    {
      "naverPlaceId": "1084019486",
      "name": "갈현1동공영주차장",
      "address": "서울특별시 은평구 갈현동 9-112",
      "roadAddress": "서울특별시 은평구 갈현로41가길 16",
      "lat": 37.626461,
      "lng": 126.9152908,
      "phone": "",
      "dong": "갈현동"
    },
    {
      "naverPlaceId": "1695632100",
      "name": "구산동 주민센터 주차장",
      "address": "서울특별시 은평구 구산동 27-5",
      "roadAddress": "서울특별시 은평구 갈현로17길 10",
      "lat": 37.6117599,
      "lng": 126.9103836,
      "phone": "",
      "dong": "구산동"
    },
    {
      "naverPlaceId": "1257975988",
      "name": "갈현1동 주민센터 주차장",
      "address": "서울특별시 은평구 갈현동 436-14",
      "roadAddress": "서울특별시 은평구 갈현로 301",
      "lat": 37.6236934,
      "lng": 126.9166886,
      "phone": "",
      "dong": "갈현동"
    },
    {
      "naverPlaceId": "18669170",
      "name": "갈현2동공동주차장",
      "address": "서울특별시 은평구 갈현동 511-3",
      "roadAddress": "",
      "lat": 37.616299,
      "lng": 126.9120999,
      "phone": "",
      "dong": "갈현동"
    },
    {
      "naverPlaceId": "20943387",
      "name": "구산동마을공원 공영 주차장입출구",
      "address": "서울특별시 은평구 구산동",
      "roadAddress": "",
      "lat": 37.6148557,
      "lng": 126.9085215,
      "phone": "",
      "dong": "구산동"
    },
    {
      "naverPlaceId": "1886538623",
      "name": "구산동마을공원 공영주차장 전기차충전소",
      "address": "서울특별시 은평구 구산동 340-1",
      "roadAddress": "서울특별시 은평구 서오릉로17길 2-9",
      "lat": 37.6145675,
      "lng": 126.9083507,
      "phone": "1588-5339",
      "dong": "구산동"
    },
    {
      "naverPlaceId": "1124401427",
      "name": "쏘카 구산동 공영주차장",
      "address": "서울특별시 은평구 구산동 340-1",
      "roadAddress": "서울특별시 은평구 서오릉로17길 2-9",
      "lat": 37.614803,
      "lng": 126.908463,
      "phone": "1661-8838",
      "dong": "구산동"
    },
    {
      "naverPlaceId": "1911957612",
      "name": "갈현2동공동주차장입구",
      "address": "서울특별시 은평구 갈현동",
      "roadAddress": "",
      "lat": 37.6161251,
      "lng": 126.9121883,
      "phone": "",
      "dong": "갈현동"
    },
    {
      "naverPlaceId": "36003251",
      "name": "은평평화공원 공영주차장",
      "address": "서울특별시 은평구 녹번동 153-1",
      "roadAddress": "서울특별시 은평구 서오릉로 47",
      "lat": 37.6057149,
      "lng": 126.9230674,
      "phone": "02-350-5183",
      "dong": "녹번동"
    },
    {
      "naverPlaceId": "36003252",
      "name": "연신주차장",
      "address": "서울특별시 은평구 불광동 400-4 연신중학교",
      "roadAddress": "서울특별시 은평구 연서로33길 16-32 연신중학교",
      "lat": 37.6229293,
      "lng": 126.9257356,
      "phone": "070-7321-3619",
      "dong": "불광동"
    },
    {
      "naverPlaceId": "1449302183",
      "name": "연광초등학교  공영 주차장",
      "address": "서울특별시 은평구 불광동 400-6",
      "roadAddress": "서울특별시 은평구 연서로35길 37",
      "lat": 37.6232572,
      "lng": 126.923941,
      "phone": "",
      "dong": "불광동"
    },
    {
      "naverPlaceId": "1320670984",
      "name": "대조동 주민센터 주차장",
      "address": "서울특별시 은평구 대조동 214-7",
      "roadAddress": "서울특별시 은평구 연서로20길 24-3",
      "lat": 37.6141357,
      "lng": 126.9207931,
      "phone": "",
      "dong": "대조동"
    },
    {
      "naverPlaceId": "1554804204",
      "name": "봉산도시자연공원 공영주차장",
      "address": "서울특별시 은평구 신사동 산55-5 봉산도시자연공원 지하공용주차장",
      "roadAddress": "서울특별시 은평구 가좌로11가길 38-11 봉산도시자연공원 지하공용주차장",
      "lat": 37.597423,
      "lng": 126.9040485,
      "phone": "",
      "dong": "신사동"
    },
    {
      "naverPlaceId": "1762981039",
      "name": "새장골공영주차장",
      "address": "서울특별시 은평구 불광동 480",
      "roadAddress": "서울특별시 은평구 통일로92가길 4",
      "lat": 37.6261215,
      "lng": 126.9209899,
      "phone": "",
      "dong": "불광동"
    },
    {
      "naverPlaceId": "1761153953",
      "name": "역촌동 주민센터 주차장",
      "address": "서울특별시 은평구 역촌동 62-26",
      "roadAddress": "서울특별시 은평구 연서로 59",
      "lat": 37.6043988,
      "lng": 126.915115,
      "phone": "",
      "dong": "역촌동"
    },
    {
      "naverPlaceId": "1256244660",
      "name": "녹번동 주민센터 주차장",
      "address": "서울특별시 은평구 녹번동 87-1",
      "roadAddress": "서울특별시 은평구 은평로 195",
      "lat": 37.6022156,
      "lng": 126.9298221,
      "phone": "",
      "dong": "녹번동"
    },
    {
      "naverPlaceId": "139752118",
      "name": "은평문화재단주차장",
      "address": "서울특별시 은평구 녹번동 85-4 은평문화예술회관",
      "roadAddress": "서울특별시 은평구 녹번로 16 은평문화예술회관",
      "lat": 37.6033645,
      "lng": 126.928496,
      "phone": "",
      "dong": "녹번동"
    },
    {
      "naverPlaceId": "38740886",
      "name": "평화공원 지하 공영주차장 개방화장실",
      "address": "서울특별시 은평구 녹번동 153-31",
      "roadAddress": "서울특별시 은평구 서오릉로 63",
      "lat": 37.6057086,
      "lng": 126.9230557,
      "phone": "02-350-5114",
      "dong": "녹번동"
    },
    {
      "naverPlaceId": "1338322105",
      "name": "서울은평평화공원 공영주차장 전기차충전소",
      "address": "서울특별시 은평구 녹번동 153-1",
      "roadAddress": "서울특별시 은평구 서오릉로 47",
      "lat": 37.6051491,
      "lng": 126.9230407,
      "phone": "1877-6546",
      "dong": "녹번동"
    },
    {
      "naverPlaceId": "1272831208",
      "name": "은평평화공원 공영주차장 전기차충전소",
      "address": "서울특별시 은평구 녹번동 153-1",
      "roadAddress": "서울특별시 은평구 서오릉로 47",
      "lat": 37.6049796,
      "lng": 126.9233648,
      "phone": "1899-2100",
      "dong": "녹번동"
    },
    {
      "naverPlaceId": "1436994147",
      "name": "쏘카 은평평화공원 공영주차장",
      "address": "서울특별시 은평구 녹번동 153-1",
      "roadAddress": "서울특별시 은평구 서오릉로 47",
      "lat": 37.6051829,
      "lng": 126.922991,
      "phone": "1661-8838",
      "dong": "녹번동"
    },
    {
      "naverPlaceId": "1428330943",
      "name": "은평평화공원 지하공영주차장 전기차충전소",
      "address": "서울특별시 은평구 녹번동 153-1",
      "roadAddress": "서울특별시 은평구 서오릉로 47",
      "lat": 37.6051488,
      "lng": 126.9230415,
      "phone": "02-2640-5199",
      "dong": "녹번동"
    },
    {
      "naverPlaceId": "907034759",
      "name": "은평구립도서관주차장",
      "address": "서울특별시 은평구 불광동 산59-32",
      "roadAddress": "서울특별시 은평구 통일로78가길 13-84",
      "lat": 37.6188917,
      "lng": 126.9276517,
      "phone": "",
      "dong": "불광동"
    },
    {
      "naverPlaceId": "1899389197",
      "name": "불광1동 주민센터 주차장",
      "address": "서울특별시 은평구 불광동 613-1",
      "roadAddress": "서울특별시 은평구 진흥로15길 10",
      "lat": 37.6103584,
      "lng": 126.932077,
      "phone": "",
      "dong": "불광동"
    },
    {
      "naverPlaceId": "1180252277",
      "name": "응암1동 주민센터 주차장",
      "address": "서울특별시 은평구 응암동 96-3",
      "roadAddress": "서울특별시 은평구 백련산로 179",
      "lat": 37.6006929,
      "lng": 126.9267614,
      "phone": "",
      "dong": "응암동"
    },
    {
      "naverPlaceId": "1054056464",
      "name": "새장골 주차장",
      "address": "서울특별시 은평구 불광동 480-352",
      "roadAddress": "",
      "lat": 37.6245477,
      "lng": 126.923593,
      "phone": "",
      "dong": "불광동"
    },
    {
      "naverPlaceId": "1741556133",
      "name": "연신중학교 공영주차장 지하2층 대피소",
      "address": "서울특별시 은평구 불광동 400-4",
      "roadAddress": "서울특별시 은평구 연서로33길 16-32",
      "lat": 37.6230152,
      "lng": 126.9248421,
      "phone": "",
      "dong": "불광동"
    },
    {
      "naverPlaceId": "1806449688",
      "name": "서울은평연광초교공영주차장 전기차충전소",
      "address": "서울특별시 은평구 불광동 400-6",
      "roadAddress": "서울특별시 은평구 연서로35길 37",
      "lat": 37.6239946,
      "lng": 126.9244375,
      "phone": "1877-6546",
      "dong": "불광동"
    },
    {
      "naverPlaceId": "19862508",
      "name": "구파발역광역환승센터",
      "address": "서울특별시 은평구 진관동 68-5",
      "roadAddress": "",
      "lat": 37.6383992,
      "lng": 126.9191551,
      "phone": "",
      "dong": "진관동"
    },
    {
      "naverPlaceId": "1879323963",
      "name": "수색동 주민센터 주차장",
      "address": "서울특별시 은평구 수색동 136-50",
      "roadAddress": "",
      "lat": 37.5841195,
      "lng": 126.8975532,
      "phone": "",
      "dong": "수색동"
    },
    {
      "naverPlaceId": "1172518479",
      "name": "서울은평 수색동 공영주차장 전기차충전소",
      "address": "서울특별시 은평구 수색동 32-7",
      "roadAddress": "서울특별시 은평구 수색로12길 2",
      "lat": 37.5804659,
      "lng": 126.8990893,
      "phone": "1877-6546",
      "dong": "수색동"
    },
    {
      "naverPlaceId": "1944342316",
      "name": "수색공영주차장입구",
      "address": "서울특별시 은평구 수색동",
      "roadAddress": "",
      "lat": 37.5805413,
      "lng": 126.898798,
      "phone": "",
      "dong": "수색동"
    },
    {
      "naverPlaceId": "18655401",
      "name": "은평공영차고지주차장",
      "address": "서울특별시 은평구 수색동 414-1",
      "roadAddress": "서울특별시 은평구 수색로24길 19",
      "lat": 37.5933301,
      "lng": 126.8864295,
      "phone": "",
      "dong": "수색동"
    },
    {
      "naverPlaceId": "1843340105",
      "name": "증산동 주민센터 주차장",
      "address": "서울특별시 은평구 증산동 187-19",
      "roadAddress": "서울특별시 은평구 증산서길 89",
      "lat": 37.5843289,
      "lng": 126.9070516,
      "phone": "",
      "dong": "증산동"
    },
    {
      "naverPlaceId": "1101843914",
      "name": "G car zone 이마트 은평점 앞(진흥로노상공영주차장)",
      "address": "서울특별시 은평구 역촌동 42-1",
      "roadAddress": "서울특별시 은평구 진흥로 49",
      "lat": 37.6013003,
      "lng": 126.9201128,
      "phone": "1899-1313",
      "dong": "역촌동"
    },
    {
      "naverPlaceId": "1644533310",
      "name": "응암3동 주민센터 주차장",
      "address": "서울특별시 은평구 응암동 583-22",
      "roadAddress": "서울특별시 은평구 불광천길 410-17",
      "lat": 37.5921977,
      "lng": 126.9156985,
      "phone": "",
      "dong": "응암동"
    },
    {
      "naverPlaceId": "35992945",
      "name": "서신초교 지하 주차장",
      "address": "서울특별시 은평구 신사동 194 서신초등학교",
      "roadAddress": "서울특별시 은평구 은평터널로 150 서신초등학교",
      "lat": 37.5922933,
      "lng": 126.9073831,
      "phone": "02-375-3822",
      "dong": "신사동"
    },
    {
      "naverPlaceId": "1322099491",
      "name": "신사2동 주민센터 주차장",
      "address": "서울특별시 은평구 신사동 163-17",
      "roadAddress": "서울특별시 은평구 증산로15길 47",
      "lat": 37.5902588,
      "lng": 126.9082822,
      "phone": "",
      "dong": "신사동"
    },
    {
      "naverPlaceId": "1076148912",
      "name": "응암2동 주민센터 주차장",
      "address": "서울특별시 은평구 응암동 229-13",
      "roadAddress": "서울특별시 은평구 백련산로 100",
      "lat": 37.5945801,
      "lng": 126.9230929,
      "phone": "",
      "dong": "응암동"
    },
    {
      "naverPlaceId": "38740902",
      "name": "응암공영주차장 개방화장실",
      "address": "서울특별시 은평구 응암동 580-4",
      "roadAddress": "서울특별시 은평구 불광천길 436",
      "lat": 37.5934569,
      "lng": 126.9153658,
      "phone": "02-302-7915",
      "dong": "응암동"
    },
    {
      "naverPlaceId": "1822135423",
      "name": "복합문화시설 건립부지 임시 공영주차장 AI모아모아 재활용품 회수 거점",
      "address": "서울특별시 은평구 응암동",
      "roadAddress": "서울특별시 은평구",
      "lat": 37.6001545,
      "lng": 126.9274003,
      "phone": "02-351-7582",
      "dong": "응암동"
    },
    {
      "naverPlaceId": "1213634892",
      "name": "쏘카 응암3동 공영주차장",
      "address": "서울특별시 은평구 응암3동 580-4",
      "roadAddress": "서울특별시 은평구 불광천길 436",
      "lat": 37.593403,
      "lng": 126.915367,
      "phone": "1661-8838",
      "dong": ""
    },
    {
      "naverPlaceId": "1537191104",
      "name": "은평구 은평등기소 부지 임시 공영주차장 전기차충전소",
      "address": "서울특별시 은평구 응암동 95-1",
      "roadAddress": "",
      "lat": 37.6004784,
      "lng": 126.9273839,
      "phone": "1833-9131",
      "dong": "응암동"
    },
    {
      "naverPlaceId": "1349828161",
      "name": "서울은평 응암3동공영주차장 전기차충전소",
      "address": "서울특별시 은평구 응암동 580-4",
      "roadAddress": "서울특별시 은평구 불광천길 436",
      "lat": 37.5934863,
      "lng": 126.9153855,
      "phone": "1877-6546",
      "dong": "응암동"
    },
    {
      "naverPlaceId": "1229421395",
      "name": "응암3동 공영주차장 전기차충전소",
      "address": "서울특별시 은평구 응암동 580-4",
      "roadAddress": "서울특별시 은평구 불광천길 436",
      "lat": 37.593538,
      "lng": 126.915227,
      "phone": "1899-2100",
      "dong": "응암동"
    },
    {
      "naverPlaceId": "1459298416",
      "name": "서울은평매바위공영주차장 전기차충전소",
      "address": "서울특별시 은평구 응암동 747-8",
      "roadAddress": "서울특별시 은평구 가좌로5길 16",
      "lat": 37.5865247,
      "lng": 126.9210497,
      "phone": "1877-6546",
      "dong": "응암동"
    },
    {
      "naverPlaceId": "18680863",
      "name": "매바위공영주차장입구",
      "address": "서울특별시 은평구 응암동",
      "roadAddress": "",
      "lat": 37.5864396,
      "lng": 126.920864,
      "phone": "",
      "dong": "응암동"
    },
    {
      "naverPlaceId": "1442106041",
      "name": "북한산성 제1주차장",
      "address": "서울특별시 은평구 진관동 280",
      "roadAddress": "서울특별시 은평구 대서문길 24",
      "lat": 37.6567212,
      "lng": 126.9468305,
      "phone": "02-357-6197",
      "dong": "진관동"
    },
    {
      "naverPlaceId": "1106492627",
      "name": "은평한옥마을한문화공영주차장",
      "address": "서울특별시 은평구 진관동 186",
      "roadAddress": "",
      "lat": 37.6410384,
      "lng": 126.9426818,
      "phone": "",
      "dong": "진관동"
    },
    {
      "naverPlaceId": "1615578206",
      "name": "진관동 주민센터 주차장",
      "address": "서울특별시 은평구 진관동 223-27",
      "roadAddress": "",
      "lat": 37.6349429,
      "lng": 126.9210605,
      "phone": "",
      "dong": "진관동"
    },
    {
      "naverPlaceId": "1272982763",
      "name": "은평한옥마을한문화공영주차장입구",
      "address": "서울특별시 은평구 진관동",
      "roadAddress": "",
      "lat": 37.6410371,
      "lng": 126.9426939,
      "phone": "",
      "dong": "진관동"
    },
    {
      "naverPlaceId": "1634474774",
      "name": "구파발역 공영 주차장입출구2",
      "address": "서울특별시 은평구 진관동",
      "roadAddress": "",
      "lat": 37.6384556,
      "lng": 126.9193899,
      "phone": "",
      "dong": "진관동"
    },
    {
      "naverPlaceId": "1321578578",
      "name": "은평한옥마을한문화공영주차장출구",
      "address": "서울특별시 은평구 진관동",
      "roadAddress": "",
      "lat": 37.6406782,
      "lng": 126.9433103,
      "phone": "",
      "dong": "진관동"
    },
    {
      "naverPlaceId": "1528015570",
      "name": "구파발역 공영 주차장입출구1",
      "address": "서울특별시 은평구 진관동",
      "roadAddress": "",
      "lat": 37.638292,
      "lng": 126.9188837,
      "phone": "",
      "dong": "진관동"
    },
    {
      "naverPlaceId": "1571733291",
      "name": "북한산 진관사공영주차장 전기차충전소",
      "address": "서울특별시 은평구 진관동 184",
      "roadAddress": "",
      "lat": 37.640707,
      "lng": 126.942931,
      "phone": "1522-2573",
      "dong": "진관동"
    },
    {
      "naverPlaceId": "1817080838",
      "name": "구파발역 공영주차장 전기차충전소",
      "address": "서울특별시 은평구 진관동 70-1",
      "roadAddress": "서울특별시 은평구 진관2로 15-40",
      "lat": 37.6380545,
      "lng": 126.9191358,
      "phone": "02-2640-5199",
      "dong": "진관동"
    }
  ],
  "sido": "서울특별시",
  "sigungu": "은평구",
  "totalCount": 68,
  "source": "naver-map",
  "scrapedAt": "2026-02-10"
}