{
  "items": [
    {
      "naverPlaceId": "1661723162",
      "name": "하나로빌딩옆 공영(노외)주차장",
      "address": "서울특별시 종로구 인사동 277",
      "roadAddress": "",
      "lat": 37.5724781,
      "lng": 126.9854406,
      "phone": "",
      "dong": "인사동"
    },
    {
      "naverPlaceId": "1814848165",
      "name": "신평화시장앞공영주차장",
      "address": "서울특별시 중구 신당동 217-118",
      "roadAddress": "",
      "lat": 37.5696399,
      "lng": 127.0110219,
      "phone": "",
      "dong": "신당동"
    },
    {
      "naverPlaceId": "37049460",
      "name": "관철동노상공영주차장",
      "address": "서울특별시 종로구 관철동 13-14",
      "roadAddress": "서울특별시 종로구 삼일대로 385-3",
      "lat": 37.5683971,
      "lng": 126.9863395,
      "phone": "02-738-0909",
      "dong": "관철동"
    },
    {
      "naverPlaceId": "18673277",
      "name": "동순라길관광버스주차장",
      "address": "서울특별시 종로구 인의동 112-10",
      "roadAddress": "",
      "lat": 37.5722443,
      "lng": 126.9963725,
      "phone": "02-2290-6449",
      "dong": "인의동"
    },
    {
      "naverPlaceId": "35992852",
      "name": "종묘공영주차장",
      "address": "서울특별시 종로구 종로 157",
      "roadAddress": "서울 종로구 종로 157 1-2,",
      "lat": 37.5709486,
      "lng": 126.9959158,
      "phone": "02-2290-6166",
      "dong": "훈정동"
    },
    {
      "naverPlaceId": "35977068",
      "name": "세종로공영주차장",
      "address": "서울특별시 종로구 세종대로 지하189",
      "roadAddress": "서울 종로구 세종대로 지하 189",
      "lat": 37.5740291,
      "lng": 126.9757486,
      "phone": "02-2290-6566",
      "dong": "세종로"
    },
    {
      "naverPlaceId": "35992955",
      "name": "청계5노상공영주차장",
      "address": "서울특별시 종로구 종로5가 458-2",
      "roadAddress": "",
      "lat": 37.5698285,
      "lng": 127.0053312,
      "phone": "",
      "dong": "종로5가"
    },
    {
      "naverPlaceId": "36438197",
      "name": "청계3가 노상 공영 주차장",
      "address": "서울특별시 종로구 예지동 140-1",
      "roadAddress": "서울 종로구 창경궁로 81 종로4가혼수지하쇼핑센터",
      "lat": 37.5696684,
      "lng": 126.9979457,
      "phone": "",
      "dong": "예지동"
    },
    {
      "naverPlaceId": "35823839",
      "name": "청계2가 노상 공영주차장",
      "address": "서울특별시 종로구 관수동 91-4",
      "roadAddress": "",
      "lat": 37.5683016,
      "lng": 126.98872,
      "phone": "",
      "dong": "관수동"
    },
    {
      "naverPlaceId": "35992946",
      "name": "서인사마당노상공영주차장",
      "address": "서울특별시 종로구 인사동11길 23",
      "roadAddress": "서울 종로구 인사동11길 19",
      "lat": 37.5736545,
      "lng": 126.9838099,
      "phone": "",
      "dong": "견지동"
    },
    {
      "naverPlaceId": "37304422",
      "name": "비봉 공영 주차장",
      "address": "서울특별시 종로구 비봉길 64",
      "roadAddress": "서울 종로구 비봉길 64",
      "lat": 37.612349,
      "lng": 126.9566029,
      "phone": "",
      "dong": "구기동"
    },
    {
      "naverPlaceId": "37564984",
      "name": "청계6가 노상 공영 주차장",
      "address": "서울특별시 종로구 종로6가 289-49",
      "roadAddress": "",
      "lat": 37.5699825,
      "lng": 127.0127403,
      "phone": "",
      "dong": "종로6가"
    },
    {
      "naverPlaceId": "36022170",
      "name": "청계7가 노상 공영 주차장",
      "address": "서울특별시 종로구 창신동 436-87",
      "roadAddress": "",
      "lat": 37.5701782,
      "lng": 127.0164547,
      "phone": "",
      "dong": "창신동"
    },
    {
      "naverPlaceId": "35992952",
      "name": "청계1노상공영주차장",
      "address": "서울특별시 종로구 삼일대로 385-3",
      "roadAddress": "서울 종로구 청계천로 85",
      "lat": 37.5687956,
      "lng": 126.9961964,
      "phone": "",
      "dong": "관철동"
    },
    {
      "naverPlaceId": "1471689742",
      "name": "유임개발",
      "address": "서울특별시 종로구 북촌로 134-1",
      "roadAddress": "서울 종로구 삼청로10길 13",
      "lat": 37.5880587,
      "lng": 126.9828483,
      "phone": "",
      "dong": "삼청동"
    },
    {
      "naverPlaceId": "35992961",
      "name": "신문로공영주차장",
      "address": "서울특별시 종로구 새문안로 79",
      "roadAddress": "서울 종로구 새문안로 79",
      "lat": 37.5711124,
      "lng": 126.9731719,
      "phone": "02-720-0964",
      "dong": "신문로1가"
    },
    {
      "naverPlaceId": "1575979665",
      "name": "광화문빌딩앞공영주차장",
      "address": "서울특별시 종로구 세종대로 23길 47",
      "roadAddress": "서울 종로구 세종대로23길 47",
      "lat": 37.5716119,
      "lng": 126.9743226,
      "phone": "",
      "dong": "당주동"
    },
    {
      "naverPlaceId": "1529504342",
      "name": "종각뒤공영주차장",
      "address": "서울특별시 종로구 종로 54-1",
      "roadAddress": "서울 종로구 종로 54-1 도로일대",
      "lat": 37.5695743,
      "lng": 126.9836513,
      "phone": "",
      "dong": "관철동"
    },
    {
      "naverPlaceId": "1353430238",
      "name": "하나로빌딩옆 공영 주차장",
      "address": "서울특별시 종로구 인사동 227",
      "roadAddress": "서울 종로구 인사동5길 25",
      "lat": 37.572307,
      "lng": 126.9852667,
      "phone": "",
      "dong": "인사동"
    },
    {
      "naverPlaceId": "1106824061",
      "name": "대학로8가길 공영주차장",
      "address": "서울특별시 종로구 대학로8가길 119",
      "roadAddress": "서울 종로구 대학로8가길 85",
      "lat": 37.5807905,
      "lng": 127.0033865,
      "phone": "",
      "dong": "동숭동"
    },
    {
      "naverPlaceId": "36898017",
      "name": "명광교회 옆 공영 주차장",
      "address": "서울특별시 종로구 성균관로 45",
      "roadAddress": "서울 종로구 성균관로 45",
      "lat": 37.5867981,
      "lng": 126.996492,
      "phone": "",
      "dong": "명륜3가"
    },
    {
      "naverPlaceId": "1437861069",
      "name": "원서공원앞 공영주차장",
      "address": "서울특별시 종로구 원서동 181 창덕궁길 노상",
      "roadAddress": "서울특별시 종로구 창덕궁길 19 창덕궁길 노상",
      "lat": 37.5783907,
      "lng": 126.9886109,
      "phone": "",
      "dong": "종로"
    },
    {
      "naverPlaceId": "2140940190",
      "name": "삼청제1공영주차장",
      "address": "서울특별시 종로구 삼청동 25-1",
      "roadAddress": "서울특별시 종로구 삼청로10길 13",
      "lat": 37.5875769,
      "lng": 126.9827582,
      "phone": "",
      "dong": "종로"
    },
    {
      "naverPlaceId": "1769222236",
      "name": "낙원상가 밑 노상 공영 주차장",
      "address": "서울특별시 종로구 낙원동 290-1",
      "roadAddress": "서울특별시 종로구 삼일대로 418-3",
      "lat": 37.5720358,
      "lng": 126.9879445,
      "phone": "02-2261-0815",
      "dong": "종로"
    },
    {
      "naverPlaceId": "1686512874",
      "name": "정독도서관 주차장",
      "address": "서울특별시 종로구 화동 2",
      "roadAddress": "서울특별시 종로구 북촌로5길 48",
      "lat": 37.5798185,
      "lng": 126.9825946,
      "phone": "",
      "dong": "종로"
    },
    {
      "naverPlaceId": "1488373959",
      "name": "삼청제1공영주차장",
      "address": "서울특별시 종로구 삼청동 25-1",
      "roadAddress": "서울특별시 종로구 삼청로10길 13",
      "lat": 37.5875775,
      "lng": 126.9827616,
      "phone": "",
      "dong": "종로"
    },
    {
      "naverPlaceId": "36005565",
      "name": "원서공원앞노상공영주차장",
      "address": "서울특별시 종로구 와룡동 3-16",
      "roadAddress": "",
      "lat": 37.5782708,
      "lng": 126.9893147,
      "phone": "",
      "dong": "종로"
    },
    {
      "naverPlaceId": "1879742902",
      "name": "명륜동와룡공영주차장",
      "address": "서울특별시 종로구 명륜3가 1-21",
      "roadAddress": "서울특별시 종로구 명륜길 26",
      "lat": 37.5885711,
      "lng": 126.9954467,
      "phone": "",
      "dong": "종로"
    },
    {
      "naverPlaceId": "1972854754",
      "name": "광화문빌딩공영주차장",
      "address": "서울특별시 종로구 세종로 160-2",
      "roadAddress": "서울특별시 종로구 세종대로23길 5",
      "lat": 37.5715606,
      "lng": 126.9760944,
      "phone": "",
      "dong": "종로"
    },
    {
      "naverPlaceId": "21185646",
      "name": "삼청공영주차장",
      "address": "서울특별시 종로구 삼청동 125-6",
      "roadAddress": "서울특별시 종로구 삼청로 141-1",
      "lat": 37.5881173,
      "lng": 126.9814845,
      "phone": "",
      "dong": "종로"
    },
    {
      "naverPlaceId": "36005564",
      "name": "종각앞노상공영주차장",
      "address": "서울특별시 종로구 관철동 13-22",
      "roadAddress": "서울특별시 종로구 종로8길 5-8",
      "lat": 37.5695588,
      "lng": 126.9834406,
      "phone": "",
      "dong": "종로"
    },
    {
      "naverPlaceId": "2140745099",
      "name": "서인사마당노상공영주차장입구",
      "address": "서울특별시 종로구 견지동",
      "roadAddress": "서울특별시 종로구",
      "lat": 37.5737761,
      "lng": 126.9837474,
      "phone": "",
      "dong": "종로"
    },
    {
      "naverPlaceId": "2146315650",
      "name": "서인사마당노상공영주차장출구",
      "address": "서울특별시 종로구 견지동",
      "roadAddress": "서울특별시 종로구",
      "lat": 37.5733805,
      "lng": 126.9839544,
      "phone": "",
      "dong": "종로"
    },
    {
      "naverPlaceId": "1624026381",
      "name": "서인사마당 공영주차장",
      "address": "서울특별시 종로구 견지동 85-18 서인사마당 공영주차장",
      "roadAddress": "서울특별시 종로구 인사동11길 19 (견지동) 서인사마당 공영주차장",
      "lat": 37.5736829,
      "lng": 126.9835858,
      "phone": "",
      "dong": "종로"
    },
    {
      "naverPlaceId": "36003266",
      "name": "세운상가밑노상공영주차장",
      "address": "서울특별시 종로구 장사동 112-14",
      "roadAddress": "",
      "lat": 37.5693207,
      "lng": 126.9950377,
      "phone": "",
      "dong": "종로"
    },
    {
      "naverPlaceId": "1121891809",
      "name": "명륜1가공영주차장",
      "address": "서울특별시 종로구 명륜1가 5-14",
      "roadAddress": "서울특별시 종로구 성균관로15길 10",
      "lat": 37.590006,
      "lng": 126.9976824,
      "phone": "",
      "dong": "종로"
    },
    {
      "naverPlaceId": "35823843",
      "name": "청계4가 노상 공영 주차장",
      "address": "서울특별시 종로구 예지동 293-1",
      "roadAddress": "서울특별시 종로구 창경궁로 81",
      "lat": 37.5694362,
      "lng": 126.9999038,
      "phone": "",
      "dong": "종로"
    },
    {
      "naverPlaceId": "1726760096",
      "name": "관철동 노상 공영 주차장",
      "address": "서울특별시 종로구 관철동 268",
      "roadAddress": "",
      "lat": 37.5683869,
      "lng": 126.9867137,
      "phone": "",
      "dong": "종로"
    },
    {
      "naverPlaceId": "1711967940",
      "name": "종로구교남공영주차장",
      "address": "서울특별시 종로구 행촌동 1-53",
      "roadAddress": "",
      "lat": 37.5727386,
      "lng": 126.9639738,
      "phone": "",
      "dong": "종로"
    },
    {
      "naverPlaceId": "18683476",
      "name": "행촌동공영주차장(방문주차불가)",
      "address": "서울특별시 종로구 행촌동 210-35",
      "roadAddress": "",
      "lat": 37.5753269,
      "lng": 126.9630461,
      "phone": "",
      "dong": "종로"
    },
    {
      "naverPlaceId": "1120876305",
      "name": "서울역사박물관 주차장",
      "address": "서울특별시 종로구 신문로2가 2-1",
      "roadAddress": "서울특별시 종로구 새문안로 55",
      "lat": 37.5701434,
      "lng": 126.9704375,
      "phone": "",
      "dong": "종로"
    },
    {
      "naverPlaceId": "36005563",
      "name": "광화문빌딩앞노상공영주차장",
      "address": "서울특별시 종로구 당주동 5-2",
      "roadAddress": "",
      "lat": 37.5716502,
      "lng": 126.9738889,
      "phone": "02-2236-0052",
      "dong": "종로"
    },
    {
      "naverPlaceId": "20921408",
      "name": "사직공영주차장(방문주차불가)",
      "address": "서울특별시 종로구 사직동 262-84",
      "roadAddress": "서울특별시 종로구 사직로7길 4",
      "lat": 37.5746595,
      "lng": 126.966442,
      "phone": "",
      "dong": "종로"
    },
    {
      "naverPlaceId": "1181427518",
      "name": "효자동 공영 주차장",
      "address": "서울특별시 종로구 효자동 68-1",
      "roadAddress": "",
      "lat": 37.5829546,
      "lng": 126.9707227,
      "phone": "",
      "dong": "종로"
    },
    {
      "naverPlaceId": "2145226246",
      "name": "옥인제1공영주차장",
      "address": "서울특별시 종로구 옥인동 47-16",
      "roadAddress": "서울특별시 종로구 필운대로 75",
      "lat": 37.5826311,
      "lng": 126.9672474,
      "phone": "",
      "dong": "종로"
    },
    {
      "naverPlaceId": "21185794",
      "name": "누상공영주차장 (일부방문주차가능)",
      "address": "서울특별시 종로구 누상동 166-50",
      "roadAddress": "",
      "lat": 37.5803669,
      "lng": 126.9645645,
      "phone": "",
      "dong": "종로"
    },
    {
      "naverPlaceId": "1687868714",
      "name": "옥인공영주차장 (방문주차불가)",
      "address": "서울특별시 종로구 옥인동 47-469",
      "roadAddress": "서울특별시 종로구 필운대로9길 25",
      "lat": 37.58229,
      "lng": 126.9655195,
      "phone": "",
      "dong": "종로"
    },
    {
      "naverPlaceId": "21185625",
      "name": "효자공영주차장",
      "address": "서울특별시 종로구 효자동 68-1",
      "roadAddress": "",
      "lat": 37.5829413,
      "lng": 126.970657,
      "phone": "",
      "dong": "종로"
    },
    {
      "naverPlaceId": "18661943",
      "name": "신교공영주차장",
      "address": "서울특별시 종로구 신교동 66",
      "roadAddress": "서울특별시 종로구 자하문로 89",
      "lat": 37.5840288,
      "lng": 126.9696456,
      "phone": "",
      "dong": "종로"
    },
    {
      "naverPlaceId": "1094708114",
      "name": "무계원공영주차장",
      "address": "서울특별시 종로구 부암동 328-2",
      "roadAddress": "서울특별시 종로구 창의문로5가길 4",
      "lat": 37.5915749,
      "lng": 126.9633563,
      "phone": "",
      "dong": "종로"
    },
    {
      "naverPlaceId": "1998146845",
      "name": "세종마을 신교  공영 주차장",
      "address": "서울특별시 종로구 신교동 66",
      "roadAddress": "서울특별시 종로구 자하문로 89",
      "lat": 37.5839963,
      "lng": 126.9697237,
      "phone": "",
      "dong": "종로"
    },
    {
      "naverPlaceId": "2140868627",
      "name": "청와대춘추문1공영주차장",
      "address": "서울특별시 종로구 삼청동",
      "roadAddress": "서울특별시 종로구",
      "lat": 37.5844177,
      "lng": 126.979672,
      "phone": "",
      "dong": "종로"
    },
    {
      "naverPlaceId": "1371121529",
      "name": "부암공영주차장(방문주차불가)",
      "address": "서울특별시 종로구 부암동 369-15",
      "roadAddress": "",
      "lat": 37.5931124,
      "lng": 126.9606439,
      "phone": "",
      "dong": "종로"
    },
    {
      "naverPlaceId": "37346220",
      "name": "세종로공영주차장입구",
      "address": "서울특별시 종로구 세종로",
      "roadAddress": "",
      "lat": 37.5740589,
      "lng": 126.9757064,
      "phone": "",
      "dong": "종로"
    },
    {
      "naverPlaceId": "1025188694",
      "name": "세종로공영주차장 지하1~5층 대피소",
      "address": "서울특별시 종로구 세종로 80-1",
      "roadAddress": "서울특별시 종로구 세종대로 189",
      "lat": 37.5732789,
      "lng": 126.9762782,
      "phone": "",
      "dong": "종로"
    },
    {
      "naverPlaceId": "1155797981",
      "name": "낙원상가밑 공영주차장",
      "address": "서울특별시 종로구 낙원동 288 노상 낙원상가 밑 공영주차장",
      "roadAddress": "서울특별시 종로구 삼일대로 428 노상 낙원상가 밑 공영주차장",
      "lat": 37.5722238,
      "lng": 126.9876399,
      "phone": "",
      "dong": "종로"
    },
    {
      "naverPlaceId": "1854402125",
      "name": "낙원상가 밑 노상 공영 주차장입구",
      "address": "서울특별시 종로구 낙원동",
      "roadAddress": "",
      "lat": 37.5720689,
      "lng": 126.987845,
      "phone": "",
      "dong": "종로"
    },
    {
      "naverPlaceId": "1571684847",
      "name": "누상공영주차장 전기차충전소",
      "address": "서울특별시 종로구 누상동 166-50",
      "roadAddress": "",
      "lat": 37.5803159,
      "lng": 126.964729,
      "phone": "02-2640-5199",
      "dong": "종로"
    },
    {
      "naverPlaceId": "889074447",
      "name": "누상동공영주차장(방문주차불가)입구",
      "address": "서울특별시 종로구 누상동",
      "roadAddress": "",
      "lat": 37.5804175,
      "lng": 126.9647748,
      "phone": "",
      "dong": "종로"
    },
    {
      "naverPlaceId": "1891445728",
      "name": "광화문빌딩앞 공영노상주차장",
      "address": "서울특별시 종로구 세종로 166-1",
      "roadAddress": "서울특별시 종로구 세종대로23길 3",
      "lat": 37.571514,
      "lng": 126.9762398,
      "phone": "",
      "dong": "종로"
    },
    {
      "naverPlaceId": "35823844",
      "name": "청계 노상 공영 주차장",
      "address": "서울특별시 종로구 예지동 187-2 종로4가혼수지하쇼핑센터",
      "roadAddress": "서울특별시 종로구 창경궁로 81 종로4가혼수지하쇼핑센터",
      "lat": 37.5702092,
      "lng": 126.9979738,
      "phone": "",
      "dong": "종로"
    },
    {
      "naverPlaceId": "35940176",
      "name": "국립 한국방송통신대학교주차장",
      "address": "서울특별시 종로구 동숭동 169-1 한국방송통신대학교",
      "roadAddress": "서울특별시 종로구 대학로 86 한국방송통신대학교",
      "lat": 37.5795617,
      "lng": 127.0031677,
      "phone": "070-4649-5252",
      "dong": "종로"
    },
    {
      "naverPlaceId": "21186195",
      "name": "종로구이화동공영주차장",
      "address": "서울특별시 종로구 이화동 13-2",
      "roadAddress": "",
      "lat": 37.5765507,
      "lng": 127.0055685,
      "phone": "",
      "dong": "종로"
    },
    {
      "naverPlaceId": "21186202",
      "name": "동숭공영주차장(방문주차불가)",
      "address": "서울특별시 종로구 동숭동 31-35",
      "roadAddress": "서울특별시 종로구 동숭1길 11-1",
      "lat": 37.5801849,
      "lng": 127.0051742,
      "phone": "",
      "dong": "종로"
    },
    {
      "naverPlaceId": "19419496",
      "name": "백동공영주차장(방문주차불가)",
      "address": "서울특별시 종로구 동숭동 2-2",
      "roadAddress": "",
      "lat": 37.5843583,
      "lng": 127.0052249,
      "phone": "",
      "dong": "종로"
    },
    {
      "naverPlaceId": "20905364",
      "name": "종로구이화동공영주차장입구 동측",
      "address": "서울특별시 종로구 이화동",
      "roadAddress": "",
      "lat": 37.5765334,
      "lng": 127.0058177,
      "phone": "",
      "dong": "종로"
    },
    {
      "naverPlaceId": "1854410182",
      "name": "대학로8가길 공영주차장",
      "address": "서울특별시 종로구 동숭동 1-130 노상 주차장 대학로8가길",
      "roadAddress": "서울특별시 종로구 동숭길 3 (동숭동) 노상 주차장 대학로8가길",
      "lat": 37.5805409,
      "lng": 127.0032407,
      "phone": "",
      "dong": "종로"
    },
    {
      "naverPlaceId": "1259158533",
      "name": "종로구 이화공영주차장 전기차충전소",
      "address": "서울특별시 종로구 이화동 13-2",
      "roadAddress": "",
      "lat": 37.5765522,
      "lng": 127.005564,
      "phone": "1833-9131",
      "dong": "종로"
    },
    {
      "naverPlaceId": "1257275869",
      "name": "이화공영주차장자전거대여소",
      "address": "서울특별시 종로구 이화동",
      "roadAddress": "",
      "lat": 37.5766106,
      "lng": 127.0055735,
      "phone": "",
      "dong": "종로"
    },
    {
      "naverPlaceId": "1737782479",
      "name": "이화공영주차장입구_옥내",
      "address": "서울특별시 종로구 이화동 21",
      "roadAddress": "서울특별시 종로구 율곡로17길 8",
      "lat": 37.5762161,
      "lng": 127.0051069,
      "phone": "",
      "dong": "종로"
    },
    {
      "naverPlaceId": "1090989221",
      "name": "종로구이화동공영주차장입구 서측",
      "address": "서울특별시 종로구 이화동",
      "roadAddress": "",
      "lat": 37.5764447,
      "lng": 127.00505,
      "phone": "",
      "dong": "종로"
    },
    {
      "naverPlaceId": "1072479428",
      "name": "동숭공영주차장입구",
      "address": "서울특별시 종로구 동숭동",
      "roadAddress": "",
      "lat": 37.5799942,
      "lng": 127.0051277,
      "phone": "",
      "dong": "종로"
    },
    {
      "naverPlaceId": "1158460737",
      "name": "이화공영주차장 채비 전기차충전소",
      "address": "서울특별시 종로구 이화동",
      "roadAddress": "서울특별시 종로구",
      "lat": 37.5766208,
      "lng": 127.005617,
      "phone": "1522-2573",
      "dong": "종로"
    },
    {
      "naverPlaceId": "2086950302",
      "name": "오름씨앤디",
      "address": "서울특별시 종로구 이화동 134 1층",
      "roadAddress": "서울특별시 종로구 율곡로 221-12 1층",
      "lat": 37.5767107,
      "lng": 127.003462,
      "phone": "070-7758-3344",
      "dong": "종로"
    },
    {
      "naverPlaceId": "1271043086",
      "name": "창신소담공영주차장",
      "address": "서울특별시 종로구 창신동 641",
      "roadAddress": "서울특별시 종로구",
      "lat": 37.5753837,
      "lng": 127.0104276,
      "phone": "",
      "dong": "종로"
    },
    {
      "naverPlaceId": "1017653079",
      "name": "선비재공영주차장(방문주차불가)",
      "address": "서울특별시 종로구 명륜1가 7-32",
      "roadAddress": "",
      "lat": 37.5888357,
      "lng": 126.9966479,
      "phone": "",
      "dong": "종로"
    },
    {
      "naverPlaceId": "21185917",
      "name": "명륜동3가공영주차장(방문주차불가)",
      "address": "서울특별시 종로구 명륜3가 1-29",
      "roadAddress": "서울특별시 종로구 명륜3길 16",
      "lat": 37.5890615,
      "lng": 126.9941191,
      "phone": "",
      "dong": "종로"
    },
    {
      "naverPlaceId": "21185793",
      "name": "창이거주자우선주차장",
      "address": "서울특별시 종로구 창신동 23-611",
      "roadAddress": "서울특별시 종로구 창신8길 33",
      "lat": 37.5776145,
      "lng": 127.0103264,
      "phone": "",
      "dong": "종로"
    },
    {
      "naverPlaceId": "18677636",
      "name": "명륜국제주차장(방문주차불가)",
      "address": "서울특별시 종로구 명륜1가 7-69",
      "roadAddress": "서울특별시 종로구 성균관로13길 30",
      "lat": 37.5904055,
      "lng": 126.9967073,
      "phone": "",
      "dong": "종로"
    },
    {
      "naverPlaceId": "1069225961",
      "name": "서울시 종묘공영주차장 전기차충전소",
      "address": "서울특별시 종로구 훈정동 1-2",
      "roadAddress": "서울특별시 종로구 종로 157",
      "lat": 37.5713988,
      "lng": 126.9956521,
      "phone": "1661-7766",
      "dong": "종로"
    },
    {
      "naverPlaceId": "38752042",
      "name": "종묘공영주차장 개방화장실",
      "address": "서울특별시 종로구 훈정동 1-2",
      "roadAddress": "서울특별시 종로구 종로 157",
      "lat": 37.5714971,
      "lng": 126.9950213,
      "phone": "02-2290-6166",
      "dong": "종로"
    },
    {
      "naverPlaceId": "1132725259",
      "name": "종묘공영주차장 전기차충전소",
      "address": "서울특별시 종로구 훈정동 1-2",
      "roadAddress": "서울특별시 종로구 종로 157",
      "lat": 37.57299,
      "lng": 126.99437,
      "phone": "1522-2573",
      "dong": "종로"
    },
    {
      "naverPlaceId": "2147359975",
      "name": "부암동공영주차장(2030년예정)",
      "address": "서울특별시 종로구 부암동 261-9",
      "roadAddress": "서울특별시 종로구 창의문로 137-1",
      "lat": 37.5923313,
      "lng": 126.9649792,
      "phone": "",
      "dong": "종로"
    },
    {
      "naverPlaceId": "18670592",
      "name": "삼청공영주차장(방문주차불가)입구",
      "address": "서울특별시 종로구 삼청동",
      "roadAddress": "",
      "lat": 37.5881204,
      "lng": 126.9815937,
      "phone": "",
      "dong": "종로"
    },
    {
      "naverPlaceId": "2142374217",
      "name": "삼청제1공영주차장입구",
      "address": "서울특별시 종로구 삼청동",
      "roadAddress": "서울특별시 종로구",
      "lat": 37.5873798,
      "lng": 126.9827225,
      "phone": "",
      "dong": "종로"
    },
    {
      "naverPlaceId": "1828465993",
      "name": "쏘카 신문로 공영주차장",
      "address": "서울특별시 종로구 신문로1가 58-36",
      "roadAddress": "서울특별시 종로구 새문안로 79",
      "lat": 37.571127,
      "lng": 126.973163,
      "phone": "1661-8838",
      "dong": "종로"
    },
    {
      "naverPlaceId": "1132311975",
      "name": "신문로공영주차장",
      "address": "서울특별시 종로구 신문로1가 58-36 신문로 공영주차장",
      "roadAddress": "서울특별시 종로구 새문안로 79",
      "lat": 37.5710836,
      "lng": 126.9731217,
      "phone": "",
      "dong": "종로"
    },
    {
      "naverPlaceId": "1034318477",
      "name": "신문로공영주차장입구",
      "address": "서울특별시 종로구 신문로1가",
      "roadAddress": "",
      "lat": 37.5712254,
      "lng": 126.9732583,
      "phone": "",
      "dong": "종로"
    },
    {
      "naverPlaceId": "1068393454",
      "name": "세종로공영주차장출구",
      "address": "서울특별시 종로구 세종로",
      "roadAddress": "",
      "lat": 37.57297,
      "lng": 126.9757925,
      "phone": "",
      "dong": "종로"
    },
    {
      "naverPlaceId": "1786069702",
      "name": "세종로공영주차장입구",
      "address": "서울특별시 종로구 세종로",
      "roadAddress": "",
      "lat": 37.5741194,
      "lng": 126.9762695,
      "phone": "",
      "dong": "종로"
    },
    {
      "naverPlaceId": "38739421",
      "name": "세종로공영주차장 개방화장실",
      "address": "서울특별시 종로구 세종로 80-1",
      "roadAddress": "서울특별시 종로구 세종대로 189",
      "lat": 37.5733655,
      "lng": 126.9758958,
      "phone": "02-2290-7104",
      "dong": "종로"
    },
    {
      "naverPlaceId": "1455700240",
      "name": "서울시 세종로공영주차장 전기차충전소",
      "address": "서울특별시 종로구 세종로 79-10",
      "roadAddress": "",
      "lat": 37.5739936,
      "lng": 126.9757156,
      "phone": "1661-7766",
      "dong": "종로"
    },
    {
      "naverPlaceId": "1918594655",
      "name": "세종로 공영주차장 전기차충전소",
      "address": "서울특별시 종로구 세종로 79-7",
      "roadAddress": "",
      "lat": 37.5741299,
      "lng": 126.9762658,
      "phone": "1661-7737",
      "dong": "종로"
    },
    {
      "naverPlaceId": "37113832",
      "name": "G car zone 세종로 공영주차장",
      "address": "서울특별시 종로구 세종로 80-1",
      "roadAddress": "서울특별시 종로구 세종대로 189",
      "lat": 37.5740595,
      "lng": 126.9755847,
      "phone": "1899-1313",
      "dong": "종로"
    },
    {
      "naverPlaceId": "1570103861",
      "name": "쏘카 세종로 공영주차장",
      "address": "서울특별시 종로구 세종로 80-1",
      "roadAddress": "서울특별시 종로구 세종대로 189",
      "lat": 37.573374,
      "lng": 126.975915,
      "phone": "1661-8838",
      "dong": "종로"
    },
    {
      "naverPlaceId": "1521056892",
      "name": "종로구청 공영주차장 전기차충전소",
      "address": "서울특별시 종로구 수송동 146-1",
      "roadAddress": "서울특별시 종로구 종로1길 42",
      "lat": 37.5737347,
      "lng": 126.9788087,
      "phone": "1661-7737",
      "dong": "종로"
    },
    {
      "naverPlaceId": "21185994",
      "name": "동묘공영주차장",
      "address": "서울특별시 종로구 숭인동 225-2",
      "roadAddress": "서울특별시 종로구 종로60길 7-1",
      "lat": 37.5732849,
      "lng": 127.0190297,
      "phone": "",
      "dong": "종로"
    },
    {
      "naverPlaceId": "1093862269",
      "name": "숭인도담 공영주차장",
      "address": "서울특별시 종로구 숭인동 462",
      "roadAddress": "서울특별시 종로구 숭인동길 81",
      "lat": 37.5784258,
      "lng": 127.0215605,
      "phone": "",
      "dong": "종로"
    },
    {
      "naverPlaceId": "1941405915",
      "name": "숭인공영주차장",
      "address": "서울특별시 종로구 숭인동 57-18",
      "roadAddress": "",
      "lat": 37.577275,
      "lng": 127.0168035,
      "phone": "",
      "dong": "종로"
    },
    {
      "naverPlaceId": "35977683",
      "name": "청계7노상공영주차장",
      "address": "서울특별시 종로구 숭인2동 234-88",
      "roadAddress": "",
      "lat": 37.5719885,
      "lng": 127.0205141,
      "phone": "",
      "dong": "종로"
    },
    {
      "naverPlaceId": "34352617",
      "name": "숭인제1공영주차장(방문주차불가)",
      "address": "서울특별시 종로구 숭인동 55-2",
      "roadAddress": "서울특별시 종로구 지봉로 86",
      "lat": 37.5777361,
      "lng": 127.0155815,
      "phone": "",
      "dong": "종로"
    },
    {
      "naverPlaceId": "1521923410",
      "name": "숭인도담공영주차장 채비 전기차충전소",
      "address": "서울특별시 종로구 숭인동 462",
      "roadAddress": "서울특별시 종로구 숭인동길 81",
      "lat": 37.5784329,
      "lng": 127.021562,
      "phone": "1522-2573",
      "dong": "종로"
    },
    {
      "naverPlaceId": "1107618050",
      "name": "숭인도담공영주차장 서울시 전기차충전소",
      "address": "서울특별시 종로구 숭인동 462",
      "roadAddress": "서울특별시 종로구 숭인동길 81",
      "lat": 37.5784676,
      "lng": 127.0215492,
      "phone": "02-2640-5199",
      "dong": "종로"
    },
    {
      "naverPlaceId": "1215237883",
      "name": "숭인공영주차장 전기차충전소",
      "address": "서울특별시 종로구 숭인동",
      "roadAddress": "서울특별시 종로구",
      "lat": 37.5772687,
      "lng": 127.0167987,
      "phone": "1522-2573",
      "dong": "종로"
    },
    {
      "naverPlaceId": "1361429987",
      "name": "숭인도담공영주차장 지하3층 전기차충전소",
      "address": "서울특별시 종로구 숭인동 462",
      "roadAddress": "서울특별시 종로구 숭인동길 81",
      "lat": 37.578492,
      "lng": 127.02158,
      "phone": "1522-2573",
      "dong": "종로"
    },
    {
      "naverPlaceId": "1017230231",
      "name": "동묘공영주차장입구",
      "address": "서울특별시 종로구 숭인동",
      "roadAddress": "",
      "lat": 37.5733373,
      "lng": 127.0191563,
      "phone": "",
      "dong": "종로"
    },
    {
      "naverPlaceId": "1790454572",
      "name": "숭인도담 공영주차장입구",
      "address": "서울특별시 종로구 숭인동",
      "roadAddress": "",
      "lat": 37.5783726,
      "lng": 127.0217325,
      "phone": "",
      "dong": "종로"
    },
    {
      "naverPlaceId": "1828003043",
      "name": "숭인도담 공영주차장입구",
      "address": "서울특별시 종로구 숭인동",
      "roadAddress": "",
      "lat": 37.5785953,
      "lng": 127.0216092,
      "phone": "",
      "dong": "종로"
    },
    {
      "naverPlaceId": "2144684774",
      "name": "숭인공영주차장입구",
      "address": "서울특별시 종로구 숭인동",
      "roadAddress": "서울특별시 종로구",
      "lat": 37.5771263,
      "lng": 127.0167305,
      "phone": "",
      "dong": "종로"
    },
    {
      "naverPlaceId": "38741920",
      "name": "신교공영주차장 지하1층 개방화장실",
      "address": "서울특별시 종로구 신교동 66",
      "roadAddress": "서울특별시 종로구 자하문로 89",
      "lat": 37.5840832,
      "lng": 126.9698031,
      "phone": "02-2236-0052",
      "dong": "종로"
    },
    {
      "naverPlaceId": "1409412013",
      "name": "신교 공영주차장 전기차충전소",
      "address": "서울특별시 종로구 신교동 66",
      "roadAddress": "서울특별시 종로구 자하문로 89",
      "lat": 37.584027,
      "lng": 126.969974,
      "phone": "1566-1704",
      "dong": "종로"
    },
    {
      "naverPlaceId": "1907090547",
      "name": "신교공영주차장 지하1층~4층 대피소",
      "address": "서울특별시 종로구 신교동 66",
      "roadAddress": "서울특별시 종로구 자하문로 89",
      "lat": 37.5839786,
      "lng": 126.9700901,
      "phone": "",
      "dong": "종로"
    },
    {
      "naverPlaceId": "1263224289",
      "name": "옥인공영주차장 전기차충전소",
      "address": "서울특별시 종로구 옥인동 46-1",
      "roadAddress": "서울특별시 종로구 필운대로 83",
      "lat": 37.583155,
      "lng": 126.967095,
      "phone": "1522-2573",
      "dong": "종로"
    },
    {
      "naverPlaceId": "1179837004",
      "name": "옥인공영주차장입구",
      "address": "서울특별시 종로구 옥인동",
      "roadAddress": "",
      "lat": 37.5823289,
      "lng": 126.9656421,
      "phone": "",
      "dong": "종로"
    },
    {
      "naverPlaceId": "2142833071",
      "name": "옥인제1공영주차장입구",
      "address": "서울특별시 종로구 옥인동",
      "roadAddress": "서울특별시 종로구",
      "lat": 37.5825575,
      "lng": 126.9675405,
      "phone": "",
      "dong": "종로"
    },
    {
      "naverPlaceId": "1545592833",
      "name": "서울글로벌센터 공영 주차장",
      "address": "서울특별시 종로구 서린동 63",
      "roadAddress": "서울특별시 종로구 종로 38",
      "lat": 37.5698342,
      "lng": 126.981483,
      "phone": "",
      "dong": "종로"
    },
    {
      "naverPlaceId": "36061368",
      "name": "서린 주차장",
      "address": "서울특별시 종로구 서린동 63",
      "roadAddress": "서울특별시 종로구 종로 38",
      "lat": 37.5698341,
      "lng": 126.9814604,
      "phone": "",
      "dong": "종로"
    },
    {
      "naverPlaceId": "1152718106",
      "name": "서울글로벌센터 공영 주차장입출구",
      "address": "서울특별시 종로구 서린동",
      "roadAddress": "서울특별시 종로구",
      "lat": 37.5696763,
      "lng": 126.9816146,
      "phone": "",
      "dong": "종로"
    },
    {
      "naverPlaceId": "2144417905",
      "name": "하나로빌딩옆 공영(노외)주차장입구",
      "address": "서울특별시 종로구 관훈동",
      "roadAddress": "서울특별시 종로구",
      "lat": 37.5724013,
      "lng": 126.9849827,
      "phone": "",
      "dong": "종로"
    },
    {
      "naverPlaceId": "35823841",
      "name": "청계 노상 공영 주차장",
      "address": "서울특별시 종로구 장사동 236-1",
      "roadAddress": "",
      "lat": 37.5692141,
      "lng": 126.9923677,
      "phone": "",
      "dong": "종로"
    },
    {
      "naverPlaceId": "18672613",
      "name": "종로세운상가밑공영주차장",
      "address": "서울특별시 종로구 장사동 116-4",
      "roadAddress": "서울특별시 종로구 청계천로 159",
      "lat": 37.5689735,
      "lng": 126.995372,
      "phone": "02-2236-0053",
      "dong": "종로"
    },
    {
      "naverPlaceId": "35823840",
      "name": "청계3가  노상 공영 주차장",
      "address": "서울특별시 종로구 장사동 112-15",
      "roadAddress": "",
      "lat": 37.5687409,
      "lng": 126.9949903,
      "phone": "",
      "dong": "종로"
    },
    {
      "naverPlaceId": "1426273300",
      "name": "세운상가밑 공영주차장",
      "address": "서울특별시 종로구 장사동 116-4 노상 세운상가밑 공영주차장",
      "roadAddress": "서울특별시 종로구 청계천로 159 (장사동) 노상 세운상가밑 공영주차장",
      "lat": 37.5692839,
      "lng": 126.9952397,
      "phone": "",
      "dong": "종로"
    },
    {
      "naverPlaceId": "35992858",
      "name": "창일공영주차장",
      "address": "서울특별시 종로구 창신동 82 창일공영주차장",
      "roadAddress": "서울특별시 종로구 지봉로5길 20 창일공영주차장",
      "lat": 37.5748929,
      "lng": 127.0150551,
      "phone": "",
      "dong": "종로"
    },
    {
      "naverPlaceId": "35824198",
      "name": "종로구민회관주차장",
      "address": "서울특별시 종로구 창신동 222-8",
      "roadAddress": "서울특별시 종로구 지봉로5길 7-5",
      "lat": 37.5734803,
      "lng": 127.0143406,
      "phone": "",
      "dong": "종로"
    },
    {
      "naverPlaceId": "21186041",
      "name": "낙산거주자우선주차장",
      "address": "서울특별시 종로구 창신동 23-343",
      "roadAddress": "",
      "lat": 37.5774383,
      "lng": 127.0122552,
      "phone": "",
      "dong": "종로"
    },
    {
      "naverPlaceId": "18679307",
      "name": "창신고개공영주차장(방문주차불가)",
      "address": "서울특별시 종로구 창신동 23-341",
      "roadAddress": "",
      "lat": 37.577699,
      "lng": 127.0133426,
      "phone": "",
      "dong": "종로"
    },
    {
      "naverPlaceId": "1235685623",
      "name": "창신3동 주민센터 주차장",
      "address": "서울특별시 종로구 창신동 23-816",
      "roadAddress": "서울특별시 종로구 지봉로 87",
      "lat": 37.5778772,
      "lng": 127.0150482,
      "phone": "",
      "dong": "종로"
    },
    {
      "naverPlaceId": "1290686904",
      "name": "창신1동 주민센터 주차장",
      "address": "서울특별시 종로구 창신동 401-3",
      "roadAddress": "서울특별시 종로구 지봉로4길 8-9",
      "lat": 37.5707464,
      "lng": 127.0163525,
      "phone": "",
      "dong": "종로"
    },
    {
      "naverPlaceId": "1546146926",
      "name": "창삼주차장",
      "address": "서울특별시 종로구 창신동 23-346",
      "roadAddress": "",
      "lat": 37.5764282,
      "lng": 127.0124436,
      "phone": "",
      "dong": "종로"
    },
    {
      "naverPlaceId": "21186039",
      "name": "창신3동거주자우선주차장",
      "address": "서울특별시 종로구 창신동 23-348",
      "roadAddress": "",
      "lat": 37.5760328,
      "lng": 127.0124262,
      "phone": "",
      "dong": "종로"
    },
    {
      "naverPlaceId": "1018369986",
      "name": "창신소담공영주차장 전기차충전소",
      "address": "서울특별시 종로구 창신동",
      "roadAddress": "서울특별시 종로구",
      "lat": 37.5754921,
      "lng": 127.0101502,
      "phone": "1522-2573",
      "dong": "종로"
    },
    {
      "naverPlaceId": "1375672962",
      "name": "종로구 창일 공영주차장 전기차충전소",
      "address": "서울특별시 종로구 창신동 82",
      "roadAddress": "서울특별시 종로구 지봉로5길 20",
      "lat": 37.5748755,
      "lng": 127.0150569,
      "phone": "1833-9131",
      "dong": "종로"
    },
    {
      "naverPlaceId": "2145326225",
      "name": "창신소담공영주차장입구",
      "address": "서울특별시 종로구 창신동",
      "roadAddress": "서울특별시 종로구",
      "lat": 37.5754094,
      "lng": 127.0105646,
      "phone": "",
      "dong": "종로"
    },
    {
      "naverPlaceId": "1395224308",
      "name": "창신3동거주자우선주차장입출구",
      "address": "서울특별시 종로구 창신동",
      "roadAddress": "",
      "lat": 37.5759551,
      "lng": 127.012654,
      "phone": "",
      "dong": "종로"
    },
    {
      "naverPlaceId": "1663522163",
      "name": "창일공영주차장입출구",
      "address": "서울특별시 종로구 창신동",
      "roadAddress": "서울특별시 종로구",
      "lat": 37.5749006,
      "lng": 127.0148609,
      "phone": "",
      "dong": "종로"
    },
    {
      "naverPlaceId": "1793362015",
      "name": "종로구 창삼 공영주차장 전기차충전소",
      "address": "서울특별시 종로구 창신동 23-346",
      "roadAddress": "",
      "lat": 37.576349,
      "lng": 127.0125261,
      "phone": "1833-9131",
      "dong": "종로"
    },
    {
      "naverPlaceId": "2143946654",
      "name": "창일공영주차장입구",
      "address": "서울특별시 종로구 창신동",
      "roadAddress": "서울특별시 종로구",
      "lat": 37.575026,
      "lng": 127.0151598,
      "phone": "",
      "dong": "종로"
    },
    {
      "naverPlaceId": "2034161631",
      "name": "창신소담도서관",
      "address": "서울특별시 종로구 창신동 641 1층",
      "roadAddress": "서울특별시 종로구 창신길 83 1층",
      "lat": 37.5753396,
      "lng": 127.0102219,
      "phone": "02-3672-0234",
      "dong": "종로"
    },
    {
      "naverPlaceId": "1161382636",
      "name": "평창동 노상 공영 주차장",
      "address": "서울특별시 종로구 평창동 114-3",
      "roadAddress": "",
      "lat": 37.6114942,
      "lng": 126.9776034,
      "phone": "",
      "dong": "종로"
    },
    {
      "naverPlaceId": "453326296",
      "name": "구기동 공영 주차장",
      "address": "서울특별시 종로구 구기동 139-9",
      "roadAddress": "",
      "lat": 37.6121861,
      "lng": 126.9565422,
      "phone": "",
      "dong": "종로"
    },
    {
      "naverPlaceId": "1505248313",
      "name": "평창빛들공영주차장(방문주차불가)",
      "address": "서울특별시 종로구 평창동 260-4",
      "roadAddress": "",
      "lat": 37.6028597,
      "lng": 126.9680864,
      "phone": "",
      "dong": "종로"
    },
    {
      "naverPlaceId": "1461338220",
      "name": "평창해누리주차장(방문주차불가)",
      "address": "서울특별시 종로구 평창동 462-3",
      "roadAddress": "",
      "lat": 37.612558,
      "lng": 126.9748225,
      "phone": "",
      "dong": "종로"
    },
    {
      "naverPlaceId": "18683593",
      "name": "비봉 공영 주차장입구",
      "address": "서울특별시 종로구 구기동",
      "roadAddress": "",
      "lat": 37.6118063,
      "lng": 126.9565291,
      "phone": "",
      "dong": "종로"
    },
    {
      "naverPlaceId": "1694358926",
      "name": "명륜와룡공영주차장 개방화장실",
      "address": "서울특별시 종로구 명륜3가 1-21",
      "roadAddress": "서울특별시 종로구 명륜길 26",
      "lat": 37.5886646,
      "lng": 126.9954012,
      "phone": "",
      "dong": "종로"
    },
    {
      "naverPlaceId": "1622529014",
      "name": "종로구 명륜1가 공영주차장 전기차충전소",
      "address": "서울특별시 종로구 명륜1가 10-27",
      "roadAddress": "서울특별시 종로구 성균관로 59",
      "lat": 37.5879477,
      "lng": 126.9966408,
      "phone": "1833-9131",
      "dong": "종로"
    },
    {
      "naverPlaceId": "1079454282",
      "name": "선비재공영주차장(방문주차불가)입구",
      "address": "서울특별시 종로구 명륜1가",
      "roadAddress": "",
      "lat": 37.5888887,
      "lng": 126.9965602,
      "phone": "",
      "dong": "종로"
    },
    {
      "naverPlaceId": "1859694593",
      "name": "명륜1가공영주차장입출구",
      "address": "서울특별시 종로구 명륜1가",
      "roadAddress": "",
      "lat": 37.5898907,
      "lng": 126.9977882,
      "phone": "",
      "dong": "종로"
    },
    {
      "naverPlaceId": "1429542373",
      "name": "서울 종로구 종묘공영주차장 전기차충전소",
      "address": "서울특별시 종로구 훈정동 2",
      "roadAddress": "서울특별시 종로구 종로 157",
      "lat": 37.571213,
      "lng": 126.9958357,
      "phone": "1600-4047",
      "dong": "종로"
    },
    {
      "naverPlaceId": "1457767137",
      "name": "종묘공영주차장 지하2~5층 대피소",
      "address": "서울특별시 종로구 훈정동 1-2",
      "roadAddress": "서울특별시 종로구 종로 157",
      "lat": 37.5709802,
      "lng": 126.9951311,
      "phone": "",
      "dong": "종로"
    },
    {
      "naverPlaceId": "1208470938",
      "name": "종묘 공영주차장 전기차충전소",
      "address": "서울특별시 종로구 훈정동 1-2",
      "roadAddress": "서울특별시 종로구 종로 157",
      "lat": 37.5731337,
      "lng": 126.9948635,
      "phone": "1533-0702",
      "dong": "종로"
    }
  ],
  "sido": "서울특별시",
  "sigungu": "종로구",
  "totalCount": 151,
  "source": "naver-map",
  "scrapedAt": "2026-02-10"
}