{
  "items": [
    {
      "naverPlaceId": "35940196",
      "name": "동대문공영주차장",
      "address": "서울특별시 중구 마장로 22",
      "roadAddress": "서울 중구 을지로45길 43 을지로119안전센터",
      "lat": 37.5669934,
      "lng": 127.0122524,
      "phone": "02-2254-4901",
      "dong": "신당동"
    },
    {
      "naverPlaceId": "1265755822",
      "name": "훈련원공원공영주차장",
      "address": "서울특별시 중구 을지로 227",
      "roadAddress": "서울 중구 을지로 227",
      "lat": 37.5675245,
      "lng": 127.0038188,
      "phone": "02-3405-4597",
      "dong": "을지로5가"
    },
    {
      "naverPlaceId": "36003357",
      "name": "묵정공원공영주차장",
      "address": "서울특별시 중구 퇴계로45길 32-12",
      "roadAddress": "서울 중구 퇴계로45길 32-12 묵정경노당",
      "lat": 37.5639325,
      "lng": 127.0003619,
      "phone": "02-2280-8370",
      "dong": "충무로5가"
    },
    {
      "naverPlaceId": "21185760",
      "name": "손기정체육공원공영주차장",
      "address": "서울특별시 중구 손기정로 101",
      "roadAddress": "서울 중구 손기정로 101-1 손기정공원",
      "lat": 37.555103,
      "lng": 126.9648637,
      "phone": "02-364-7003",
      "dong": "만리동2가"
    },
    {
      "naverPlaceId": "36994777",
      "name": "황학어린이공원 공영 주차장",
      "address": "서울특별시 중구 다산로48길 33",
      "roadAddress": "서울 중구 다산로48길 33",
      "lat": 37.5674988,
      "lng": 127.0180175,
      "phone": "02-2256-7004",
      "dong": "황학동"
    },
    {
      "naverPlaceId": "36003315",
      "name": "충현공영주차장",
      "address": "서울특별시 중구 동호로11나길 47",
      "roadAddress": "서울 중구 동호로11나길 47",
      "lat": 37.5521666,
      "lng": 127.0056624,
      "phone": "02-2280-8360",
      "dong": "신당동"
    },
    {
      "naverPlaceId": "18698249",
      "name": "장충공영주차장",
      "address": "서울특별시 중구 퇴계로50길 59",
      "roadAddress": "서울 중구 퇴계로50길 59 장충공영주차장",
      "lat": 37.559958,
      "lng": 127.00125,
      "phone": "02-2277-7004",
      "dong": "장충동2가"
    },
    {
      "naverPlaceId": "37668222",
      "name": "을지로 노상 공영 주차장",
      "address": "서울특별시 중구 을지로3가 282-8",
      "roadAddress": "서울 중구 을지로16길 23",
      "lat": 37.5666384,
      "lng": 126.9965563,
      "phone": "",
      "dong": "을지로3가"
    },
    {
      "naverPlaceId": "18119697",
      "name": "버티공영주차장",
      "address": "서울특별시 중구 동호로17길 270",
      "roadAddress": "서울 중구 동호로17길 270",
      "lat": 37.549075,
      "lng": 127.0063124,
      "phone": "02-2234-9747",
      "dong": "신당동"
    },
    {
      "naverPlaceId": "21185815",
      "name": "약수동공영주차장",
      "address": "서울특별시 중구 동호로8다길 22",
      "roadAddress": "서울 중구 동호로8다길 22 약수동 공영주차장",
      "lat": 37.5521852,
      "lng": 127.0133412,
      "phone": "02-2280-8360",
      "dong": "신당동"
    },
    {
      "naverPlaceId": "18707919",
      "name": "다산동공영주차장",
      "address": "서울특별시 중구 동호로15길 60",
      "roadAddress": "서울 중구 동호로15길 60 다산동공영주차장",
      "lat": 37.5545589,
      "lng": 127.0084672,
      "phone": "02-2238-3379",
      "dong": "신당동"
    },
    {
      "naverPlaceId": "35992948",
      "name": "동산공영주차장",
      "address": "서울특별시 중구 다산로24가길 23",
      "roadAddress": "서울 중구 다산로24가길 23 동산 공영 주차장",
      "lat": 37.5564038,
      "lng": 127.0158056,
      "phone": "02-2280-8360",
      "dong": "신당동"
    },
    {
      "naverPlaceId": "1946000541",
      "name": "신당동 공영주차장",
      "address": "서울특별시 중구 다산로33길 3",
      "roadAddress": "서울 중구 다산로33길 3",
      "lat": 37.5620189,
      "lng": 127.0144451,
      "phone": "02-2235-7003",
      "dong": "신당동"
    },
    {
      "naverPlaceId": "35830354",
      "name": "다산아트 공영 주차장",
      "address": "서울특별시 중구 동호로17길 173",
      "roadAddress": "서울 중구 동호로17길 173",
      "lat": 37.5516356,
      "lng": 127.0043569,
      "phone": "02-2231-4584",
      "dong": "신당동"
    },
    {
      "naverPlaceId": "36005584",
      "name": "중구구민회관 주차장",
      "address": "서울특별시 중구 을지로39길 40",
      "roadAddress": "서울 중구 을지로39길 40",
      "lat": 37.568554,
      "lng": 127.005908,
      "phone": "02-2265-7765",
      "dong": "을지로6가"
    },
    {
      "naverPlaceId": "18121577",
      "name": "청구공영주차장",
      "address": "서울특별시 중구 다산로 174",
      "roadAddress": "서울 중구 다산로 174 청구공영주차장",
      "lat": 37.5588734,
      "lng": 127.0134413,
      "phone": "02-2234-9773",
      "dong": "신당동"
    },
    {
      "naverPlaceId": "18694365",
      "name": "남산동공영주차장",
      "address": "서울특별시 중구 퇴계로20길 24",
      "roadAddress": "서울 중구 퇴계로20길 24",
      "lat": 37.5592434,
      "lng": 126.9856217,
      "phone": "02-755-7004",
      "dong": "남산동2가"
    },
    {
      "naverPlaceId": "1616894180",
      "name": "돈화문로 노상 공영 주차장",
      "address": "서울특별시 중구 을지로3가 296-24",
      "roadAddress": "서울 중구 을지로16길 38-1",
      "lat": 37.5650858,
      "lng": 126.9926681,
      "phone": "",
      "dong": "을지로3가"
    },
    {
      "naverPlaceId": "35977131",
      "name": "대림상가 노상 주차장",
      "address": "서울특별시 중구 을지로19길 38",
      "roadAddress": "서울 중구 을지로19길 38",
      "lat": 37.5675027,
      "lng": 126.9956819,
      "phone": "02-2280-8360",
      "dong": "산림동"
    },
    {
      "naverPlaceId": "1902222783",
      "name": "필동 공영 주차장",
      "address": "서울특별시 중구 필동로 55",
      "roadAddress": "서울 중구 필동로 55",
      "lat": 37.5566098,
      "lng": 126.9958963,
      "phone": "02-2280-8360",
      "dong": "필동3가"
    },
    {
      "naverPlaceId": "21185802",
      "name": "신당사거리공영주차장",
      "address": "서울특별시 중구 퇴계로 408",
      "roadAddress": "서울 중구 퇴계로 408",
      "lat": 37.5649995,
      "lng": 127.0170076,
      "phone": "02-2231-0445",
      "dong": "신당동"
    },
    {
      "naverPlaceId": "21185765",
      "name": "성곽공영주차장",
      "address": "서울특별시 중구 동호로17길 201",
      "roadAddress": "서울 중구 동호로17길 201",
      "lat": 37.5505211,
      "lng": 127.0048193,
      "phone": "02-2252-3369",
      "dong": "신당동"
    },
    {
      "naverPlaceId": "35823884",
      "name": "남산소파길식당 노상 공영 주차장",
      "address": "서울특별시 중구 퇴계로 26길 36",
      "roadAddress": "서울 중구 퇴계로26길 36",
      "lat": 37.5569519,
      "lng": 126.9858476,
      "phone": "02-2290-7227",
      "dong": "예장동"
    },
    {
      "naverPlaceId": "35823896",
      "name": "마른내길 노상 공영 주차장",
      "address": "서울특별시 중구 마른내로 59",
      "roadAddress": "서울 중구 마른내로 59",
      "lat": 37.5643204,
      "lng": 126.9952972,
      "phone": "",
      "dong": "인현동1가"
    },
    {
      "naverPlaceId": "36003282",
      "name": "남평화시장앞노상공영주차장",
      "address": "서울특별시 중구 세종대로 23",
      "roadAddress": "서울 중구 장충단로 282-10",
      "lat": 37.5691506,
      "lng": 127.0108681,
      "phone": "02-2280-8360",
      "dong": "남대문로5가"
    },
    {
      "naverPlaceId": "36771654",
      "name": "문화 공영 주차장",
      "address": "서울특별시 중구 동호로12길 29",
      "roadAddress": "서울 중구 동호로12길 29 문화공영주차장",
      "lat": 37.5565037,
      "lng": 127.0110309,
      "phone": "02-2252-5314",
      "dong": "신당동"
    },
    {
      "naverPlaceId": "1229573820",
      "name": "삼풍상가3구간 무인 주차장",
      "address": "서울특별시 중구 을지로 158",
      "roadAddress": "서울 중구 마른내로 71",
      "lat": 37.5660787,
      "lng": 126.9958263,
      "phone": "02-2280-8360",
      "dong": "을지로4가"
    },
    {
      "naverPlaceId": "21185944",
      "name": "서소문삼성생명뒤공영주차장",
      "address": "서울특별시 중구 세종대로 23",
      "roadAddress": "서울 중구 서소문동 서소문로12길 26-1 구두수선대214",
      "lat": 37.562148,
      "lng": 126.9745593,
      "phone": "02-310-9588",
      "dong": "남대문로5가"
    },
    {
      "naverPlaceId": "37758720",
      "name": "남산케이블카주차장",
      "address": "서울특별시 중구 소파로 83",
      "roadAddress": "서울 중구 소파로 83",
      "lat": 37.5564607,
      "lng": 126.9843001,
      "phone": "",
      "dong": "회현동1가"
    },
    {
      "naverPlaceId": "1546082834",
      "name": "배오개길 노상 공영 주차장",
      "address": "서울특별시 중구 창경궁로 33-1",
      "roadAddress": "서울 중구 창경궁로 33-1",
      "lat": 37.5654696,
      "lng": 126.9983022,
      "phone": "",
      "dong": "예관동"
    },
    {
      "naverPlaceId": "35823937",
      "name": "청계5가 노상 공영 주차장",
      "address": "서울특별시 중구 을지로6가 17-442",
      "roadAddress": "",
      "lat": 37.5695638,
      "lng": 127.0085314,
      "phone": "",
      "dong": "을지로6가"
    },
    {
      "naverPlaceId": "35823941",
      "name": "청계8가공단 노상 공영 주차장",
      "address": "서울특별시 중구 흥인동 167",
      "roadAddress": "서울 중구 다산로 296-1",
      "lat": 37.5698252,
      "lng": 127.0168184,
      "phone": "",
      "dong": "흥인동"
    },
    {
      "naverPlaceId": "36003276",
      "name": "뉴국제호텔앞노상공영주차장",
      "address": "서울특별시 중구 세종대로22길 12",
      "roadAddress": "서울 중구 세종대로22길 12",
      "lat": 37.5682148,
      "lng": 126.9780688,
      "phone": "02-2280-8360",
      "dong": "태평로1가"
    },
    {
      "naverPlaceId": "128241930",
      "name": "남산한옥마을공영주차장",
      "address": "서울특별시 중구 필동2가 83-1",
      "roadAddress": "",
      "lat": 37.5600653,
      "lng": 126.993283,
      "phone": "02-2275-6122",
      "dong": "필동2가"
    },
    {
      "naverPlaceId": "1442267620",
      "name": "맑은내길 노상 공영 주차장",
      "address": "서울특별시 중구 세종대로 23",
      "roadAddress": "서울 중구 칠패로 42",
      "lat": 37.5688355,
      "lng": 127.0122245,
      "phone": "02-2280-8360",
      "dong": "남대문로5가"
    },
    {
      "naverPlaceId": "36782096",
      "name": "서소문 올리브타워옆노상공영주차장",
      "address": "서울특별시 중구 세종대로9길 41",
      "roadAddress": "서울 중구 세종대로9길 41",
      "lat": 37.5616201,
      "lng": 126.9727557,
      "phone": "02-2280-8360",
      "dong": "서소문동"
    },
    {
      "naverPlaceId": "1516557871",
      "name": "다동공원 제4 공영 주차장",
      "address": "서울특별시 중구 을지로1길 48",
      "roadAddress": "서울 중구 을지로1길 48",
      "lat": 37.5682425,
      "lng": 126.9799467,
      "phone": "02-756-7008",
      "dong": "다동"
    },
    {
      "naverPlaceId": "208849305",
      "name": "마른내로 노상 공영 주차장",
      "address": "서울특별시 중구 마른내로 111",
      "roadAddress": "서울 중구 마른내로 113-1",
      "lat": 37.5644788,
      "lng": 127.0005905,
      "phone": "",
      "dong": "오장동"
    },
    {
      "naverPlaceId": "251470256",
      "name": "진양상가 인공도로 노상 공영 주차장",
      "address": "서울특별시 중구 세종대로 23",
      "roadAddress": "서울 중구 칠패로 42",
      "lat": 37.5636311,
      "lng": 126.9956141,
      "phone": "02-2280-8360",
      "dong": "남대문로5가"
    },
    {
      "naverPlaceId": "877462454",
      "name": "동국제강공영주차장",
      "address": "서울특별시 중구 남대문로10길 13",
      "roadAddress": "서울 중구 남대문로10길 13",
      "lat": 37.5673727,
      "lng": 126.9834724,
      "phone": "",
      "dong": "삼각동"
    },
    {
      "naverPlaceId": "35977680",
      "name": "남산파출소노상공영주차장",
      "address": "서울특별시 중구 회현동1가 147-32",
      "roadAddress": "서울 중구 남산공원길 649",
      "lat": 37.5548711,
      "lng": 126.981906,
      "phone": "",
      "dong": "회현동1가"
    },
    {
      "naverPlaceId": "37049457",
      "name": "이화여고앞노상공영주차장",
      "address": "서울특별시 중구 통일로4길 30",
      "roadAddress": "서울 중구 통일로4길 30",
      "lat": 37.5648513,
      "lng": 126.9686261,
      "phone": "02-2280-8360",
      "dong": "순화동"
    },
    {
      "naverPlaceId": "1282351832",
      "name": "새싹마을공영주차장",
      "address": "서울특별시 중구 동호로12길 97",
      "roadAddress": "서울 중구 동호로12길 97",
      "lat": 37.5594933,
      "lng": 127.0120779,
      "phone": "02-2280-8360",
      "dong": "신당동"
    },
    {
      "naverPlaceId": "36003280",
      "name": "코오롱빌딩옆노상공영주차장",
      "address": "서울특별시 중구 세종대로 23",
      "roadAddress": "서울 중구 세종대로 23",
      "lat": 37.5676333,
      "lng": 126.9784438,
      "phone": "02-2280-8360",
      "dong": "남대문로5가"
    },
    {
      "naverPlaceId": "35824150",
      "name": "남대문 화물조업 노상 공영 주차장",
      "address": "서울특별시 중구 남대문로 14",
      "roadAddress": "서울 중구 남대문로 18",
      "lat": 37.5608518,
      "lng": 126.9776733,
      "phone": "",
      "dong": "남대문로3가"
    },
    {
      "naverPlaceId": "36003275",
      "name": "해운센터앞노상공영주차장",
      "address": "서울특별시 중구 세종대로9길 68-1",
      "roadAddress": "서울 중구 서소문로 116",
      "lat": 37.5631575,
      "lng": 126.9807223,
      "phone": "02-2280-8360",
      "dong": "서소문동"
    },
    {
      "naverPlaceId": "1842537673",
      "name": "한국관광공사옆 노상 공영 주차장",
      "address": "서울특별시 중구 남대문로 11",
      "roadAddress": "서울 중구 남대문로 11",
      "lat": 37.5682685,
      "lng": 126.982077,
      "phone": "02-2280-8360",
      "dong": "남대문로4가"
    },
    {
      "naverPlaceId": "36782097",
      "name": "훈련원공원옆노상공영주차장",
      "address": "서울특별시 중구 을지로39길 41",
      "roadAddress": "서울 중구 을지로39길 41",
      "lat": 37.5675239,
      "lng": 127.0049445,
      "phone": "02-2280-8360",
      "dong": "을지로6가"
    },
    {
      "naverPlaceId": "35823887",
      "name": "다동쉼터  노상 공영 주차장",
      "address": "서울특별시 중구 다동길 11",
      "roadAddress": "서울 중구 다동길 11 태평로 파출소",
      "lat": 37.5679459,
      "lng": 126.9801171,
      "phone": "02-2280-8360",
      "dong": "다동"
    },
    {
      "naverPlaceId": "36003277",
      "name": "국제화재빌딩옆노상공영주차장",
      "address": "서울특별시 중구 소월로 16",
      "roadAddress": "서울 중구 소월로 16-2",
      "lat": 37.5581362,
      "lng": 126.9759702,
      "phone": "02-2280-8360",
      "dong": "남대문로5가"
    },
    {
      "naverPlaceId": "35824153",
      "name": "조선호텔앞 노상 공영 주차장",
      "address": "서울특별시 중구 남대문로7길 11",
      "roadAddress": "서울 중구 남대문로7길 33 소공빌딩",
      "lat": 37.5639529,
      "lng": 126.9800235,
      "phone": "02-2280-8360",
      "dong": "소공동"
    },
    {
      "naverPlaceId": "35940236",
      "name": "DDP주차장",
      "address": "서울특별시 중구 을지로7가 143 동대문디자인플라자",
      "roadAddress": "서울특별시 중구 을지로 281 동대문디자인플라자",
      "lat": 37.5662539,
      "lng": 127.0100825,
      "phone": "02-2153-0141",
      "dong": "을지로"
    },
    {
      "naverPlaceId": "18695458",
      "name": "중구청 주차장",
      "address": "서울특별시 중구 예관동 120-1",
      "roadAddress": "서울특별시 중구 창경궁로 17",
      "lat": 37.5641333,
      "lng": 126.9976374,
      "phone": "",
      "dong": "예관동"
    },
    {
      "naverPlaceId": "63382735",
      "name": "국립의료원 노상 공영 주차장",
      "address": "서울특별시 중구 을지로6가 18-224",
      "roadAddress": "",
      "lat": 37.5670241,
      "lng": 127.0061334,
      "phone": "",
      "dong": "을지로"
    },
    {
      "naverPlaceId": "21185979",
      "name": "공영주차장",
      "address": "서울특별시 중구 을지로7가",
      "roadAddress": "",
      "lat": 37.5655524,
      "lng": 127.0079311,
      "phone": "",
      "dong": "을지로"
    },
    {
      "naverPlaceId": "19885790",
      "name": "중구구민회관 공영주차장 개방화장실",
      "address": "서울특별시 중구 을지로6가 18-14",
      "roadAddress": "서울특별시 중구 을지로39길 40",
      "lat": 37.5684691,
      "lng": 127.005593,
      "phone": "02-2280-8384",
      "dong": "을지로"
    },
    {
      "naverPlaceId": "1169064706",
      "name": "삼풍상가 주차장",
      "address": "서울특별시 중구 인현동2가 39-13",
      "roadAddress": "",
      "lat": 37.5654346,
      "lng": 126.9959484,
      "phone": "",
      "dong": "인현동"
    },
    {
      "naverPlaceId": "1567423762",
      "name": "훈련원공원 노상공영주차장 전기차충전소",
      "address": "서울특별시 중구 을지로6가 1-43",
      "roadAddress": "",
      "lat": 37.5670783,
      "lng": 127.0046012,
      "phone": "02-2640-5199",
      "dong": "을지로"
    },
    {
      "naverPlaceId": "1680166243",
      "name": "쏘카 마른내길 노상 공영주차장",
      "address": "서울특별시 중구 예관동 52-23",
      "roadAddress": "서울특별시 중구 마른내로 85",
      "lat": 37.564371,
      "lng": 126.997564,
      "phone": "1661-8838",
      "dong": "예관동"
    },
    {
      "naverPlaceId": "18708594",
      "name": "성동공고공영주차장",
      "address": "서울특별시 중구 흥인동 1-1",
      "roadAddress": "서울특별시 중구 다산로 290",
      "lat": 37.5682833,
      "lng": 127.0169625,
      "phone": "",
      "dong": "흥인동"
    },
    {
      "naverPlaceId": "18692540",
      "name": "남산공원주차장",
      "address": "서울특별시 중구 회현동1가 100-266",
      "roadAddress": "",
      "lat": 37.5540715,
      "lng": 126.9810697,
      "phone": "",
      "dong": "회현동"
    },
    {
      "naverPlaceId": "35823885",
      "name": "소파길노상 공영주차장",
      "address": "서울특별시 중구 회현동1가 산1-19",
      "roadAddress": "서울특별시 중구 소파로 83",
      "lat": 37.5562591,
      "lng": 126.9840787,
      "phone": "",
      "dong": "회현동"
    },
    {
      "naverPlaceId": "1617417587",
      "name": "남산동 공영 주차장",
      "address": "서울특별시 중구 남산동2가 30-4",
      "roadAddress": "서울특별시 중구 퇴계로20길 24",
      "lat": 37.5592455,
      "lng": 126.9855535,
      "phone": "",
      "dong": "남산동"
    },
    {
      "naverPlaceId": "1567614172",
      "name": "남산동공영주차장입출구",
      "address": "서울특별시 중구 남산동2가",
      "roadAddress": "",
      "lat": 37.5591989,
      "lng": 126.98585,
      "phone": "",
      "dong": "남산동"
    },
    {
      "naverPlaceId": "1699954955",
      "name": "남산동공영주차장 개방화장실",
      "address": "서울특별시 중구 남산동2가 30-4",
      "roadAddress": "서울특별시 중구 퇴계로20길 24",
      "lat": 37.5592351,
      "lng": 126.9856234,
      "phone": "02-2280-8384",
      "dong": "남산동"
    },
    {
      "naverPlaceId": "35977681",
      "name": "돈화문로노상공영주차장",
      "address": "서울특별시 중구 충무로3가 39-2",
      "roadAddress": "",
      "lat": 37.5622023,
      "lng": 126.9930534,
      "phone": "02-2272-8821",
      "dong": "충무로"
    },
    {
      "naverPlaceId": "1566842907",
      "name": "한국관광공사 옆 노상 공영주차장 전기차충전소",
      "address": "서울특별시 중구 다동 70",
      "roadAddress": "서울특별시 중구 다동길 43",
      "lat": 37.568226,
      "lng": 126.981962,
      "phone": "1899-2100",
      "dong": "다동"
    },
    {
      "naverPlaceId": "1628059366",
      "name": "손기정체육공원 공영주차장 개방화장실",
      "address": "서울특별시 중구 만리동2가 6-1",
      "roadAddress": "서울특별시 중구 손기정로 101",
      "lat": 37.5555621,
      "lng": 126.964818,
      "phone": "02-2280-8384",
      "dong": "만리동"
    },
    {
      "naverPlaceId": "18712048",
      "name": "손기정체육공원공영주차장입구",
      "address": "서울특별시 중구 만리동2가",
      "roadAddress": "",
      "lat": 37.554997,
      "lng": 126.9650771,
      "phone": "",
      "dong": "만리동"
    },
    {
      "naverPlaceId": "1798485675",
      "name": "서소문성지 역사박물관 공영 주차장",
      "address": "서울특별시 중구 의주로2가 16-4",
      "roadAddress": "서울특별시 중구 칠패로 5 ,",
      "lat": 37.5608362,
      "lng": 126.96871,
      "phone": "",
      "dong": "의주로"
    },
    {
      "naverPlaceId": "1052821379",
      "name": "서울시청 서소문청사 주차장",
      "address": "서울특별시 중구 서소문동 37",
      "roadAddress": "서울특별시 중구 덕수궁길 15",
      "lat": 37.564398,
      "lng": 126.9750914,
      "phone": "",
      "dong": "서소문동"
    },
    {
      "naverPlaceId": "1307599162",
      "name": "공영주차장",
      "address": "서울특별시 중구 서소문동 135",
      "roadAddress": "서울특별시 중구 서소문동 세종대로9길 41 퍼시픽타워",
      "lat": 37.5614828,
      "lng": 126.9726649,
      "phone": "",
      "dong": "서소문동"
    },
    {
      "naverPlaceId": "817566972",
      "name": "서울특별시공영주차장",
      "address": "서울특별시 중구 회현동1가 산1-16",
      "roadAddress": "서울특별시 중구 소파로 57",
      "lat": 37.5551789,
      "lng": 126.982779,
      "phone": "",
      "dong": "회현동"
    },
    {
      "naverPlaceId": "35823930",
      "name": "청계2가 노상 공영 주차장",
      "address": "서울특별시 중구 수표동 65-4",
      "roadAddress": "",
      "lat": 37.5680745,
      "lng": 126.9908516,
      "phone": "",
      "dong": "수표동"
    },
    {
      "naverPlaceId": "294655017",
      "name": "회현체육센터주차장",
      "address": "서울특별시 중구 회현동1가 115 중구회현체육센터",
      "roadAddress": "서울특별시 중구 퇴계로12길 78 중구회현체육센터",
      "lat": 37.556001,
      "lng": 126.9816242,
      "phone": "",
      "dong": "회현동"
    },
    {
      "naverPlaceId": "35977194",
      "name": "성동고 공영 주차장",
      "address": "서울특별시 중구 신당동 161",
      "roadAddress": "서울특별시 중구 퇴계로90길 17",
      "lat": 37.5647688,
      "lng": 127.0225172,
      "phone": "",
      "dong": "신당동"
    },
    {
      "naverPlaceId": "18703810",
      "name": "신당역공영주차장",
      "address": "서울특별시 중구 신당동 140-29",
      "roadAddress": "서울특별시 중구 다산로44길 67",
      "lat": 37.5653722,
      "lng": 127.0207608,
      "phone": "",
      "dong": "신당동"
    },
    {
      "naverPlaceId": "1841174197",
      "name": "동대문 공영 주차장",
      "address": "서울특별시 중구 신당동 251-7",
      "roadAddress": "서울특별시 중구 마장로 22",
      "lat": 37.5672669,
      "lng": 127.0121114,
      "phone": "",
      "dong": "신당동"
    },
    {
      "naverPlaceId": "1622639646",
      "name": "동화동 공영주차장",
      "address": "서울특별시 중구 신당동 52-7",
      "roadAddress": "",
      "lat": 37.5612615,
      "lng": 127.0192726,
      "phone": "02-2280-8360",
      "dong": "신당동"
    },
    {
      "naverPlaceId": "1308101997",
      "name": "장충공영주차장 개방화장실",
      "address": "서울특별시 중구 묵정동 22-35",
      "roadAddress": "서울특별시 중구 퇴계로50길 53-8",
      "lat": 37.5600061,
      "lng": 127.0011921,
      "phone": "02-2280-8384",
      "dong": "묵정동"
    },
    {
      "naverPlaceId": "35823939",
      "name": "청계5가 노상 공영 주차장",
      "address": "서울특별시 중구 방산동 5",
      "roadAddress": "",
      "lat": 37.569479,
      "lng": 127.0031405,
      "phone": "",
      "dong": "방산동"
    },
    {
      "naverPlaceId": "35823933",
      "name": "청계 노상 공영 주차장",
      "address": "서울특별시 중구 방산동 4-10 청계5가지하쇼핑센터",
      "roadAddress": "서울특별시 중구 동호로 384 청계5가지하쇼핑센터",
      "lat": 37.5689744,
      "lng": 127.0022308,
      "phone": "",
      "dong": "방산동"
    },
    {
      "naverPlaceId": "35823938",
      "name": "청계 노상 공영 주차장",
      "address": "서울특별시 중구 방산동 52-1",
      "roadAddress": "",
      "lat": 37.569502,
      "lng": 127.007307,
      "phone": "",
      "dong": "방산동"
    },
    {
      "naverPlaceId": "35823936",
      "name": "청계 노상 공영 주차장",
      "address": "서울특별시 중구 방산동 52-1",
      "roadAddress": "",
      "lat": 37.5694928,
      "lng": 127.0061084,
      "phone": "",
      "dong": "방산동"
    },
    {
      "naverPlaceId": "1637972114",
      "name": "청계5노상공영주차장 전기차충전소",
      "address": "서울특별시 중구 방산동 4-10",
      "roadAddress": "서울특별시 중구 동호로 384",
      "lat": 37.5687361,
      "lng": 127.0023063,
      "phone": "02-2640-5199",
      "dong": "방산동"
    },
    {
      "naverPlaceId": "1486954640",
      "name": "청계3 노상공영주차장(코리아몰 앞) 전기차충전소",
      "address": "서울특별시 중구 방산동 4-10",
      "roadAddress": "서울특별시 중구 동호로 384",
      "lat": 37.5688533,
      "lng": 127.0019554,
      "phone": "02-2640-5199",
      "dong": "방산동"
    },
    {
      "naverPlaceId": "1410439774",
      "name": "청계3 노상공영주차장(고려상사 앞) 전기차충전소",
      "address": "서울특별시 중구 방산동 91",
      "roadAddress": "",
      "lat": 37.5681911,
      "lng": 127.0020091,
      "phone": "02-2640-5199",
      "dong": "방산동"
    },
    {
      "naverPlaceId": "1045482928",
      "name": "동국제강공영주차장입구",
      "address": "서울특별시 중구 삼각동",
      "roadAddress": "",
      "lat": 37.5672199,
      "lng": 126.9834979,
      "phone": "",
      "dong": "삼각동"
    },
    {
      "naverPlaceId": "1084363725",
      "name": "서소문삼성생명뒤공영주차장입구",
      "address": "서울특별시 중구 서소문동",
      "roadAddress": "",
      "lat": 37.5622266,
      "lng": 126.9745097,
      "phone": "",
      "dong": "서소문동"
    },
    {
      "naverPlaceId": "1663757132",
      "name": "서소문삼성생명뒤공영주차장입구",
      "address": "서울특별시 중구 서소문동",
      "roadAddress": "",
      "lat": 37.5619804,
      "lng": 126.9745592,
      "phone": "",
      "dong": "서소문동"
    },
    {
      "naverPlaceId": "35992954",
      "name": "청계3노상공영주차장",
      "address": "서울특별시 중구 주교동 51-5",
      "roadAddress": "",
      "lat": 37.5688774,
      "lng": 126.9988796,
      "phone": "",
      "dong": "주교동"
    },
    {
      "naverPlaceId": "1118633232",
      "name": "훈련원공원 공영 주차장",
      "address": "서울특별시 중구 을지로5가 40-3",
      "roadAddress": "서울특별시 중구 을지로 227",
      "lat": 37.5669291,
      "lng": 127.0043893,
      "phone": "",
      "dong": "을지로"
    },
    {
      "naverPlaceId": "35823923",
      "name": "을지로노상공영주차장",
      "address": "서울특별시 중구 주교동 191",
      "roadAddress": "서울특별시 중구 창경궁로 51",
      "lat": 37.5667958,
      "lng": 127.0000802,
      "phone": "02-2290-6125",
      "dong": "주교동"
    },
    {
      "naverPlaceId": "35823934",
      "name": "청계4가 노상 공영 주차장",
      "address": "서울특별시 중구 주교동 51-3",
      "roadAddress": "",
      "lat": 37.5689957,
      "lng": 126.9994329,
      "phone": "",
      "dong": "주교동"
    },
    {
      "naverPlaceId": "35823935",
      "name": "청계3가 노상 공영 주차장",
      "address": "서울특별시 중구 입정동 29-1",
      "roadAddress": "",
      "lat": 37.5683288,
      "lng": 126.9941246,
      "phone": "",
      "dong": "입정동"
    },
    {
      "naverPlaceId": "1216183348",
      "name": "대훈파킹",
      "address": "서울특별시 중구 을지로4가 316-1 6층 602호",
      "roadAddress": "서울특별시 중구 을지로20길 10-4 6층 602호",
      "lat": 37.5660975,
      "lng": 126.9951544,
      "phone": "02-2274-2009",
      "dong": "을지로"
    },
    {
      "naverPlaceId": "35992953",
      "name": "청계2노상공영주차장",
      "address": "서울특별시 중구 입정동 254-2",
      "roadAddress": "",
      "lat": 37.5681516,
      "lng": 126.992088,
      "phone": "",
      "dong": "입정동"
    },
    {
      "naverPlaceId": "35823932",
      "name": "청계 노상 공영 주차장",
      "address": "서울특별시 중구 주교동 191 을지로4가역 5호선",
      "roadAddress": "서울특별시 중구 창경궁로 51 을지로4가역 5호선",
      "lat": 37.5679203,
      "lng": 126.9979836,
      "phone": "",
      "dong": "주교동"
    },
    {
      "naverPlaceId": "1526005919",
      "name": "쏘카 마른내길 공영주차장",
      "address": "서울특별시 중구 인현동1가 87-10",
      "roadAddress": "서울특별시 중구 마른내로 59",
      "lat": 37.564485,
      "lng": 126.994498,
      "phone": "1661-8838",
      "dong": "인현동"
    },
    {
      "naverPlaceId": "18698193",
      "name": "장충공영주차장입구",
      "address": "서울특별시 중구 장충동2가",
      "roadAddress": "",
      "lat": 37.5601044,
      "lng": 127.0009826,
      "phone": "",
      "dong": "장충동"
    },
    {
      "naverPlaceId": "1106909423",
      "name": "성곽공영주차장입구",
      "address": "서울특별시 중구 장충동2가",
      "roadAddress": "",
      "lat": 37.550667,
      "lng": 127.0046529,
      "phone": "",
      "dong": "장충동"
    },
    {
      "naverPlaceId": "1431077791",
      "name": "장충공영주차장입구",
      "address": "서울특별시 중구 장충동2가",
      "roadAddress": "",
      "lat": 37.5598691,
      "lng": 127.0013964,
      "phone": "",
      "dong": "장충동"
    },
    {
      "naverPlaceId": "1870068169",
      "name": "장충공영주차장 전기차충전소",
      "address": "서울특별시 중구 장충동2가 193-39 장충공영주차장",
      "roadAddress": "서울특별시 중구 퇴계로50길 59 장충공영주차장",
      "lat": 37.5599367,
      "lng": 127.0012501,
      "phone": "1588-5339",
      "dong": "장충동"
    },
    {
      "naverPlaceId": "1409810284",
      "name": "중림종합복지센터 주차장",
      "address": "서울특별시 중구 중림동 155-1",
      "roadAddress": "서울특별시 중구 서소문로6길 16",
      "lat": 37.5594302,
      "lng": 126.9662595,
      "phone": "",
      "dong": "중림동"
    },
    {
      "naverPlaceId": "1463012506",
      "name": "쏘카 중림종합복지센터 공영주차장",
      "address": "서울특별시 중구 중림동 155-1",
      "roadAddress": "서울특별시 중구 서소문로6길 16",
      "lat": 37.559639,
      "lng": 126.966278,
      "phone": "1661-8838",
      "dong": "중림동"
    },
    {
      "naverPlaceId": "18694582",
      "name": "공영주차장",
      "address": "서울특별시 중구 충무로4가",
      "roadAddress": "",
      "lat": 37.562731,
      "lng": 126.997597,
      "phone": "",
      "dong": "충무로"
    },
    {
      "naverPlaceId": "35824155",
      "name": "진양상가 옆 노상 공영 주차장",
      "address": "서울특별시 중구 충무로4가 120-11",
      "roadAddress": "",
      "lat": 37.562941,
      "lng": 126.9961056,
      "phone": "1661-5806",
      "dong": "충무로"
    },
    {
      "naverPlaceId": "1502290787",
      "name": "묵정공원공영주차장입구",
      "address": "서울특별시 중구 충무로5가",
      "roadAddress": "",
      "lat": 37.5639782,
      "lng": 127.0004114,
      "phone": "",
      "dong": "충무로"
    },
    {
      "naverPlaceId": "1812533233",
      "name": "묵정공원공영주차장 지하1~5층 대피소",
      "address": "서울특별시 중구 충무로5가 21",
      "roadAddress": "서울특별시 중구 퇴계로45길 32-12",
      "lat": 37.5636828,
      "lng": 126.9998036,
      "phone": "",
      "dong": "충무로"
    },
    {
      "naverPlaceId": "18051014",
      "name": "서울특별시중구시설관리공단 필동공영주차장",
      "address": "서울특별시 중구 필동3가 62-12",
      "roadAddress": "서울특별시 중구 필동로 55",
      "lat": 37.5565979,
      "lng": 126.9958844,
      "phone": "02-2264-0986",
      "dong": "필동"
    },
    {
      "naverPlaceId": "1222607836",
      "name": "필동공영주차장 개방화장실",
      "address": "서울특별시 중구 필동3가 62-12",
      "roadAddress": "서울특별시 중구 필동로 55",
      "lat": 37.5566069,
      "lng": 126.9958942,
      "phone": "02-2280-8384",
      "dong": "필동"
    },
    {
      "naverPlaceId": "1678731248",
      "name": "24시주차",
      "address": "서울특별시 중구 필동1가 10-9",
      "roadAddress": "서울특별시 중구 퇴계로27길 8",
      "lat": 37.5615183,
      "lng": 126.9918179,
      "phone": "0507-1448-1338",
      "dong": "필동"
    },
    {
      "naverPlaceId": "1337596706",
      "name": "황학어린이공원 공영 주차장입출구",
      "address": "서울특별시 중구 황학동",
      "roadAddress": "",
      "lat": 37.5677558,
      "lng": 127.018258,
      "phone": "",
      "dong": "황학동"
    },
    {
      "naverPlaceId": "1307579844",
      "name": "황학어린이공원 공영주차장 SK일렉링크 전기차충전소",
      "address": "서울특별시 중구 황학동 755",
      "roadAddress": "서울특별시 중구 다산로48길 33",
      "lat": 37.56734,
      "lng": 127.0181127,
      "phone": "1566-1704",
      "dong": "황학동"
    },
    {
      "naverPlaceId": "77757353",
      "name": "G car zone 황학어린이공원공영주차장(EV)",
      "address": "서울특별시 중구 황학동 755",
      "roadAddress": "서울특별시 중구 다산로48길 33",
      "lat": 37.5675316,
      "lng": 127.0181241,
      "phone": "1899-1313",
      "dong": "황학동"
    },
    {
      "naverPlaceId": "1194271093",
      "name": "황학어린이공원 공영주차장 스타코프 전기차충전소",
      "address": "서울특별시 중구 황학동 755",
      "roadAddress": "서울특별시 중구 다산로48길 33",
      "lat": 37.5674826,
      "lng": 127.0180128,
      "phone": "02-1833-4903",
      "dong": "황학동"
    },
    {
      "naverPlaceId": "1460033489",
      "name": "쏘카 황학어린이공원 공영주차장",
      "address": "서울특별시 중구 황학동 755",
      "roadAddress": "서울특별시 중구 다산로48길 33",
      "lat": 37.5675392,
      "lng": 127.0181378,
      "phone": "1661-8838",
      "dong": "황학동"
    },
    {
      "naverPlaceId": "1118898910",
      "name": "웰코주차장",
      "address": "서울특별시 중구 남창동 52-1",
      "roadAddress": "서울특별시 중구 남대문시장4길 32",
      "lat": 37.5587581,
      "lng": 126.9770468,
      "phone": "02-752-2276",
      "dong": "남창동"
    },
    {
      "naverPlaceId": "1054325806",
      "name": "남산파출소노상공영주차장출구",
      "address": "서울특별시 중구 회현동1가",
      "roadAddress": "서울특별시 중구",
      "lat": 37.5549848,
      "lng": 126.9815792,
      "phone": "",
      "dong": "회현동"
    },
    {
      "naverPlaceId": "1694718613",
      "name": "남산파출소노상공영주차장입구",
      "address": "서울특별시 중구 회현동1가",
      "roadAddress": "서울특별시 중구",
      "lat": 37.5547996,
      "lng": 126.9821131,
      "phone": "",
      "dong": "회현동"
    },
    {
      "naverPlaceId": "150372861",
      "name": "성동공고 주차장",
      "address": "서울특별시 중구 흥인동 1-1 성동기계공업고등학교",
      "roadAddress": "서울특별시 중구 다산로 290 성동기계공업고등학교",
      "lat": 37.5689061,
      "lng": 127.0172386,
      "phone": "1688-1054",
      "dong": "흥인동"
    },
    {
      "naverPlaceId": "1458382854",
      "name": "투루파킹 성동공고공영 주차장",
      "address": "서울특별시 중구 흥인동 1-1",
      "roadAddress": "서울특별시 중구 다산로 290",
      "lat": 37.5684289,
      "lng": 127.017309,
      "phone": "",
      "dong": "흥인동"
    },
    {
      "naverPlaceId": "1422586385",
      "name": "쏘카 성동공고 공영주차장",
      "address": "서울특별시 중구 흥인동 1-1 성동공업고등학교",
      "roadAddress": "서울특별시 중구 다산로 290 성동공업고등학교",
      "lat": 37.568298,
      "lng": 127.017052,
      "phone": "1661-8838",
      "dong": "흥인동"
    },
    {
      "naverPlaceId": "18708600",
      "name": "성동공고공영주차장입출구",
      "address": "서울특별시 중구 흥인동",
      "roadAddress": "",
      "lat": 37.568192,
      "lng": 127.016925,
      "phone": "",
      "dong": "흥인동"
    },
    {
      "naverPlaceId": "1089608605",
      "name": "청계8가 노상공영주차장 전기차충전소",
      "address": "서울특별시 중구 흥인동 167-4",
      "roadAddress": "",
      "lat": 37.5698926,
      "lng": 127.0171971,
      "phone": "02-2640-5199",
      "dong": "흥인동"
    },
    {
      "naverPlaceId": "1063240569",
      "name": "G car zone 성동공고 공영주차장",
      "address": "서울특별시 중구 흥인동 1-1",
      "roadAddress": "서울특별시 중구 다산로 290",
      "lat": 37.5682597,
      "lng": 127.0169732,
      "phone": "1899-1313",
      "dong": "흥인동"
    }
  ],
  "sido": "서울특별시",
  "sigungu": "중구",
  "totalCount": 126,
  "source": "naver-map",
  "scrapedAt": "2026-02-10"
}