{
  "items": [
    {
      "naverPlaceId": "1677901901",
      "name": "면목유수지공영주차장",
      "address": "서울특별시 중랑구 면목동 168-2",
      "roadAddress": "서울특별시 중랑구 사가정로 332",
      "lat": 37.5812006,
      "lng": 127.0803952,
      "dong": "면목동",
      "tel": ""
    },
    {
      "naverPlaceId": "2146344947",
      "name": "중화1동공영주차장",
      "address": "서울특별시 중랑구 중화동 29-2",
      "roadAddress": "서울특별시 중랑구 동일로136길 33",
      "lat": 37.6027172,
      "lng": 127.0815896,
      "dong": "중화동",
      "tel": ""
    },
    {
      "naverPlaceId": "18181765",
      "name": "면목2동공영주차장",
      "address": "서울특별시 중랑구 면목동 146-1 면목2동 공동주차장",
      "roadAddress": "서울특별시 중랑구 겸재로23길 27 면목2동 공동주차장",
      "lat": 37.5879356,
      "lng": 127.080922,
      "dong": "면목동",
      "tel": "02-438-7210"
    },
    {
      "naverPlaceId": "1147278170",
      "name": "쏘카 중곡초교 공영주차장",
      "address": "서울특별시 중랑구 면목동 380",
      "roadAddress": "서울특별시 중랑구 면목로23길 20",
      "lat": 37.574926,
      "lng": 127.083601,
      "dong": "면목동",
      "tel": "1661-8838"
    },
    {
      "naverPlaceId": "35957700",
      "name": "동부시장공영주차장",
      "address": "서울특별시 중랑구 면목동 183-14",
      "roadAddress": "서울특별시 중랑구 동일로109길 35",
      "lat": 37.5914242,
      "lng": 127.0782279,
      "dong": "면목동",
      "tel": "02-491-3820"
    },
    {
      "naverPlaceId": "21186005",
      "name": "용마폭포공원 공영주차장",
      "address": "서울특별시 중랑구 면목동 산1-4 용마폭포공원관리사무소",
      "roadAddress": "서울특별시 중랑구 용마산로 250-12 용마폭포공원관리사무소",
      "lat": 37.5747026,
      "lng": 127.0893854,
      "dong": "면목동",
      "tel": "02-491-4831"
    },
    {
      "naverPlaceId": "1072721051",
      "name": "봉화산역공영주차장",
      "address": "서울특별시 중랑구 신내동 640",
      "roadAddress": "서울특별시 중랑구 신내로 208",
      "lat": 37.6171542,
      "lng": 127.0926401,
      "dong": "신내동",
      "tel": ""
    },
    {
      "naverPlaceId": "18870072",
      "name": "은행나무공영주차장",
      "address": "서울특별시 중랑구 면목동 107-5",
      "roadAddress": "서울특별시 중랑구 겸재로54가길 4",
      "lat": 37.5870598,
      "lng": 127.091585,
      "dong": "면목동",
      "tel": "02-439-2861"
    },
    {
      "naverPlaceId": "1339878727",
      "name": "망우본동 공영 주차장",
      "address": "서울특별시 중랑구 망우동 463-8",
      "roadAddress": "",
      "lat": 37.596522,
      "lng": 127.0981632,
      "dong": "망우동",
      "tel": ""
    },
    {
      "naverPlaceId": "21185865",
      "name": "까치공원공영주차장",
      "address": "서울특별시 중랑구 면목동 570 까치어린이공원",
      "roadAddress": "서울특별시 중랑구 사가정로49길 56 까치어린이공원",
      "lat": 37.5835978,
      "lng": 127.0877175,
      "dong": "면목동",
      "tel": ""
    },
    {
      "naverPlaceId": "21185561",
      "name": "봉화산역(남)환승공영주차장",
      "address": "서울특별시 중랑구 신내동 647",
      "roadAddress": "",
      "lat": 37.6163571,
      "lng": 127.0920624,
      "dong": "신내동",
      "tel": ""
    },
    {
      "naverPlaceId": "1210709043",
      "name": "면일초등학교 공영 주차장입출구",
      "address": "서울특별시 중랑구 망우동",
      "roadAddress": "",
      "lat": 37.591485,
      "lng": 127.0990193,
      "dong": "망우동",
      "tel": ""
    },
    {
      "naverPlaceId": "380784008",
      "name": "중랑초교공영주차장",
      "address": "서울특별시 중랑구 면목동 192-1",
      "roadAddress": "서울특별시 중랑구 봉우재로6길 26",
      "lat": 37.5891454,
      "lng": 127.0762909,
      "dong": "면목동",
      "tel": "02-496-7604"
    },
    {
      "naverPlaceId": "1017914905",
      "name": "늘봄 공영주차장 개방화장실",
      "address": "서울특별시 중랑구 면목동 22-12",
      "roadAddress": "서울특별시 중랑구 겸재로64길 9",
      "lat": 37.5898419,
      "lng": 127.0964116,
      "dong": "면목동",
      "tel": "02-438-7209"
    },
    {
      "naverPlaceId": "21185863",
      "name": "면목5동공영주차장",
      "address": "서울특별시 중랑구 면목동 172-93 594, 면목5동공영주차장",
      "roadAddress": "서울특별시 중랑구 동일로 593 594, 면목5동공영주차장",
      "lat": 37.5833512,
      "lng": 127.080136,
      "dong": "면목동",
      "tel": "02-438-7210"
    },
    {
      "naverPlaceId": "1955212868",
      "name": "망우3동공영주차장",
      "address": "서울특별시 중랑구 망우동 529-2 성은교회",
      "roadAddress": "서울특별시 중랑구 겸재로61길 40 성은교회",
      "lat": 37.5918834,
      "lng": 127.094897,
      "dong": "망우동",
      "tel": ""
    },
    {
      "naverPlaceId": "36005568",
      "name": "우림시장노상공영주차장",
      "address": "서울특별시 중랑구 망우동 536-11",
      "roadAddress": "",
      "lat": 37.5959975,
      "lng": 127.0995331,
      "dong": "망우동",
      "tel": ""
    },
    {
      "naverPlaceId": "1658759282",
      "name": "동원시장 공영주차장",
      "address": "서울특별시 중랑구 면목동 74-33",
      "roadAddress": "",
      "lat": 37.5898903,
      "lng": 127.0931158,
      "dong": "면목동",
      "tel": ""
    },
    {
      "naverPlaceId": "18892255",
      "name": "봉수대공원공영주차장",
      "address": "서울특별시 중랑구 상봉동 12-2",
      "roadAddress": "서울특별시 중랑구 봉화산로45길 67",
      "lat": 37.6067138,
      "lng": 127.0915706,
      "dong": "상봉동",
      "tel": "02-438-8271"
    },
    {
      "naverPlaceId": "1445315164",
      "name": "면목시장 공영 주차장",
      "address": "서울특별시 중랑구 면목동 666-17",
      "roadAddress": "",
      "lat": 37.5776477,
      "lng": 127.0842566,
      "dong": "면목동",
      "tel": ""
    },
    {
      "naverPlaceId": "18875481",
      "name": "중곡초등학교공영 주차장",
      "address": "서울특별시 중랑구 면목동 380 중곡초등학교",
      "roadAddress": "서울특별시 중랑구 면목로23길 20 중곡초등학교",
      "lat": 37.57485,
      "lng": 127.083488,
      "phone": "02-432-9775",
      "dong": "면목동"
    },
    {
      "naverPlaceId": "21186027",
      "name": "늘봄공원 공영 주차장",
      "address": "서울특별시 중랑구 면목동 22-12 면목8동공영주차장",
      "roadAddress": "서울특별시 중랑구 겸재로64길 9 면목8동공영주차장",
      "lat": 37.5898508,
      "lng": 127.0963593,
      "phone": "02-437-1987",
      "dong": "면목동"
    },
    {
      "naverPlaceId": "918656271",
      "name": "공영 주차장",
      "address": "서울특별시 중랑구 면목동 49-12",
      "roadAddress": "",
      "lat": 37.5896516,
      "lng": 127.0928276,
      "phone": "",
      "dong": "면목동"
    },
    {
      "naverPlaceId": "36003318",
      "name": "동원골목시장주차장",
      "address": "서울특별시 중랑구 면목동 74-33",
      "roadAddress": "",
      "lat": 37.5898974,
      "lng": 127.0931516,
      "phone": "",
      "dong": "면목동"
    },
    {
      "naverPlaceId": "1932918735",
      "name": "면목2동공영주차장",
      "address": "서울특별시 중랑구 면목동 146-1 2층",
      "roadAddress": "서울특별시 중랑구 겸재로23길 27 2층",
      "lat": 37.5879367,
      "lng": 127.0809139,
      "phone": "",
      "dong": "면목동"
    },
    {
      "naverPlaceId": "1750962497",
      "name": "면목2동공영주차장,체육관 개방화장실",
      "address": "서울특별시 중랑구 면목동 146-1",
      "roadAddress": "서울특별시 중랑구 겸재로23길 27",
      "lat": 37.5879327,
      "lng": 127.0808769,
      "phone": "02-495-5200",
      "dong": "면목동"
    },
    {
      "naverPlaceId": "1226301549",
      "name": "까치공영주차장(지하 1층) 대피소",
      "address": "서울특별시 중랑구 면목동 570",
      "roadAddress": "서울특별시 중랑구 사가정로49길 56",
      "lat": 37.5834559,
      "lng": 127.0869487,
      "phone": "",
      "dong": "면목동"
    },
    {
      "naverPlaceId": "1354298532",
      "name": "중랑동부시장 공영주차장 전기차충전소",
      "address": "서울특별시 중랑구 면목동 183-14",
      "roadAddress": "서울특별시 중랑구 동일로109길 35",
      "lat": 37.59146,
      "lng": 127.078196,
      "phone": "1522-2573",
      "dong": "면목동"
    },
    {
      "naverPlaceId": "1355612989",
      "name": "까치공원공영주차장입출구",
      "address": "서울특별시 중랑구 면목동",
      "roadAddress": "",
      "lat": 37.5835823,
      "lng": 127.0877307,
      "phone": "",
      "dong": "면목동"
    },
    {
      "naverPlaceId": "36061310",
      "name": "구립정보도서관 공영 주차장",
      "address": "서울특별시 중랑구 묵1동 22",
      "roadAddress": "서울특별시 중랑구 신내로15길 197",
      "lat": 37.6151617,
      "lng": 127.0869212,
      "phone": "",
      "dong": ""
    },
    {
      "naverPlaceId": "1330924191",
      "name": "미도",
      "address": "서울특별시 중랑구 묵동 235-97",
      "roadAddress": "서울특별시 중랑구 중랑역로 237 (묵동) 주차장",
      "lat": 37.6146656,
      "lng": 127.0751267,
      "phone": "",
      "dong": "묵동"
    },
    {
      "naverPlaceId": "1762975778",
      "name": "택시조합 앞 노상 공영주차장 전기차충전소",
      "address": "서울특별시 중랑구 묵동 121-19",
      "roadAddress": "",
      "lat": 37.6132553,
      "lng": 127.0815704,
      "phone": "1566-1704",
      "dong": "묵동"
    },
    {
      "naverPlaceId": "11629767",
      "name": "중랑구시설관리공단",
      "address": "서울특별시 중랑구 묵동 22 중랑구립정보도서관 4층 경영기획부",
      "roadAddress": "서울특별시 중랑구 신내로15길 197 중랑구립정보도서관 4층 경영기획부",
      "lat": 37.6153161,
      "lng": 127.0869596,
      "phone": "1522-0659",
      "dong": "묵동"
    },
    {
      "naverPlaceId": "1205614465",
      "name": "중화제3공영주차장",
      "address": "서울특별시 중랑구 중화동 73-3",
      "roadAddress": "",
      "lat": 37.5965411,
      "lng": 127.0768268,
      "phone": "",
      "dong": "중화동"
    },
    {
      "naverPlaceId": "35957709",
      "name": "중랑역제1공영주차장",
      "address": "서울특별시 중랑구 중화동 73-7 중랑역사",
      "roadAddress": "서울특별시 중랑구 중랑역로 9 중랑역사",
      "lat": 37.5953998,
      "lng": 127.0784587,
      "phone": "02-491-7796",
      "dong": "중화동"
    },
    {
      "naverPlaceId": "1088876193",
      "name": "중화제2공영주차장",
      "address": "서울특별시 중랑구 중화동 73-4",
      "roadAddress": "",
      "lat": 37.5973852,
      "lng": 127.0750602,
      "phone": "",
      "dong": "중화동"
    },
    {
      "naverPlaceId": "1846254996",
      "name": "중화제1공영주차장",
      "address": "서울특별시 중랑구 중화동 73-5",
      "roadAddress": "",
      "lat": 37.5983004,
      "lng": 127.0734342,
      "phone": "02-438-7210",
      "dong": "중화동"
    },
    {
      "naverPlaceId": "1828280080",
      "name": "맛솜씨공영주차장",
      "address": "서울특별시 중랑구 망우동 491-29",
      "roadAddress": "서울특별시 중랑구 용마산로115길 77-5",
      "lat": 37.5979276,
      "lng": 127.0961419,
      "phone": "",
      "dong": "망우동"
    },
    {
      "naverPlaceId": "36003285",
      "name": "면일초등학교 공영 주차장",
      "address": "서울특별시 중랑구 망우동 440 면일초등학교",
      "roadAddress": "서울특별시 중랑구 용마산로100길 13 면일초등학교",
      "lat": 37.5914719,
      "lng": 127.0991774,
      "phone": "",
      "dong": "망우동"
    },
    {
      "naverPlaceId": "1436818167",
      "name": "중랑역제2공영주차장",
      "address": "서울특별시 중랑구 중화동 73-7 중랑역사",
      "roadAddress": "서울특별시 중랑구 중랑역로 9 중랑역사",
      "lat": 37.594498,
      "lng": 127.0742028,
      "phone": "",
      "dong": "중화동"
    },
    {
      "naverPlaceId": "1034939219",
      "name": "봉화산역 공영 주차장",
      "address": "서울특별시 중랑구 신내동 643-1",
      "roadAddress": "서울특별시 중랑구 신내로 232",
      "lat": 37.6170248,
      "lng": 127.092394,
      "phone": "",
      "dong": "신내동"
    },
    {
      "naverPlaceId": "1098228113",
      "name": "서울의료원공영주차장",
      "address": "서울특별시 중랑구 신내동 316",
      "roadAddress": "서울특별시 중랑구 신내로 156",
      "lat": 37.6132762,
      "lng": 127.0978309,
      "phone": "",
      "dong": "신내동"
    },
    {
      "naverPlaceId": "446320485",
      "name": "관상복합청사 주차장",
      "address": "서울특별시 중랑구 신내2동 665",
      "roadAddress": "서울특별시 중랑구 봉화산로 190",
      "lat": 37.6061914,
      "lng": 127.0941537,
      "phone": "",
      "dong": ""
    },
    {
      "naverPlaceId": "164397068",
      "name": "거주자우선주차장",
      "address": "서울특별시 중랑구 신내동 643-1 봉화산역",
      "roadAddress": "서울특별시 중랑구 신내로 232 봉화산역",
      "lat": 37.6169056,
      "lng": 127.0920763,
      "phone": "",
      "dong": "신내동"
    },
    {
      "naverPlaceId": "1815273865",
      "name": "봉화산역 공영주차장 개방화장실",
      "address": "서울특별시 중랑구 신내동 640",
      "roadAddress": "서울특별시 중랑구 신내로 208",
      "lat": 37.616895,
      "lng": 127.0932329,
      "phone": "02-438-7209",
      "dong": "신내동"
    },
    {
      "naverPlaceId": "1778570914",
      "name": "봉화산역 남 환승공영주차장 전기차충전소",
      "address": "서울특별시 중랑구 신내동 647",
      "roadAddress": "",
      "lat": 37.6163584,
      "lng": 127.091864,
      "phone": "02-2640-5199",
      "dong": "신내동"
    },
    {
      "naverPlaceId": "1260204063",
      "name": "봉화산역 공영주차장(지하 1층) 대피소",
      "address": "서울특별시 중랑구 신내동 640",
      "roadAddress": "서울특별시 중랑구 신내로 208",
      "lat": 37.6168802,
      "lng": 127.0934463,
      "phone": "",
      "dong": "신내동"
    },
    {
      "naverPlaceId": "1576111827",
      "name": "중랑구 봉화산역 공영주차장 전기차충전소",
      "address": "서울특별시 중랑구 신내동 640",
      "roadAddress": "서울특별시 중랑구 신내로 208",
      "lat": 37.6170335,
      "lng": 127.0927031,
      "phone": "1833-9131",
      "dong": "신내동"
    },
    {
      "naverPlaceId": "1432405563",
      "name": "쏘카 봉화산역(남) 공영주차장",
      "address": "서울특별시 중랑구 신내동 647",
      "roadAddress": "",
      "lat": 37.616383,
      "lng": 127.091942,
      "phone": "1661-8838",
      "dong": "신내동"
    },
    {
      "naverPlaceId": "1368251063",
      "name": "피플카 봉화산역 3번출구(봉화산역 공영주차장)",
      "address": "서울특별시 중랑구 신내동 647",
      "roadAddress": "",
      "lat": 37.6164283,
      "lng": 127.0919681,
      "phone": "",
      "dong": "신내동"
    },
    {
      "naverPlaceId": "1713424607",
      "name": "쏘카 봉화산역 공영주차장",
      "address": "서울특별시 중랑구 신내동 640",
      "roadAddress": "서울특별시 중랑구 신내로 208",
      "lat": 37.617,
      "lng": 127.092918,
      "phone": "1661-8838",
      "dong": "신내동"
    },
    {
      "naverPlaceId": "1073355945",
      "name": "봉화산역공영주차장입출구",
      "address": "서울특별시 중랑구 신내동",
      "roadAddress": "",
      "lat": 37.6170374,
      "lng": 127.0924189,
      "phone": "",
      "dong": "신내동"
    },
    {
      "naverPlaceId": "18891047",
      "name": "봉화산역(남)환승공영주차장입구",
      "address": "서울특별시 중랑구 신내동",
      "roadAddress": "",
      "lat": 37.6163357,
      "lng": 127.09189,
      "phone": "",
      "dong": "신내동"
    },
    {
      "naverPlaceId": "37112788",
      "name": "G car zone 봉화산역 3번출구",
      "address": "서울특별시 중랑구 신내동 647",
      "roadAddress": "",
      "lat": 37.6164223,
      "lng": 127.0919536,
      "phone": "1899-1313",
      "dong": "신내동"
    },
    {
      "naverPlaceId": "1100276782",
      "name": "중화2동공원지하공영주차장",
      "address": "서울특별시 중랑구 중화동 311-15",
      "roadAddress": "",
      "lat": 37.6022186,
      "lng": 127.077349,
      "phone": "",
      "dong": "중화동"
    },
    {
      "naverPlaceId": "1166458973",
      "name": "중화제4공영주차장",
      "address": "서울특별시 중랑구 중화동 73-7 중랑역사",
      "roadAddress": "서울특별시 중랑구 중랑역로 9 중랑역사",
      "lat": 37.5960705,
      "lng": 127.0784636,
      "phone": "02-438-7210",
      "dong": "중화동"
    },
    {
      "naverPlaceId": "36003290",
      "name": "묵중안노상공영주차장",
      "address": "서울특별시 중랑구 중화동 306-1",
      "roadAddress": "서울특별시 중랑구 봉화산로15길 35",
      "lat": 37.6031605,
      "lng": 127.0779966,
      "phone": "",
      "dong": "중화동"
    },
    {
      "naverPlaceId": "21185832",
      "name": "공영주차장유료",
      "address": "서울특별시 중랑구 중화동 51-3",
      "roadAddress": "",
      "lat": 37.5946084,
      "lng": 127.0725481,
      "phone": "",
      "dong": "중화동"
    },
    {
      "naverPlaceId": "1091137389",
      "name": "중화1동 공영주차장 개방화장실",
      "address": "서울특별시 중랑구 중화동 30-11 14",
      "roadAddress": "서울특별시 중랑구 동일로136나길 13 14",
      "lat": 37.6030193,
      "lng": 127.0816464,
      "phone": "02-438-7209",
      "dong": "중화동"
    },
    {
      "naverPlaceId": "1471390657",
      "name": "중화제2공영주차장입구",
      "address": "서울특별시 중랑구 중화동",
      "roadAddress": "",
      "lat": 37.5973112,
      "lng": 127.075423,
      "phone": "",
      "dong": "중화동"
    },
    {
      "naverPlaceId": "1323354158",
      "name": "중화제3공영주차장입구",
      "address": "서울특별시 중랑구 중화동",
      "roadAddress": "",
      "lat": 37.5965563,
      "lng": 127.0763454,
      "phone": "",
      "dong": "중화동"
    },
    {
      "naverPlaceId": "1694408138",
      "name": "중화제1공영주차장입구",
      "address": "서울특별시 중랑구 중화동",
      "roadAddress": "",
      "lat": 37.5986179,
      "lng": 127.073103,
      "phone": "",
      "dong": "중화동"
    },
    {
      "naverPlaceId": "1213727066",
      "name": "중화제1공영주차장 전기차충전소",
      "address": "서울특별시 중랑구 중화동 73-5",
      "roadAddress": "",
      "lat": 37.5987099,
      "lng": 127.072706,
      "phone": "1661-9408",
      "dong": "중화동"
    },
    {
      "naverPlaceId": "1608612241",
      "name": "중화1동공영주차장 전기차충전소",
      "address": "서울특별시 중랑구 중화동 29-2",
      "roadAddress": "서울특별시 중랑구 동일로136길 33",
      "lat": 37.6026754,
      "lng": 127.0816326,
      "phone": "1600-4047",
      "dong": "중화동"
    },
    {
      "naverPlaceId": "1475820977",
      "name": "중화제2공영주차장출구",
      "address": "서울특별시 중랑구 중화동",
      "roadAddress": "",
      "lat": 37.5971035,
      "lng": 127.0752521,
      "phone": "",
      "dong": "중화동"
    },
    {
      "naverPlaceId": "1272976774",
      "name": "쏘카 중랑역 제1공영주차장",
      "address": "서울특별시 중랑구 중화동 73-7 중랑역 제1공영주차장",
      "roadAddress": "서울특별시 중랑구 중랑역로 9 중랑역 제1공영주차장",
      "lat": 37.595144,
      "lng": 127.07716,
      "phone": "1661-8838",
      "dong": "중화동"
    },
    {
      "naverPlaceId": "1874961766",
      "name": "중화제3공영주차장출구",
      "address": "서울특별시 중랑구 중화동",
      "roadAddress": "",
      "lat": 37.5965631,
      "lng": 127.0769062,
      "phone": "",
      "dong": "중화동"
    },
    {
      "naverPlaceId": "1327769596",
      "name": "중화 제2공영주차장 한국전력 전기차충전소",
      "address": "서울특별시 중랑구 중화동 73-3",
      "roadAddress": "",
      "lat": 37.5971946,
      "lng": 127.0752334,
      "phone": "1899-2100",
      "dong": "중화동"
    },
    {
      "naverPlaceId": "1013965987",
      "name": "중랑캠핑숲 제3공영주차장",
      "address": "서울특별시 중랑구 망우동 56",
      "roadAddress": "서울특별시 중랑구 망우로87길 140",
      "lat": 37.6048564,
      "lng": 127.1140729,
      "phone": "",
      "dong": "망우동"
    },
    {
      "naverPlaceId": "1316779722",
      "name": "망우역사문화공원 제3주차장",
      "address": "서울특별시 중랑구 망우동 94-1",
      "roadAddress": "",
      "lat": 37.5997208,
      "lng": 127.1114178,
      "phone": "",
      "dong": "망우동"
    },
    {
      "naverPlaceId": "1909992732",
      "name": "망우역사문화공원 제1주차장",
      "address": "서울특별시 중랑구 망우동 산57-1 57-1,",
      "roadAddress": "서울특별시 중랑구 망우로91길 2 57-1,",
      "lat": 37.5985528,
      "lng": 127.1145936,
      "phone": "",
      "dong": "망우동"
    },
    {
      "naverPlaceId": "1565156253",
      "name": "망우역사문화공원 제2주차장",
      "address": "서울특별시 중랑구 망우동 112-10",
      "roadAddress": "",
      "lat": 37.6019147,
      "lng": 127.1143894,
      "phone": "",
      "dong": "망우동"
    },
    {
      "naverPlaceId": "1304487046",
      "name": "망우제3동 주민센터 주차장",
      "address": "서울특별시 중랑구 망우동 454-7",
      "roadAddress": "서울특별시 중랑구 용마산로 461",
      "lat": 37.5923316,
      "lng": 127.0981378,
      "phone": "",
      "dong": "망우동"
    },
    {
      "naverPlaceId": "1757732154",
      "name": "망우제1노외주차장",
      "address": "서울특별시 중랑구 망우동 244-9",
      "roadAddress": "",
      "lat": 37.6057506,
      "lng": 127.1055238,
      "phone": "",
      "dong": "망우동"
    },
    {
      "naverPlaceId": "21091008",
      "name": "중랑캠핑숲 제1공영주차장",
      "address": "서울특별시 중랑구 망우동 56",
      "roadAddress": "서울특별시 중랑구 송림길 160",
      "lat": 37.6067214,
      "lng": 127.109955,
      "phone": "",
      "dong": "망우동"
    },
    {
      "naverPlaceId": "18890457",
      "name": "중랑캠핑숲 제2공영주차장",
      "address": "서울특별시 중랑구 망우동 73-5",
      "roadAddress": "",
      "lat": 37.6060688,
      "lng": 127.1131229,
      "phone": "",
      "dong": "망우동"
    },
    {
      "naverPlaceId": "1232964541",
      "name": "근란 공영주차장 개방화장실",
      "address": "서울특별시 중랑구 망우동 360-4",
      "roadAddress": "서울특별시 중랑구 망우로 448",
      "lat": 37.5998936,
      "lng": 127.1015627,
      "phone": "02-438-7209",
      "dong": "망우동"
    },
    {
      "naverPlaceId": "1793028283",
      "name": "망우3동 공영주차장 전기차충전소",
      "address": "서울특별시 중랑구 망우동 529-2",
      "roadAddress": "서울특별시 중랑구 겸재로61길 40",
      "lat": 37.5918996,
      "lng": 127.0949182,
      "phone": "1588-5339",
      "dong": "망우동"
    },
    {
      "naverPlaceId": "1872478107",
      "name": "망우본동 공영주차장 전기차충전소",
      "address": "서울특별시 중랑구 망우동 463-44",
      "roadAddress": "서울특별시 중랑구 망우로62길 52-4",
      "lat": 37.5967718,
      "lng": 127.0982722,
      "phone": "1588-5339",
      "dong": "망우동"
    },
    {
      "naverPlaceId": "1477912433",
      "name": "면일초등학교 공영주차장 전기차충전소",
      "address": "서울특별시 중랑구 망우동 440",
      "roadAddress": "서울특별시 중랑구 용마산로100길 13",
      "lat": 37.5920415,
      "lng": 127.0997947,
      "phone": "02-2640-5199",
      "dong": "망우동"
    },
    {
      "naverPlaceId": "1063927371",
      "name": "신안3차아파트 앞 노상 공영주차장 전기차충전소",
      "address": "서울특별시 중랑구 망우동 80-2",
      "roadAddress": "",
      "lat": 37.6048246,
      "lng": 127.1090805,
      "phone": "1566-1704",
      "dong": "망우동"
    },
    {
      "naverPlaceId": "1520115160",
      "name": "망우제1노외주차장입출구",
      "address": "서울특별시 중랑구 망우동",
      "roadAddress": "",
      "lat": 37.6055938,
      "lng": 127.105467,
      "phone": "",
      "dong": "망우동"
    }
  ],
  "sido": "서울특별시",
  "sigungu": "중랑구",
  "totalCount": 82,
  "source": "naver-map",
  "scrapedAt": "2026-02-10"
}