{"sido":"울산광역시","sigungu":"울주군","totalCount":114,"validCount":93,"items":[{"name":"언양","type":"공영","category":"노외","address":"울산광역시 울주군 언양읍 남부리 73","lat":35.56251278,"lng":129.1296631,"totalSpaces":629,"isFree":true,"operatingDays":"평일+토요일+공휴일","weekdayOpen":"00:00","weekdayClose":"23:59","weekendOpen":"00:00","weekendClose":"23:59","holidayOpen":"00:00","holidayClose":"23:59","feeInfo":"무료","phone":"052-204-2511","updatedAt":"2025-12-01","sido":"울산광역시","sigungu":"울주군","dong":"언양읍"},{"name":"상북농공단지","type":"공영","category":"노외","address":"울산광역시 울주군 상북면 양등리 210","lat":35.60963816,"lng":129.0738349,"totalSpaces":594,"isFree":true,"operatingDays":"평일+토요일+공휴일","weekdayOpen":"00:00","weekdayClose":"23:59","weekendOpen":"00:00","weekendClose":"23:59","holidayOpen":"00:00","holidayClose":"23:59","feeInfo":"무료","phone":"052-204-2511","updatedAt":"2025-12-01","sido":"울산광역시","sigungu":"울주군","dong":"상북면"},{"name":"진하","type":"공영","category":"노외","address":"울산광역시 울주군 서생면 서생리 150","lat":35.38112791,"lng":129.3413268,"totalSpaces":405,"isFree":true,"operatingDays":"평일+토요일+공휴일","weekdayOpen":"00:00","weekdayClose":"23:59","weekendOpen":"00:00","weekendClose":"23:59","holidayOpen":"00:00","holidayClose":"23:59","feeInfo":"무료","phone":"052-204-2511","updatedAt":"2025-12-01","sido":"울산광역시","sigungu":"울주군","dong":"서생면"},{"name":"온산 노상","type":"공영","category":"노상","address":"울산광역시 울주군 온산읍 덕신리 535-8","lat":35.43116869,"lng":129.3088252,"totalSpaces":339,"isFree":true,"operatingDays":"평일+토요일+공휴일","weekdayOpen":"00:00","weekdayClose":"23:59","weekendOpen":"00:00","weekendClose":"23:59","holidayOpen":"00:00","holidayClose":"23:59","feeInfo":"무료","phone":"052-204-2511","updatedAt":"2025-12-01","sido":"울산광역시","sigungu":"울주군","dong":"온산읍"},{"name":"대운산 Ⅰ","type":"공영","category":"노외","address":"울산광역시 울주군 온양읍 운화리 873","lat":35.40262999,"lng":129.257014,"totalSpaces":255,"isFree":true,"operatingDays":"평일+토요일+공휴일","weekdayOpen":"00:00","weekdayClose":"23:59","weekendOpen":"00:00","weekendClose":"23:59","holidayOpen":"00:00","holidayClose":"23:59","feeInfo":"무료","phone":"052-204-2511","updatedAt":"2025-12-01","sido":"울산광역시","sigungu":"울주군","dong":"온양읍"},{"name":"배내1","type":"공영","category":"노외","address":"울산광역시 울주군 상북면 이천리 854","lat":35.57802759,"lng":129.0272627,"totalSpaces":213,"isFree":true,"operatingDays":"평일+토요일+공휴일","weekdayOpen":"00:00","weekdayClose":"23:59","weekendOpen":"00:00","weekendClose":"23:59","holidayOpen":"00:00","holidayClose":"23:59","feeInfo":"무료","phone":"052-204-2511","updatedAt":"2025-12-01","sido":"울산광역시","sigungu":"울주군","dong":"상북면"},{"name":"배내1","type":"공영","category":"노외","address":"울산광역시 울주군 상북면 이천리 854","lat":35.578027591,"lng":129.0272626623,"totalSpaces":213,"isFree":true,"operatingDays":"평일+토요일+공휴일","weekdayOpen":"00:00","weekdayClose":"23:59","weekendOpen":"00:00","weekendClose":"23:59","holidayOpen":"00:00","holidayClose":"23:59","feeInfo":"무료","phone":"052-211-2225","updatedAt":"2025-06-05","sido":"울산광역시","sigungu":"울주군","dong":"상북면"},{"name":"대운산 Ⅲ","type":"공영","category":"노외","address":"울산광역시 울주군 온양읍 운화리 1276-2","lat":35.39516682,"lng":129.2446376,"totalSpaces":212,"isFree":true,"operatingDays":"평일+토요일+공휴일","weekdayOpen":"00:00","weekdayClose":"23:59","weekendOpen":"00:00","weekendClose":"23:59","holidayOpen":"00:00","holidayClose":"23:59","feeInfo":"무료","phone":"052-204-2511","updatedAt":"2025-12-01","sido":"울산광역시","sigungu":"울주군","dong":"온양읍"},{"name":"두서농공단지","type":"공영","category":"노외","address":"울산광역시 울주군 두서면 전읍리 352","lat":35.6668567563,"lng":129.1738649385,"totalSpaces":170,"isFree":true,"operatingDays":"평일+토요일+공휴일","weekdayOpen":"00:00","weekdayClose":"23:59","weekendOpen":"00:00","weekendClose":"23:59","holidayOpen":"00:00","holidayClose":"23:59","feeInfo":"무료","phone":"052-211-2225","updatedAt":"2025-06-05","sido":"울산광역시","sigungu":"울주군","dong":"두서면"},{"name":"두서농공단지","type":"공영","category":"노외","address":"울산광역시 울주군 두서면 전읍리 352","lat":35.66685676,"lng":129.1738649,"totalSpaces":170,"isFree":true,"operatingDays":"평일+토요일+공휴일","weekdayOpen":"00:00","weekdayClose":"23:59","weekendOpen":"00:00","weekendClose":"23:59","holidayOpen":"00:00","holidayClose":"23:59","feeInfo":"무료","phone":"052-204-2511","updatedAt":"2025-12-01","sido":"울산광역시","sigungu":"울주군","dong":"두서면"},{"name":"장례식장","type":"공영","category":"부설","address":"울산광역시 울주군 삼동면 보삼길 550","lat":35.47085304,"lng":129.1336801,"totalSpaces":145,"isFree":true,"operatingDays":"평일+토요일+공휴일","weekdayOpen":"00:00","weekdayClose":"23:59","weekendOpen":"00:00","weekendClose":"23:59","holidayOpen":"00:00","holidayClose":"23:59","feeInfo":"무료","phone":"052-255-3800","updatedAt":"2025-04-28","sido":"울산광역시","sigungu":"울주군","dong":"삼동면"},{"name":"장례식장","type":"공영","category":"부설","address":"울산광역시 울주군 삼동면 보삼길 550","lat":35.47085304,"lng":129.1336801,"totalSpaces":143,"isFree":true,"operatingDays":"평일+토요일+공휴일","weekdayOpen":"00:00","weekdayClose":"23:59","weekendOpen":"00:00","weekendClose":"23:59","holidayOpen":"00:00","holidayClose":"23:59","feeInfo":"무료","phone":"052-255-3800","updatedAt":"2025-12-01","sido":"울산광역시","sigungu":"울주군","dong":"삼동면"},{"name":"남창강변","type":"공영","category":"노외","address":"울산광역시 울주군 온양읍 남창리 98-3","lat":35.4144928262,"lng":129.2848078834,"totalSpaces":141,"isFree":true,"operatingDays":"평일+토요일+공휴일","weekdayOpen":"00:00","weekdayClose":"23:59","weekendOpen":"00:00","weekendClose":"23:59","holidayOpen":"00:00","holidayClose":"23:59","feeInfo":"무료","phone":"052-211-2225","updatedAt":"2025-06-05","sido":"울산광역시","sigungu":"울주군","dong":"온양읍"},{"name":"웅촌 노상","type":"공영","category":"노상","address":"울산광역시 울주군 웅촌면 곡천리 319-2","lat":35.46554434,"lng":129.2090666,"totalSpaces":126,"isFree":true,"operatingDays":"평일+토요일+공휴일","weekdayOpen":"00:00","weekdayClose":"23:59","weekendOpen":"00:00","weekendClose":"23:59","holidayOpen":"00:00","holidayClose":"23:59","feeInfo":"무료","phone":"052-204-2511","updatedAt":"2025-12-01","sido":"울산광역시","sigungu":"울주군","dong":"웅촌면"},{"name":"진하해수욕장 노상","type":"공영","category":"노상","address":"울산광역시 울주군 서생면 진하리 315","lat":35.38313564,"lng":129.3418157,"totalSpaces":125,"isFree":true,"operatingDays":"평일+토요일+공휴일","weekdayOpen":"00:00","weekdayClose":"23:59","weekendOpen":"00:00","weekendClose":"23:59","holidayOpen":"00:00","holidayClose":"23:59","feeInfo":"무료","phone":"052-204-2511","updatedAt":"2025-12-01","sido":"울산광역시","sigungu":"울주군","dong":"서생면"},{"name":"배내2","type":"공영","category":"노외","address":"울산광역시 울주군 상북면 이천리 855","lat":35.56744419,"lng":129.0226106,"totalSpaces":123,"isFree":true,"operatingDays":"평일+토요일+공휴일","weekdayOpen":"00:00","weekdayClose":"23:59","weekendOpen":"00:00","weekendClose":"23:59","holidayOpen":"00:00","holidayClose":"23:59","feeInfo":"무료","phone":"052-204-2511","updatedAt":"2025-12-01","sido":"울산광역시","sigungu":"울주군","dong":"상북면"},{"name":"배내2","type":"공영","category":"노외","address":"울산광역시 울주군 상북면 이천리 855","lat":35.5674441885,"lng":129.0226105815,"totalSpaces":123,"isFree":true,"operatingDays":"평일+토요일+공휴일","weekdayOpen":"00:00","weekdayClose":"23:59","weekendOpen":"00:00","weekendClose":"23:59","holidayOpen":"00:00","holidayClose":"23:59","feeInfo":"무료","phone":"052-211-2225","updatedAt":"2025-06-05","sido":"울산광역시","sigungu":"울주군","dong":"상북면"},{"name":"회야강 소공원","type":"공영","category":"노외","address":"울산광역시 울주군 온산읍 삼평리 1487-10","lat":35.42497219,"lng":129.3123241,"totalSpaces":121,"isFree":true,"operatingDays":"평일+토요일+공휴일","weekdayOpen":"00:00","weekdayClose":"23:59","weekendOpen":"00:00","weekendClose":"23:59","holidayOpen":"00:00","holidayClose":"23:59","feeInfo":"무료","phone":"052-204-2511","updatedAt":"2025-12-01","sido":"울산광역시","sigungu":"울주군","dong":"온산읍"},{"name":"길천 일반산업단지","type":"공영","category":"노외","address":"울산광역시 울주군 상북면 양등리 810-9","lat":35.6020668217,"lng":129.0742999309,"totalSpaces":119,"isFree":true,"operatingDays":"평일+토요일+공휴일","weekdayOpen":"00:00","weekdayClose":"23:59","weekendOpen":"00:00","weekendClose":"23:59","holidayOpen":"00:00","holidayClose":"23:59","feeInfo":"무료","phone":"052-211-2225","updatedAt":"2025-06-05","sido":"울산광역시","sigungu":"울주군","dong":"상북면"},{"name":"구영 노상","type":"공영","category":"노상","address":"울산광역시 울주군 범서읍 구영리 800-11","lat":35.57167652,"lng":129.241374,"totalSpaces":111,"isFree":true,"operatingDays":"평일+토요일+공휴일","weekdayOpen":"00:00","weekdayClose":"23:59","weekendOpen":"00:00","weekendClose":"23:59","holidayOpen":"00:00","holidayClose":"23:59","feeInfo":"무료","phone":"052-204-2511","updatedAt":"2025-12-01","sido":"울산광역시","sigungu":"울주군","dong":"범서읍"},{"name":"추모의집","type":"공영","category":"부설","address":"울산광역시 울주군 삼동면 보삼길 550","lat":35.47085304,"lng":129.1336801,"totalSpaces":109,"isFree":true,"operatingDays":"평일+토요일+공휴일","weekdayOpen":"00:00","weekdayClose":"23:59","weekendOpen":"00:00","weekendClose":"23:59","holidayOpen":"00:00","holidayClose":"23:59","feeInfo":"무료","phone":"052-255-3800","updatedAt":"2025-04-28","sido":"울산광역시","sigungu":"울주군","dong":"삼동면"},{"name":"추모의집","type":"공영","category":"부설","address":"울산광역시 울주군 삼동면 보삼길 550","lat":35.47085304,"lng":129.1336801,"totalSpaces":109,"isFree":true,"operatingDays":"평일+토요일+공휴일","weekdayOpen":"00:00","weekdayClose":"23:59","weekendOpen":"00:00","weekendClose":"23:59","holidayOpen":"00:00","holidayClose":"23:59","feeInfo":"무료","phone":"052-255-3800","updatedAt":"2025-12-01","sido":"울산광역시","sigungu":"울주군","dong":"삼동면"},{"name":"승화원","type":"공영","category":"부설","address":"울산광역시 울주군 삼동면 보삼길 550","lat":35.47085304,"lng":129.1336801,"totalSpaces":95,"isFree":true,"operatingDays":"평일+토요일+공휴일","weekdayOpen":"00:00","weekdayClose":"23:59","weekendOpen":"00:00","weekendClose":"23:59","holidayOpen":"00:00","holidayClose":"23:59","feeInfo":"무료","phone":"052-255-3800","updatedAt":"2025-04-28","sido":"울산광역시","sigungu":"울주군","dong":"삼동면"},{"name":"승화원","type":"공영","category":"부설","address":"울산광역시 울주군 삼동면 보삼길 550","lat":35.47085304,"lng":129.1336801,"totalSpaces":95,"isFree":true,"operatingDays":"평일+토요일+공휴일","weekdayOpen":"00:00","weekdayClose":"23:59","weekendOpen":"00:00","weekendClose":"23:59","holidayOpen":"00:00","holidayClose":"23:59","feeInfo":"무료","phone":"052-255-3800","updatedAt":"2025-12-01","sido":"울산광역시","sigungu":"울주군","dong":"삼동면"},{"name":"두서농공단지 노상","type":"공영","category":"노상","address":"울산광역시 울주군 두서면 전읍리 298-1","lat":35.66961403,"lng":129.1710032,"totalSpaces":77,"isFree":true,"operatingDays":"평일+토요일+공휴일","weekdayOpen":"00:00","weekdayClose":"23:59","weekendOpen":"00:00","weekendClose":"23:59","holidayOpen":"00:00","holidayClose":"23:59","feeInfo":"무료","phone":"052-204-2511","updatedAt":"2025-12-01","sido":"울산광역시","sigungu":"울주군","dong":"두서면"},{"name":"두서농공단지 노상","type":"공영","category":"노상","address":"울산광역시 울주군 두서면 전읍리 298-1","lat":35.6696140344,"lng":129.1710031587,"totalSpaces":77,"isFree":true,"operatingDays":"평일+토요일+공휴일","weekdayOpen":"00:00","weekdayClose":"23:59","weekendOpen":"00:00","weekendClose":"23:59","holidayOpen":"00:00","holidayClose":"23:59","feeInfo":"무료","phone":"052-211-2225","updatedAt":"2025-06-05","sido":"울산광역시","sigungu":"울주군","dong":"두서면"},{"name":"백천","type":"공영","category":"노외","address":"울산광역시 울주군 범서읍 굴화리 293-35","lat":35.55727556,"lng":129.2521549,"totalSpaces":76,"isFree":true,"operatingDays":"평일+토요일+공휴일","weekdayOpen":"00:00","weekdayClose":"23:59","weekendOpen":"00:00","weekendClose":"23:59","holidayOpen":"00:00","holidayClose":"23:59","feeInfo":"무료","phone":"052-204-2511","updatedAt":"2025-12-01","sido":"울산광역시","sigungu":"울주군","dong":"범서읍"},{"name":"온양 운화 미니","type":"공영","category":"노외","address":"울산광역시 울주군 온양읍 운화리 1198-1","lat":35.3996904927,"lng":129.2521844046,"totalSpaces":67,"isFree":true,"operatingDays":"평일+토요일+공휴일","weekdayOpen":"00:00","weekdayClose":"23:59","weekendOpen":"00:00","weekendClose":"23:59","holidayOpen":"00:00","holidayClose":"23:59","feeInfo":"무료","phone":"052-211-2225","updatedAt":"2025-06-05","sido":"울산광역시","sigungu":"울주군","dong":"온양읍"},{"name":"망양노상","type":"공영","category":"노상","address":"울산광역시 울주군 온양읍 망양리 800","lat":35.4539346432,"lng":129.2977676166,"totalSpaces":67,"isFree":true,"operatingDays":"평일+토요일+공휴일","weekdayOpen":"00:00","weekdayClose":"23:59","weekendOpen":"00:00","weekendClose":"23:59","holidayOpen":"00:00","holidayClose":"23:59","feeInfo":"무료","phone":"052-211-2225","updatedAt":"2025-06-05","sido":"울산광역시","sigungu":"울주군","dong":"온양읍"},{"name":"선바위","type":"공영","category":"노외","address":"울산광역시 울주군 범서읍 입암리 1-4","lat":35.584375,"lng":129.2331347,"totalSpaces":66,"isFree":true,"operatingDays":"평일+토요일+공휴일","weekdayOpen":"00:00","weekdayClose":"23:59","weekendOpen":"00:00","weekendClose":"23:59","holidayOpen":"00:00","holidayClose":"23:59","feeInfo":"무료","phone":"052-204-2511","updatedAt":"2025-12-01","sido":"울산광역시","sigungu":"울주군","dong":"범서읍"},{"name":"자연장지 주차장","type":"공영","category":"부설","address":"울산광역시 울주군 삼동면 보삼길 550","lat":35.47085304,"lng":129.1336801,"totalSpaces":63,"isFree":true,"operatingDays":"평일+토요일+공휴일","weekdayOpen":"00:00","weekdayClose":"23:59","weekendOpen":"00:00","weekendClose":"23:59","holidayOpen":"00:00","holidayClose":"23:59","feeInfo":"무료","phone":"052-255-3800","updatedAt":"2025-04-28","sido":"울산광역시","sigungu":"울주군","dong":"삼동면"},{"name":"자연장지 주차장","type":"공영","category":"부설","address":"울산광역시 울주군 삼동면 보삼길 550","lat":35.47085304,"lng":129.1336801,"totalSpaces":63,"isFree":true,"operatingDays":"평일+토요일+공휴일","weekdayOpen":"00:00","weekdayClose":"23:59","weekendOpen":"00:00","weekendClose":"23:59","holidayOpen":"00:00","holidayClose":"23:59","feeInfo":"무료","phone":"052-255-3800","updatedAt":"2025-12-01","sido":"울산광역시","sigungu":"울주군","dong":"삼동면"},{"name":"향교 공영","type":"공영","category":"노외","address":"울산광역시 울주군 삼남읍 교동리 1069","lat":35.5562170849,"lng":129.1140219223,"totalSpaces":59,"isFree":true,"operatingDays":"평일+토요일+공휴일","weekdayOpen":"00:00","weekdayClose":"23:59","weekendOpen":"00:00","weekendClose":"23:59","holidayOpen":"00:00","holidayClose":"23:59","feeInfo":"무료","phone":"052-211-2225","updatedAt":"2025-06-05","sido":"울산광역시","sigungu":"울주군","dong":"삼남읍"},{"name":"대운산 Ⅱ","type":"공영","category":"노외","address":"울산광역시 울주군 온양읍 운화리 1328-1","lat":35.39534179,"lng":129.244235,"totalSpaces":56,"isFree":true,"operatingDays":"평일+토요일+공휴일","weekdayOpen":"00:00","weekdayClose":"23:59","weekendOpen":"00:00","weekendClose":"23:59","holidayOpen":"00:00","holidayClose":"23:59","feeInfo":"무료","phone":"052-204-2511","updatedAt":"2025-12-01","sido":"울산광역시","sigungu":"울주군","dong":"온양읍"},{"name":"삼남 High Tech Valley 주차장","type":"공영","category":"노외","address":"울산광역시 울주군 삼남면 가천리 1212-8","lat":35.52535222,"lng":129.0858181,"totalSpaces":55,"isFree":true,"operatingDays":"평일+토요일+공휴일","weekdayOpen":"00:00","weekdayClose":"23:59","weekendOpen":"00:00","weekendClose":"23:59","holidayOpen":"00:00","holidayClose":"23:59","feeInfo":"무료","phone":"052-204-2511","updatedAt":"2025-12-01","sido":"울산광역시","sigungu":"울주군","dong":"삼남면"},{"name":"영남마을","type":"공영","category":"노외","address":"울산광역시 울주군 온산읍 덕신리 1380-8","lat":35.4406832331,"lng":129.303663768,"totalSpaces":52,"isFree":true,"operatingDays":"평일+토요일+공휴일","weekdayOpen":"00:00","weekdayClose":"23:59","weekendOpen":"00:00","weekendClose":"23:59","holidayOpen":"00:00","holidayClose":"23:59","feeInfo":"무료","phone":"052-211-2225","updatedAt":"2025-06-05","sido":"울산광역시","sigungu":"울주군","dong":"온산읍"},{"name":"영남마을","type":"공영","category":"노외","address":"울산광역시 울주군 온산읍 덕신리 1380-8","lat":35.44068323,"lng":129.3036638,"totalSpaces":52,"isFree":true,"operatingDays":"평일+토요일+공휴일","weekdayOpen":"00:00","weekdayClose":"23:59","weekendOpen":"00:00","weekendClose":"23:59","holidayOpen":"00:00","holidayClose":"23:59","feeInfo":"무료","phone":"052-204-2511","updatedAt":"2025-12-01","sido":"울산광역시","sigungu":"울주군","dong":"온산읍"},{"name":"청량 덕하","type":"공영","category":"노외","address":"울산광역시 울주군 청량읍 상남리 542-4","lat":35.4912609474,"lng":129.3044533133,"totalSpaces":47,"isFree":true,"operatingDays":"평일+토요일+공휴일","weekdayOpen":"00:00","weekdayClose":"23:59","weekendOpen":"00:00","weekendClose":"23:59","holidayOpen":"00:00","holidayClose":"23:59","feeInfo":"무료","phone":"052-204-2511","updatedAt":"2025-12-01","sido":"울산광역시","sigungu":"울주군","dong":"청량읍"},{"name":"청량 덕하","type":"공영","category":"노외","address":"울산광역시 울주군 청량읍 상남리 545-1","lat":35.4908685048,"lng":129.3041717301,"totalSpaces":47,"isFree":true,"operatingDays":"평일+토요일+공휴일","weekdayOpen":"00:00","weekdayClose":"23:59","weekendOpen":"00:00","weekendClose":"23:59","holidayOpen":"00:00","holidayClose":"23:59","feeInfo":"무료","phone":"052-211-2225","updatedAt":"2025-06-05","sido":"울산광역시","sigungu":"울주군","dong":"청량읍"},{"name":"덕하임시","type":"공영","category":"노외","address":"울산광역시 울주군 청량읍 상남리 536-1","lat":35.4916890763,"lng":129.3046780759,"totalSpaces":46,"isFree":true,"operatingDays":"평일+토요일+공휴일","weekdayOpen":"00:00","weekdayClose":"23:59","weekendOpen":"00:00","weekendClose":"23:59","holidayOpen":"00:00","holidayClose":"23:59","feeInfo":"무료","phone":"052-211-2225","updatedAt":"2025-06-05","sido":"울산광역시","sigungu":"울주군","dong":"청량읍"},{"name":"온산문화체육센터","type":"공영","category":"노외","address":"울산광역시 울주군 온산읍 덕신리 51-1","lat":35.43839622,"lng":129.3153449,"totalSpaces":44,"isFree":true,"operatingDays":"평일+토요일+공휴일","weekdayOpen":"00:00","weekdayClose":"23:59","weekendOpen":"00:00","weekendClose":"23:59","holidayOpen":"00:00","holidayClose":"23:59","feeInfo":"무료","phone":"052-204-2511","updatedAt":"2025-12-01","sido":"울산광역시","sigungu":"울주군","dong":"온산읍"},{"name":"온산문화체육센터","type":"공영","category":"노외","address":"울산광역시 울주군 온산읍 덕신리 49-2","lat":35.4390908786,"lng":129.3148783683,"totalSpaces":44,"isFree":true,"operatingDays":"평일+토요일+공휴일","weekdayOpen":"00:00","weekdayClose":"23:59","weekendOpen":"00:00","weekendClose":"23:59","holidayOpen":"00:00","holidayClose":"23:59","feeInfo":"무료","phone":"052-211-2225","updatedAt":"2025-06-05","sido":"울산광역시","sigungu":"울주군","dong":"온산읍"},{"name":"두서 인보","type":"공영","category":"노외","address":"울산광역시 울주군 두서면 서하리 264-11","lat":35.64080429,"lng":129.1588168,"totalSpaces":43,"isFree":true,"operatingDays":"평일+토요일+공휴일","weekdayOpen":"00:00","weekdayClose":"23:59","weekendOpen":"00:00","weekendClose":"23:59","holidayOpen":"00:00","holidayClose":"23:59","feeInfo":"무료","phone":"052-204-2511","updatedAt":"2025-12-01","sido":"울산광역시","sigungu":"울주군","dong":"두서면"},{"name":"반구대","type":"공영","category":"노외","address":"울산광역시 울주군 두동면 천전리 359-1","lat":35.61200839,"lng":129.1580377,"totalSpaces":42,"isFree":true,"operatingDays":"평일+토요일+공휴일","weekdayOpen":"00:00","weekdayClose":"23:59","weekendOpen":"00:00","weekendClose":"23:59","holidayOpen":"00:00","holidayClose":"23:59","feeInfo":"무료","phone":"052-204-2511","updatedAt":"2025-12-01","sido":"울산광역시","sigungu":"울주군","dong":"두동면"},{"name":"온산 당월노상","type":"공영","category":"노상","address":"울산광역시 울주군 온산읍 당월리 95-3","lat":35.41001529,"lng":129.3528173,"totalSpaces":40,"isFree":true,"operatingDays":"평일+토요일+공휴일","weekdayOpen":"00:00","weekdayClose":"23:59","weekendOpen":"00:00","weekendClose":"23:59","holidayOpen":"00:00","holidayClose":"23:59","feeInfo":"무료","phone":"052-204-2511","updatedAt":"2025-12-01","sido":"울산광역시","sigungu":"울주군","dong":"온산읍"},{"name":"청량 율리보금자리주택","type":"공영","category":"노외","address":"울산광역시 울주군 청량읍 율리 1468-8","lat":35.52828026,"lng":129.2399591,"totalSpaces":32,"isFree":true,"operatingDays":"평일+토요일+공휴일","weekdayOpen":"00:00","weekdayClose":"23:59","weekendOpen":"00:00","weekendClose":"23:59","holidayOpen":"00:00","holidayClose":"23:59","feeInfo":"무료","phone":"052-204-2511","updatedAt":"2025-12-01","sido":"울산광역시","sigungu":"울주군","dong":"청량읍"},{"name":"청량 율리보금자리주택","type":"공영","category":"노외","address":"울산광역시 울주군 청량읍 율리 1468-8","lat":35.5282802555,"lng":129.2399591284,"totalSpaces":32,"isFree":true,"operatingDays":"평일+토요일+공휴일","weekdayOpen":"00:00","weekdayClose":"23:59","weekendOpen":"00:00","weekendClose":"23:59","holidayOpen":"00:00","holidayClose":"23:59","feeInfo":"무료","phone":"052-211-2225","updatedAt":"2025-06-05","sido":"울산광역시","sigungu":"울주군","dong":"청량읍"},{"name":"양지마을","type":"공영","category":"노외","address":"울산광역시 울주군 두동면 이전리 377-4","lat":35.6559512886,"lng":129.2215152977,"totalSpaces":31,"isFree":true,"operatingDays":"평일+토요일+공휴일","weekdayOpen":"00:00","weekdayClose":"23:59","weekendOpen":"00:00","weekendClose":"23:59","holidayOpen":"00:00","holidayClose":"23:59","feeInfo":"무료","phone":"052-211-2225","updatedAt":"2025-06-05","sido":"울산광역시","sigungu":"울주군","dong":"두동면"},{"name":"양지마을","type":"공영","category":"노외","address":"울산광역시 울주군 두동면 이전리 377-4","lat":35.65595129,"lng":129.2215153,"totalSpaces":31,"isFree":true,"operatingDays":"평일+토요일+공휴일","weekdayOpen":"00:00","weekdayClose":"23:59","weekendOpen":"00:00","weekendClose":"23:59","holidayOpen":"00:00","holidayClose":"23:59","feeInfo":"무료","phone":"052-204-2511","updatedAt":"2025-12-01","sido":"울산광역시","sigungu":"울주군","dong":"두동면"},{"name":"대안리미니","type":"공영","category":"노외","address":"울산광역시 울주군 온양읍 대안리 407-2","lat":35.4082693608,"lng":129.2840295495,"totalSpaces":30,"isFree":true,"operatingDays":"평일+토요일+공휴일","weekdayOpen":"00:00","weekdayClose":"23:59","weekendOpen":"00:00","weekendClose":"23:59","holidayOpen":"00:00","holidayClose":"23:59","feeInfo":"무료","phone":"052-211-2225","updatedAt":"2025-06-05","sido":"울산광역시","sigungu":"울주군","dong":"온양읍"},{"name":"온양 운화 군립도서관","type":"공영","category":"노외","address":"울산광역시 울주군 온양읍 운화리 17-2","lat":35.41296931,"lng":129.2761823,"totalSpaces":28,"isFree":true,"operatingDays":"평일+토요일+공휴일","weekdayOpen":"00:00","weekdayClose":"23:59","weekendOpen":"00:00","weekendClose":"23:59","holidayOpen":"00:00","holidayClose":"23:59","feeInfo":"무료","phone":"052-204-2511","updatedAt":"2025-12-01","sido":"울산광역시","sigungu":"울주군","dong":"온양읍"},{"name":"온양 운화 군립도서관","type":"공영","category":"노외","address":"울산광역시 울주군 온양읍 운화리 17-2","lat":35.4129693061,"lng":129.2761823277,"totalSpaces":28,"isFree":true,"operatingDays":"평일+토요일+공휴일","weekdayOpen":"00:00","weekdayClose":"23:59","weekendOpen":"00:00","weekendClose":"23:59","holidayOpen":"00:00","holidayClose":"23:59","feeInfo":"무료","phone":"052-211-2225","updatedAt":"2025-06-05","sido":"울산광역시","sigungu":"울주군","dong":"온양읍"},{"name":"언양 서부리","type":"공영","category":"노외","address":"울산광역시 울주군 언양읍 서부리 157-3","lat":35.5656523411,"lng":129.1210156073,"totalSpaces":26,"isFree":true,"operatingDays":"평일+토요일+공휴일","weekdayOpen":"00:00","weekdayClose":"23:59","weekendOpen":"00:00","weekendClose":"23:59","holidayOpen":"00:00","holidayClose":"23:59","feeInfo":"무료","phone":"052-211-2225","updatedAt":"2025-06-05","sido":"울산광역시","sigungu":"울주군","dong":"언양읍"},{"name":"언양 서부리","type":"공영","category":"노외","address":"울산광역시 울주군 언양읍 서부리 157-3","lat":35.56565234,"lng":129.1210156,"totalSpaces":26,"isFree":true,"operatingDays":"평일+토요일+공휴일","weekdayOpen":"00:00","weekdayClose":"23:59","weekendOpen":"00:00","weekendClose":"23:59","holidayOpen":"00:00","holidayClose":"23:59","feeInfo":"무료","phone":"052-204-2511","updatedAt":"2025-12-01","sido":"울산광역시","sigungu":"울주군","dong":"언양읍"},{"name":"범서 제2민원실","type":"공영","category":"노외","address":"울산광역시 울주군 범서읍 구영리 216-3","lat":35.57121777,"lng":129.2439191,"totalSpaces":24,"isFree":true,"operatingDays":"평일+토요일+공휴일","weekdayOpen":"00:00","weekdayClose":"23:59","weekendOpen":"00:00","weekendClose":"23:59","holidayOpen":"00:00","holidayClose":"23:59","feeInfo":"무료","phone":"052-204-2511","updatedAt":"2025-12-01","sido":"울산광역시","sigungu":"울주군","dong":"범서읍"},{"name":"범서 제2민원실","type":"공영","category":"노외","address":"울산광역시 울주군 범서읍 구영리 216-3","lat":35.571217769,"lng":129.2439190744,"totalSpaces":24,"isFree":true,"operatingDays":"평일+토요일+공휴일","weekdayOpen":"00:00","weekdayClose":"23:59","weekendOpen":"00:00","weekendClose":"23:59","holidayOpen":"00:00","holidayClose":"23:59","feeInfo":"무료","phone":"052-211-2225","updatedAt":"2025-06-05","sido":"울산광역시","sigungu":"울주군","dong":"범서읍"},{"name":"화산","type":"공영","category":"노외","address":"울산광역시 울주군 온산읍 화산리 1005-1","lat":35.4399465976,"lng":129.3335317468,"totalSpaces":23,"isFree":true,"operatingDays":"평일+토요일+공휴일","weekdayOpen":"00:00","weekdayClose":"23:59","weekendOpen":"00:00","weekendClose":"23:59","holidayOpen":"00:00","holidayClose":"23:59","feeInfo":"무료","phone":"052-211-2225","updatedAt":"2025-06-05","sido":"울산광역시","sigungu":"울주군","dong":"온산읍"},{"name":"화산","type":"공영","category":"노외","address":"울산광역시 울주군 온산읍 화산리 1005-1","lat":35.4399466,"lng":129.3335318,"totalSpaces":23,"isFree":true,"operatingDays":"평일+토요일+공휴일","weekdayOpen":"00:00","weekdayClose":"23:59","weekendOpen":"00:00","weekendClose":"23:59","holidayOpen":"00:00","holidayClose":"23:59","feeInfo":"무료","phone":"052-204-2511","updatedAt":"2025-12-01","sido":"울산광역시","sigungu":"울주군","dong":"온산읍"},{"name":"범서 대동1리","type":"공영","category":"노외","address":"울산광역시 울주군 범서읍 천상리 642-9","lat":35.56215565,"lng":129.230592,"totalSpaces":20,"isFree":true,"operatingDays":"평일+토요일+공휴일","weekdayOpen":"00:00","weekdayClose":"23:59","weekendOpen":"00:00","weekendClose":"23:59","holidayOpen":"00:00","holidayClose":"23:59","feeInfo":"무료","phone":"052-204-2511","updatedAt":"2025-12-01","sido":"울산광역시","sigungu":"울주군","dong":"범서읍"},{"name":"봉계 Ⅰ","type":"공영","category":"노외","address":"울산광역시 울주군 두동면 봉계리 1274-60","lat":35.71383901,"lng":129.1977391,"totalSpaces":15,"isFree":true,"operatingDays":"평일+토요일+공휴일","weekdayOpen":"00:00","weekdayClose":"23:59","weekendOpen":"00:00","weekendClose":"23:59","holidayOpen":"00:00","holidayClose":"23:59","feeInfo":"무료","phone":"052-204-2511","updatedAt":"2025-12-01","sido":"울산광역시","sigungu":"울주군","dong":"두동면"},{"name":"청량 영해","type":"공영","category":"노외","address":"울산광역시 울주군 청량읍 율리 879-2","lat":35.52985333,"lng":129.2332582,"totalSpaces":12,"isFree":true,"operatingDays":"평일+토요일+공휴일","weekdayOpen":"00:00","weekdayClose":"23:59","weekendOpen":"00:00","weekendClose":"23:59","holidayOpen":"00:00","holidayClose":"23:59","feeInfo":"무료","phone":"052-204-2511","updatedAt":"2025-12-01","sido":"울산광역시","sigungu":"울주군","dong":"청량읍"},{"name":"청량 영해","type":"공영","category":"노외","address":"울산광역시 울주군 청량읍 율리 879-2","lat":35.5298533277,"lng":129.2332581893,"totalSpaces":12,"isFree":true,"operatingDays":"평일+토요일+공휴일","weekdayOpen":"00:00","weekdayClose":"23:59","weekendOpen":"00:00","weekendClose":"23:59","holidayOpen":"00:00","holidayClose":"23:59","feeInfo":"무료","phone":"052-211-2225","updatedAt":"2025-06-05","sido":"울산광역시","sigungu":"울주군","dong":"청량읍"},{"name":"덕신 노상 공영","type":"공영","category":"노상","address":"울산광역시 울주군 온산읍 덕신리 1380-10","lat":35.4413887699,"lng":129.3048957406,"totalSpaces":11,"isFree":true,"operatingDays":"평일+토요일+공휴일","weekdayOpen":"00:00","weekdayClose":"23:59","weekendOpen":"00:00","weekendClose":"23:59","holidayOpen":"00:00","holidayClose":"23:59","feeInfo":"무료","phone":"052-211-2225","updatedAt":"2025-06-05","sido":"울산광역시","sigungu":"울주군","dong":"온산읍"},{"name":"온양 하대마을 노상","type":"공영","category":"노상","address":"울산광역시 울주군 온양읍 운화리 641-3","lat":35.4071061212,"lng":129.2640531673,"totalSpaces":10,"isFree":true,"operatingDays":"평일+토요일+공휴일","weekdayOpen":"00:00","weekdayClose":"23:59","weekendOpen":"00:00","weekendClose":"23:59","holidayOpen":"00:00","holidayClose":"23:59","feeInfo":"무료","phone":"052-211-2225","updatedAt":"2025-06-05","sido":"울산광역시","sigungu":"울주군","dong":"온양읍"},{"name":"온산 덕신7 미니","type":"공영","category":"노외","address":"울산광역시 울주군 온산읍 덕신리 1331-9","lat":35.4397283374,"lng":129.3036422313,"totalSpaces":8,"isFree":true,"operatingDays":"평일+토요일+공휴일","weekdayOpen":"00:00","weekdayClose":"23:59","weekendOpen":"00:00","weekendClose":"23:59","holidayOpen":"00:00","holidayClose":"23:59","feeInfo":"무료","phone":"052-211-2225","updatedAt":"2025-06-05","sido":"울산광역시","sigungu":"울주군","dong":"온산읍"},{"name":"온산 덕신8 미니","type":"공영","category":"노외","address":"울산광역시 울주군 온산읍 덕신리 1338-7","lat":35.439380437,"lng":129.3052887463,"totalSpaces":8,"isFree":true,"operatingDays":"평일+토요일+공휴일","weekdayOpen":"00:00","weekdayClose":"23:59","weekendOpen":"00:00","weekendClose":"23:59","holidayOpen":"00:00","holidayClose":"23:59","feeInfo":"무료","phone":"052-211-2225","updatedAt":"2025-06-05","sido":"울산광역시","sigungu":"울주군","dong":"온산읍"},{"name":"온산 덕신4 미니","type":"공영","category":"노외","address":"울산광역시 울주군 온산읍 덕신리 1314-6","lat":35.4372796741,"lng":129.3131382825,"totalSpaces":8,"isFree":true,"operatingDays":"평일+토요일+공휴일","weekdayOpen":"00:00","weekdayClose":"23:59","weekendOpen":"00:00","weekendClose":"23:59","holidayOpen":"00:00","holidayClose":"23:59","feeInfo":"무료","phone":"052-211-2225","updatedAt":"2025-06-05","sido":"울산광역시","sigungu":"울주군","dong":"온산읍"},{"name":"온산 덕신6 미니","type":"공영","category":"노외","address":"울산광역시 울주군 온산읍 덕신리 1347-22","lat":35.4382981219,"lng":129.3054460443,"totalSpaces":6,"isFree":true,"operatingDays":"평일+토요일+공휴일","weekdayOpen":"00:00","weekdayClose":"23:59","weekendOpen":"00:00","weekendClose":"23:59","holidayOpen":"00:00","holidayClose":"23:59","feeInfo":"무료","phone":"052-211-2225","updatedAt":"2025-06-05","sido":"울산광역시","sigungu":"울주군","dong":"온산읍"},{"name":"온산 덕신1 미니","type":"공영","category":"노외","address":"울산광역시 울주군 온산읍 덕신리 1335-3","lat":35.4410198654,"lng":129.3051351569,"totalSpaces":6,"isFree":true,"operatingDays":"평일+토요일+공휴일","weekdayOpen":"00:00","weekdayClose":"23:59","weekendOpen":"00:00","weekendClose":"23:59","holidayOpen":"00:00","holidayClose":"23:59","feeInfo":"무료","phone":"052-211-2225","updatedAt":"2025-06-05","sido":"울산광역시","sigungu":"울주군","dong":"온산읍"},{"name":"온산 덕신2 미니","type":"공영","category":"노외","address":"울산광역시 울주군 온산읍 덕신리 1334-17","lat":35.4405199589,"lng":129.3045971183,"totalSpaces":6,"isFree":true,"operatingDays":"평일+토요일+공휴일","weekdayOpen":"00:00","weekdayClose":"23:59","weekendOpen":"00:00","weekendClose":"23:59","holidayOpen":"00:00","holidayClose":"23:59","feeInfo":"무료","phone":"052-211-2225","updatedAt":"2025-06-05","sido":"울산광역시","sigungu":"울주군","dong":"온산읍"},{"name":"온산 덕신3 미니","type":"공영","category":"노외","address":"울산광역시 울주군 온산읍 덕신리 1333-5","lat":35.440386369,"lng":129.3044023585,"totalSpaces":6,"isFree":true,"operatingDays":"평일+토요일+공휴일","weekdayOpen":"00:00","weekdayClose":"23:59","weekendOpen":"00:00","weekendClose":"23:59","holidayOpen":"00:00","holidayClose":"23:59","feeInfo":"무료","phone":"052-211-2225","updatedAt":"2025-06-05","sido":"울산광역시","sigungu":"울주군","dong":"온산읍"},{"name":"온산 덕신5 미니","type":"공영","category":"노외","address":"울산광역시 울주군 온산읍 덕신리 1348-11","lat":35.4382771623,"lng":129.3062411697,"totalSpaces":6,"isFree":true,"operatingDays":"평일+토요일+공휴일","weekdayOpen":"00:00","weekdayClose":"23:59","weekendOpen":"00:00","weekendClose":"23:59","holidayOpen":"00:00","holidayClose":"23:59","feeInfo":"무료","phone":"052-211-2225","updatedAt":"2025-06-05","sido":"울산광역시","sigungu":"울주군","dong":"온산읍"},{"name":"봉계 Ⅱ","type":"공영","category":"노외","address":"울산광역시 울주군 두동면 봉계리 510-21","lat":35.71386104,"lng":129.1994791,"totalSpaces":4,"isFree":true,"operatingDays":"평일+토요일+공휴일","weekdayOpen":"00:00","weekdayClose":"23:59","weekendOpen":"00:00","weekendClose":"23:59","holidayOpen":"00:00","holidayClose":"23:59","feeInfo":"무료","phone":"052-204-2511","updatedAt":"2025-12-01","sido":"울산광역시","sigungu":"울주군","dong":"두동면"},{"name":"봉계 Ⅱ","type":"공영","category":"노외","address":"울산광역시 울주군 두동면 봉계리 510-21","lat":35.7138610387,"lng":129.1994790637,"totalSpaces":4,"isFree":true,"operatingDays":"평일+토요일+공휴일","weekdayOpen":"00:00","weekdayClose":"23:59","weekendOpen":"00:00","weekendClose":"23:59","holidayOpen":"00:00","holidayClose":"23:59","feeInfo":"무료","phone":"052-211-2225","updatedAt":"2025-06-05","sido":"울산광역시","sigungu":"울주군","dong":"두동면"},{"name":"진하","type":"공영","category":"노외","address":"울산광역시 울주군 서생면 서생리 150","lat":35.3811279068,"lng":129.3413267926,"totalSpaces":351,"isFree":false,"operatingDays":"평일+토요일+공휴일","weekdayOpen":"00:00","weekdayClose":"23:59","weekendOpen":"00:00","weekendClose":"23:59","holidayOpen":"00:00","holidayClose":"23:59","feeInfo":"기본 20분 300원 / 추가 10분당 100원","phone":"052-211-2225","updatedAt":"2025-06-05","sido":"울산광역시","sigungu":"울주군","dong":"서생면"},{"name":"언양강변공영주차장","type":"공영","category":"노외","address":"울산광역시 울주군 언양읍 남부리 336-1","lat":35.56086068,"lng":129.1289372,"totalSpaces":339,"isFree":false,"operatingDays":"평일+토요일+공휴일","weekdayOpen":"06:00","weekdayClose":"22:00","weekendOpen":"06:00","weekendClose":"22:00","holidayOpen":"06:00","holidayClose":"22:00","feeInfo":"기본 60분 600원 / 추가 60분당 100원","phone":"052-229-9585","updatedAt":"2024-12-13","sido":"울산광역시","sigungu":"울주군","dong":"언양읍"},{"name":"언양강변","type":"공영","category":"노외","address":"울산광역시 울주군 언양읍 남부리 336-1","lat":35.56086068,"lng":129.1289372,"totalSpaces":327,"isFree":false,"operatingDays":"평일+토요일+공휴일","weekdayOpen":"00:00","weekdayClose":"23:59","weekendOpen":"00:00","weekendClose":"23:59","holidayOpen":"00:00","holidayClose":"23:59","feeInfo":"기본 60분 0원 / 추가 10분당 100원","phone":"052-229-9068","updatedAt":"2025-12-01","sido":"울산광역시","sigungu":"울주군","dong":"언양읍"},{"name":"구영공원","type":"공영","category":"노외","address":"울산광역시 울주군 범서읍 점촌4길 86","lat":35.5725332,"lng":129.2414266,"totalSpaces":232,"isFree":false,"operatingDays":"평일+토요일+공휴일","weekdayOpen":"00:00","weekdayClose":"23:59","weekendOpen":"00:00","weekendClose":"23:59","holidayOpen":"00:00","holidayClose":"23:59","feeInfo":"기본 30분 300원 / 추가 30분당 300원","phone":"052-229-9068","updatedAt":"2025-12-01","sido":"울산광역시","sigungu":"울주군","dong":""},{"name":"구영공원공영주차장","type":"공영","category":"노외","address":"울산광역시 울주군 범서읍 점촌 4길 86","lat":35.572548,"lng":129.241447,"totalSpaces":231,"isFree":false,"operatingDays":"평일+토요일+공휴일","weekdayOpen":"06:00","weekdayClose":"22:00","weekendOpen":"06:00","weekendClose":"22:00","holidayOpen":"06:00","holidayClose":"22:00","feeInfo":"기본 30분 300원 / 추가 10분당 100원","phone":"052-229-9584","updatedAt":"2024-12-13","sido":"울산광역시","sigungu":"울주군","dong":"범서읍"},{"name":"덕신공영주차장","type":"공영","category":"노외","address":"울산광역시 울주군 온산읍 덕신리 430","lat":35.430054,"lng":129.3108892,"totalSpaces":179,"isFree":false,"operatingDays":"평일+토요일+공휴일","weekdayOpen":"06:00","weekdayClose":"22:00","weekendOpen":"06:00","weekendClose":"22:00","holidayOpen":"06:00","holidayClose":"22:00","feeInfo":"기본 60분 600원 / 추가 60분당 100원","phone":"052-229-9583","updatedAt":"2024-12-13","sido":"울산광역시","sigungu":"울주군","dong":"온산읍"},{"name":"덕신","type":"공영","category":"노외","address":"울산광역시 울주군 온산읍 덕신리 430","lat":35.43004782,"lng":129.3108892,"totalSpaces":179,"isFree":false,"operatingDays":"평일+토요일+공휴일","weekdayOpen":"00:00","weekdayClose":"23:59","weekendOpen":"00:00","weekendClose":"23:59","holidayOpen":"00:00","holidayClose":"23:59","feeInfo":"기본 60분 0원 / 추가 10분당 100원","phone":"052-229-9068","updatedAt":"2025-12-01","sido":"울산광역시","sigungu":"울주군","dong":"온산읍"},{"name":"덕신","type":"공영","category":"노외","address":"울산광역시 울주군 온산읍 덕신리 430","lat":35.4300478164,"lng":129.3108891743,"totalSpaces":179,"isFree":false,"operatingDays":"평일+토요일+공휴일","weekdayOpen":"06:00","weekdayClose":"22:00","weekendOpen":"06:00","weekendClose":"22:00","holidayOpen":"06:00","holidayClose":"22:00","feeInfo":"기본 120분 600원 / 추가 10분당 200원","phone":"052-229-9067","updatedAt":"2025-06-05","sido":"울산광역시","sigungu":"울주군","dong":"온산읍"},{"name":"천상공원지하","type":"공영","category":"노외","address":"울산광역시 울주군 범서읍 천상리 322","lat":35.5606574501,"lng":129.2283370833,"totalSpaces":146,"isFree":false,"operatingDays":"평일+토요일+공휴일","weekdayOpen":"00:00","weekdayClose":"23:59","weekendOpen":"00:00","weekendClose":"23:59","holidayOpen":"00:00","holidayClose":"23:59","feeInfo":"기본 20분 300원 / 추가 10분당 100원","phone":"052-211-2225","updatedAt":"2025-06-05","sido":"울산광역시","sigungu":"울주군","dong":"범서읍"},{"name":"온덕공영주차장","type":"공영","category":"노외","address":"울산광역시 울주군 온산읍 덕신리 1289","lat":35.4360162,"lng":129.309886,"totalSpaces":131,"isFree":false,"operatingDays":"평일+토요일+공휴일","weekdayOpen":"06:00","weekdayClose":"22:00","weekendOpen":"06:00","weekendClose":"22:00","holidayOpen":"06:00","holidayClose":"22:00","feeInfo":"기본 60분 600원 / 추가 60분당 100원","phone":"052-229-9582","updatedAt":"2024-12-13","sido":"울산광역시","sigungu":"울주군","dong":"온산읍"},{"name":"온덕","type":"공영","category":"노외","address":"울산광역시 울주군 온산읍 덕신리 1289","lat":35.4360162,"lng":129.3098929,"totalSpaces":131,"isFree":false,"operatingDays":"평일+토요일+공휴일","weekdayOpen":"00:00","weekdayClose":"23:59","weekendOpen":"00:00","weekendClose":"23:59","holidayOpen":"00:00","holidayClose":"23:59","feeInfo":"기본 60분 0원 / 추가 10분당 100원","phone":"052-229-9068","updatedAt":"2025-12-01","sido":"울산광역시","sigungu":"울주군","dong":"온산읍"},{"name":"온덕","type":"공영","category":"노외","address":"울산광역시 울주군 온산읍 덕신리 1289","lat":35.4360162039,"lng":129.30989294,"totalSpaces":131,"isFree":false,"operatingDays":"평일+토요일+공휴일","weekdayOpen":"06:00","weekdayClose":"22:00","weekendOpen":"06:00","weekendClose":"22:00","holidayOpen":"06:00","holidayClose":"22:00","feeInfo":"기본 120분 600원 / 추가 10분당 200원","phone":"052-229-9067","updatedAt":"2025-06-05","sido":"울산광역시","sigungu":"울주군","dong":"온산읍"},{"name":"구언양터미널임시","type":"공영","category":"노외","address":"울산광역시 울주군 언양읍 남부리 126-1","lat":35.5636087508,"lng":129.1268627566,"totalSpaces":128,"isFree":false,"operatingDays":"평일+토요일+공휴일","weekdayOpen":"00:00","weekdayClose":"23:59","weekendOpen":"00:00","weekendClose":"23:59","holidayOpen":"00:00","holidayClose":"23:59","feeInfo":"기본 120분 600원 / 추가 10분당 200원","phone":"052-211-2225","updatedAt":"2025-06-05","sido":"울산광역시","sigungu":"울주군","dong":"언양읍"},{"name":"범서대리공영주차장","type":"공영","category":"노외","address":"울산광역시 울주군 범서읍 구영리 216-1","lat":35.571476,"lng":129.2432418,"totalSpaces":115,"isFree":false,"operatingDays":"평일+토요일+공휴일","weekdayOpen":"09:00","weekdayClose":"18:00","weekendOpen":"09:00","weekendClose":"18:00","holidayOpen":"09:00","holidayClose":"18:00","feeInfo":"기본 30분 300원 / 추가 10분당 100원","phone":"052-229-9584","updatedAt":"2024-12-13","sido":"울산광역시","sigungu":"울주군","dong":"범서읍"},{"name":"범서 대리마을 공영주차장","type":"공영","category":"노외","address":"울산광역시 울주군 범서읍 구영리 216-1","lat":35.5714201,"lng":129.2432418,"totalSpaces":114,"isFree":false,"operatingDays":"평일+토요일+공휴일","weekdayOpen":"00:00","weekdayClose":"23:59","weekendOpen":"00:00","weekendClose":"23:59","holidayOpen":"00:00","holidayClose":"23:59","feeInfo":"기본 30분 300원 / 추가 30분당 300원","phone":"052-229-9068","updatedAt":"2025-12-01","sido":"울산광역시","sigungu":"울주군","dong":"범서읍"},{"name":"범서 대리 공영","type":"공영","category":"노외","address":"울산광역시 울주군 범서읍 구영리 216-1","lat":35.5714200949,"lng":129.2432417793,"totalSpaces":114,"isFree":false,"operatingDays":"평일+토요일+공휴일","weekdayOpen":"09:00","weekdayClose":"18:00","weekendOpen":"00:00","weekendClose":"23:59","holidayOpen":"00:00","holidayClose":"23:59","feeInfo":"기본 20분 300원 / 추가 10분당 100원","phone":"052-229-9067","updatedAt":"2025-06-05","sido":"울산광역시","sigungu":"울주군","dong":"범서읍"},{"name":"마루공원","type":"공영","category":"노외","address":"울산광역시 울주군 범서읍 천상리 603-6","lat":35.5629671265,"lng":129.2240387775,"totalSpaces":60,"isFree":false,"operatingDays":"평일+토요일+공휴일","weekdayOpen":"00:00","weekdayClose":"23:59","weekendOpen":"00:00","weekendClose":"23:59","holidayOpen":"00:00","holidayClose":"23:59","feeInfo":"기본 20분 300원 / 추가 10분당 100원","phone":"052-211-2225","updatedAt":"2025-06-05","sido":"울산광역시","sigungu":"울주군","dong":"범서읍"},{"name":"두현","type":"공영","category":"노외","address":"울산광역시 울주군 청량읍 문죽리 1210-6","lat":35.5258513727,"lng":129.2519959308,"totalSpaces":48,"isFree":false,"operatingDays":"평일+토요일+공휴일","weekdayOpen":"00:00","weekdayClose":"23:59","weekendOpen":"00:00","weekendClose":"23:59","holidayOpen":"00:00","holidayClose":"23:59","feeInfo":"기본 20분 300원 / 추가 10분당 100원","phone":"052-211-2225","updatedAt":"2025-06-05","sido":"울산광역시","sigungu":"울주군","dong":"청량읍"},{"name":"범서 대동1리","type":"공영","category":"노외","address":"울산광역시 울주군 범서읍 천상리 642-9","lat":35.5621556522,"lng":129.2305920336,"totalSpaces":20,"isFree":false,"operatingDays":"평일+토요일+공휴일","weekdayOpen":"00:00","weekdayClose":"23:59","weekendOpen":"00:00","weekendClose":"23:59","holidayOpen":"00:00","holidayClose":"23:59","feeInfo":"기본 20분 300원 / 추가 10분당 100원","phone":"052-211-2225","updatedAt":"2025-06-05","sido":"울산광역시","sigungu":"울주군","dong":"범서읍"}]}