{"sido":"울산광역시","sigungu":"중구","totalCount":57,"validCount":42,"items":[{"name":"종합운동장 부설주차장","type":"공영","category":"부설","address":"울산광역시 중구 염포로 55","lat":35.5623241,"lng":129.3481435,"totalSpaces":996,"isFree":false,"operatingDays":"평일+토요일+공휴일","weekdayOpen":"00:00","weekdayClose":"23:59","weekendOpen":"00:00","weekendClose":"23:59","holidayOpen":"00:00","holidayClose":"23:59","feeInfo":"기본 30분 500원 / 추가 10분당 200원","phone":"052-290-7200","updatedAt":"2025-12-01","sido":"울산광역시","sigungu":"중구","dong":"남외동"},{"name":"종합운동장 부설주차장","type":"공영","category":"부설","address":"울산광역시 중구 염포로 55","lat":35.5623241,"lng":129.3481434,"totalSpaces":977,"isFree":false,"operatingDays":"평일+토요일+공휴일","weekdayOpen":"00:00","weekdayClose":"23:59","weekendOpen":"00:00","weekendClose":"23:59","holidayOpen":"00:00","holidayClose":"23:59","feeInfo":"기본 30분 500원 / 추가 10분당 200원","phone":"052-290-7200","updatedAt":"2025-04-28","sido":"울산광역시","sigungu":"중구","dong":"남외동"},{"name":"옥교공영주차장","type":"공영","category":"노외","address":"울산광역시 중구 번영로 319","lat":35.55382569,"lng":129.3226325,"totalSpaces":585,"isFree":false,"operatingDays":"평일+토요일+공휴일","weekdayOpen":"00:00","weekdayClose":"23:59","weekendOpen":"00:00","weekendClose":"23:59","holidayOpen":"00:00","holidayClose":"23:59","feeInfo":"기본 30분 500원 / 추가 10분당 200원","phone":"052-211-9746","updatedAt":"2021-01-14","sido":"울산광역시","sigungu":"중구","dong":"옥교동"},{"name":"옥교공영주차장","type":"공영","category":"노외","address":"울산광역시 중구 번영로 319","lat":35.55382471,"lng":129.3226321,"totalSpaces":585,"isFree":false,"operatingDays":"평일+토요일+공휴일","weekdayOpen":"00:00","weekdayClose":"23:59","weekendOpen":"00:00","weekendClose":"23:59","holidayOpen":"00:00","holidayClose":"23:59","feeInfo":"기본 30분 500원 / 추가 10분당 200원","phone":"052-211-9746","updatedAt":"2025-12-01","sido":"울산광역시","sigungu":"중구","dong":"옥교동"},{"name":"성남둔치공영주차장","type":"공영","category":"노외","address":"울산광역시 중구 성남동 215-1","lat":35.55229021,"lng":129.3194658,"totalSpaces":539,"isFree":false,"operatingDays":"평일+토요일+공휴일","weekdayOpen":"00:00","weekdayClose":"23:59","weekendOpen":"00:00","weekendClose":"23:59","holidayOpen":"00:00","holidayClose":"23:59","feeInfo":"기본 30분 500원 / 추가 10분당 200원","phone":"052-211-5948","updatedAt":"2025-12-01","sido":"울산광역시","sigungu":"중구","dong":"성남동"},{"name":"태화강국가정원공영주차장","type":"공영","category":"노상","address":"울산광역시 중구 태화동 107","lat":35.55005056,"lng":129.2990163,"totalSpaces":286,"isFree":false,"operatingDays":"평일+토요일+공휴일","weekdayOpen":"00:00","weekdayClose":"23:59","weekendOpen":"00:00","weekendClose":"23:59","holidayOpen":"00:00","holidayClose":"23:59","feeInfo":"기본 30분 500원 / 추가 10분당 200원","phone":"052-290-7630","updatedAt":"2025-12-01","sido":"울산광역시","sigungu":"중구","dong":"태화동"},{"name":"성남공영주차장","type":"공영","category":"노외","address":"울산광역시 중구 학성로 49-1","lat":35.55418146,"lng":129.3168827,"totalSpaces":268,"isFree":false,"operatingDays":"평일+토요일+공휴일","weekdayOpen":"00:00","weekdayClose":"23:59","weekendOpen":"00:00","weekendClose":"23:59","holidayOpen":"00:00","holidayClose":"23:59","feeInfo":"기본 30분 500원 / 추가 10분당 200원","phone":"052-211-5267","updatedAt":"2021-01-14","sido":"울산광역시","sigungu":"중구","dong":"성남동"},{"name":"문화의거리공영주차장","type":"공영","category":"노외","address":"울산광역시 중구 문화의거리 32(옥교동)","lat":35.55677804,"lng":129.3216724,"totalSpaces":237,"isFree":false,"operatingDays":"평일+토요일+공휴일","weekdayOpen":"00:00","weekdayClose":"23:59","weekendOpen":"00:00","weekendClose":"23:59","holidayOpen":"00:00","holidayClose":"23:59","feeInfo":"기본 30분 500원 / 추가 10분당 200원","phone":"052-211-0208","updatedAt":"2021-01-14","sido":"울산광역시","sigungu":"중구","dong":"옥교동"},{"name":"문화의거리공영주차장","type":"공영","category":"노외","address":"울산광역시 중구 문화의거리 32(옥교동)","lat":35.55677705,"lng":129.3216724,"totalSpaces":237,"isFree":false,"operatingDays":"평일+토요일+공휴일","weekdayOpen":"00:00","weekdayClose":"23:59","weekendOpen":"00:00","weekendClose":"23:59","holidayOpen":"00:00","holidayClose":"23:59","feeInfo":"기본 30분 500원 / 추가 10분당 200원","phone":"052-211-0208","updatedAt":"2025-12-01","sido":"울산광역시","sigungu":"중구","dong":"옥교동"},{"name":"십리대밭먹거리공영주차장","type":"공영","category":"노상","address":"울산광역시 중구 태화강국가정원길 79(태화동)","lat":35.55283798,"lng":129.2843327,"totalSpaces":209,"isFree":false,"operatingDays":"평일+토요일+공휴일","weekdayOpen":"00:00","weekdayClose":"23:59","weekendOpen":"00:00","weekendClose":"23:59","holidayOpen":"00:00","holidayClose":"23:59","feeInfo":"기본 30분 500원 / 추가 10분당 200원","phone":"052-290-7630","updatedAt":"2025-12-01","sido":"울산광역시","sigungu":"중구","dong":"태화동"},{"name":"태화둔치5 공영주차장","type":"공영","category":"노외","address":"울산광역시 중구 태화동 800","lat":35.55155513,"lng":129.285973,"totalSpaces":208,"isFree":false,"operatingDays":"평일+토요일+공휴일","weekdayOpen":"00:00","weekdayClose":"23:59","weekendOpen":"00:00","weekendClose":"23:59","holidayOpen":"00:00","holidayClose":"23:59","feeInfo":"기본 30분 500원 / 추가 10분당 200원","phone":"052-290-7630","updatedAt":"2025-12-01","sido":"울산광역시","sigungu":"중구","dong":"태화동"},{"name":"태화강 국가정원 노상공영주차장(구 삼호교 명정천구간)","type":"공영","category":"노상","address":"울산광역시 중구 내오산로 79","lat":35.55283848,"lng":129.2843347,"totalSpaces":192,"isFree":false,"operatingDays":"평일+토요일+공휴일","weekdayOpen":"13:00","weekdayClose":"19:00","weekendOpen":"13:00","weekendClose":"19:00","holidayOpen":"13:00","holidayClose":"19:00","feeInfo":"기본 30분 500원 / 추가 10분당 200원","phone":"052-290-7630","updatedAt":"2021-01-14","sido":"울산광역시","sigungu":"중구","dong":""},{"name":"성남공영주차장","type":"공영","category":"노외","address":"울산광역시 중구 학성로 49-1","lat":35.55418215,"lng":129.3168845,"totalSpaces":144,"isFree":false,"operatingDays":"평일+토요일+공휴일","weekdayOpen":"00:00","weekdayClose":"23:59","weekendOpen":"00:00","weekendClose":"23:59","holidayOpen":"00:00","holidayClose":"23:59","feeInfo":"기본 30분 500원 / 추가 10분당 200원","phone":"052-211-5267","updatedAt":"2025-12-01","sido":"울산광역시","sigungu":"중구","dong":"성남동"},{"name":"신삼호교","type":"공영","category":"노외","address":"울산광역시 중구 다운동 486","lat":35.55517436,"lng":129.2738616,"totalSpaces":127,"isFree":false,"operatingDays":"평일+토요일+공휴일","weekdayOpen":"00:00","weekdayClose":"23:59","weekendOpen":"00:00","weekendClose":"23:59","holidayOpen":"00:00","holidayClose":"23:59","feeInfo":"기본 30분 500원 / 추가 10분당 200원","phone":"052-290-7630","updatedAt":"2025-12-01","sido":"울산광역시","sigungu":"중구","dong":"다운동"},{"name":"강북공영주차장","type":"공영","category":"노외","address":"울산광역시 중구 옥교동 72-3","lat":35.55221689,"lng":129.322566,"totalSpaces":119,"isFree":false,"operatingDays":"평일+토요일+공휴일","weekdayOpen":"00:00","weekdayClose":"23:59","weekendOpen":"00:00","weekendClose":"23:59","holidayOpen":"00:00","holidayClose":"23:59","feeInfo":"기본 30분 500원 / 추가 10분당 200원","phone":"052-290-7630","updatedAt":"2025-12-01","sido":"울산광역시","sigungu":"중구","dong":"옥교동"},{"name":"반구공영주차장","type":"공영","category":"노외","address":"울산광역시 중구 반구정15길8","lat":35.55884899,"lng":129.3437197,"totalSpaces":106,"isFree":false,"operatingDays":"평일+토요일+공휴일","weekdayOpen":"00:00","weekdayClose":"23:59","weekendOpen":"00:00","weekendClose":"23:59","holidayOpen":"00:00","holidayClose":"23:59","feeInfo":"기본 30분 500원 / 추가 10분당 200원","phone":"052-290-7630","updatedAt":"2021-01-14","sido":"울산광역시","sigungu":"중구","dong":"반구동"},{"name":"반구공영주차장","type":"공영","category":"노외","address":"울산광역시 중구 반구정15길8","lat":35.5588503,"lng":129.3437215,"totalSpaces":106,"isFree":false,"operatingDays":"평일+토요일+공휴일","weekdayOpen":"00:00","weekdayClose":"23:59","weekendOpen":"00:00","weekendClose":"23:59","holidayOpen":"00:00","holidayClose":"23:59","feeInfo":"기본 30분 500원 / 추가 10분당 200원","phone":"052-290-7630","updatedAt":"2025-12-01","sido":"울산광역시","sigungu":"중구","dong":"반구동"},{"name":"태화둔치4 공영주차장","type":"공영","category":"노외","address":"울산광역시 중구 태화동 800","lat":35.55155513,"lng":129.285973,"totalSpaces":93,"isFree":false,"operatingDays":"평일+토요일+공휴일","weekdayOpen":"00:00","weekdayClose":"23:59","weekendOpen":"00:00","weekendClose":"23:59","holidayOpen":"00:00","holidayClose":"23:59","feeInfo":"기본 30분 500원 / 추가 10분당 200원","phone":"052-290-7630","updatedAt":"2025-12-01","sido":"울산광역시","sigungu":"중구","dong":"태화동"},{"name":"우정1공영주차장","type":"공영","category":"노외","address":"울산광역시 중구 우정동 277-1","lat":35.55584692,"lng":129.3128999539,"totalSpaces":86,"isFree":false,"operatingDays":"평일+토요일+공휴일","weekdayOpen":"00:00","weekdayClose":"23:59","weekendOpen":"00:00","weekendClose":"23:59","holidayOpen":"00:00","holidayClose":"23:59","feeInfo":"기본 30분 500원 / 추가 10분당 200원","phone":"052-211-5854","updatedAt":"2025-12-01","sido":"울산광역시","sigungu":"중구","dong":"우정동"},{"name":"태화시장2","type":"공영","category":"노외","address":"울산광역시 중구 태화동 35-16","lat":35.55445653,"lng":129.3064414,"totalSpaces":80,"isFree":false,"operatingDays":"평일+토요일+공휴일","weekdayOpen":"00:00","weekdayClose":"23:59","weekendOpen":"00:00","weekendClose":"23:59","holidayOpen":"00:00","holidayClose":"23:59","feeInfo":"기본 30분 500원 / 추가 10분당 200원","phone":"052-290-7630","updatedAt":"2025-12-01","sido":"울산광역시","sigungu":"중구","dong":"태화동"},{"name":"학성로공영주차장","type":"공영","category":"노상","address":"울산광역시 중구 성남동 198-5","lat":35.55317363,"lng":129.3155259,"totalSpaces":77,"isFree":false,"operatingDays":"평일+토요일+공휴일","weekdayOpen":"00:00","weekdayClose":"23:59","weekendOpen":"00:00","weekendClose":"23:59","holidayOpen":"00:00","holidayClose":"23:59","feeInfo":"기본 30분 500원 / 추가 10분당 200원","phone":"052-290-7630","updatedAt":"2025-12-01","sido":"울산광역시","sigungu":"중구","dong":"성남동"},{"name":"남외공영주차장","type":"공영","category":"노외","address":"울산광역시 중구 남외동 180-7","lat":35.56964702,"lng":129.3487359,"totalSpaces":72,"isFree":false,"operatingDays":"평일+토요일+공휴일","weekdayOpen":"00:00","weekdayClose":"23:59","weekendOpen":"00:00","weekendClose":"23:59","holidayOpen":"00:00","holidayClose":"23:59","feeInfo":"기본 30분 500원 / 추가 10분당 200원","phone":"052-290-7631","updatedAt":"2025-12-01","sido":"울산광역시","sigungu":"중구","dong":"남외동"},{"name":"태화둔치3 공영주차장","type":"공영","category":"노외","address":"울산광역시 중구 태화동 800","lat":35.55155513,"lng":129.285973,"totalSpaces":69,"isFree":false,"operatingDays":"평일+토요일+공휴일","weekdayOpen":"00:00","weekdayClose":"23:59","weekendOpen":"00:00","weekendClose":"23:59","holidayOpen":"00:00","holidayClose":"23:59","feeInfo":"기본 30분 500원 / 추가 10분당 200원","phone":"052-290-7630","updatedAt":"2025-12-01","sido":"울산광역시","sigungu":"중구","dong":"태화동"},{"name":"우정2공영주차장","type":"공영","category":"노외","address":"울산광역시 중구 우정동 252-9","lat":35.55560108,"lng":129.3146237,"totalSpaces":67,"isFree":false,"operatingDays":"평일+토요일+공휴일","weekdayOpen":"00:00","weekdayClose":"23:59","weekendOpen":"00:00","weekendClose":"23:59","holidayOpen":"00:00","holidayClose":"23:59","feeInfo":"기본 30분 500원 / 추가 10분당 200원","phone":"052-211-6818","updatedAt":"2025-12-01","sido":"울산광역시","sigungu":"중구","dong":"우정동"},{"name":"구역전시장공영주차장","type":"공영","category":"노외","address":"울산광역시 중구 학성동 435-13","lat":35.55673455,"lng":129.3288077,"totalSpaces":63,"isFree":false,"operatingDays":"평일+토요일+공휴일","weekdayOpen":"00:00","weekdayClose":"23:59","weekendOpen":"00:00","weekendClose":"23:59","holidayOpen":"00:00","holidayClose":"23:59","feeInfo":"기본 30분 500원 / 추가 10분당 200원","phone":"052-290-7630","updatedAt":"2025-12-01","sido":"울산광역시","sigungu":"중구","dong":"학성동"},{"name":"학성가구거리공영주차장","type":"공영","category":"노상","address":"울산광역시 중구 가구거리 26","lat":35.5539497,"lng":129.3365823,"totalSpaces":60,"isFree":false,"operatingDays":"평일+토요일+공휴일","weekdayOpen":"00:00","weekdayClose":"23:59","weekendOpen":"00:00","weekendClose":"23:59","holidayOpen":"00:00","holidayClose":"23:59","feeInfo":"기본 30분 500원 / 추가 10분당 200원","phone":"052-290-7630","updatedAt":"2025-12-01","sido":"울산광역시","sigungu":"중구","dong":""},{"name":"태화둔치1 공영주차장","type":"공영","category":"노외","address":"울산광역시 중구 다운동 467","lat":35.55468272,"lng":129.2761007,"totalSpaces":52,"isFree":false,"operatingDays":"평일+토요일+공휴일","weekdayOpen":"00:00","weekdayClose":"23:59","weekendOpen":"00:00","weekendClose":"23:59","holidayOpen":"00:00","holidayClose":"23:59","feeInfo":"기본 30분 500원 / 추가 10분당 200원","phone":"052-290-7630","updatedAt":"2025-12-01","sido":"울산광역시","sigungu":"중구","dong":"다운동"},{"name":"번영로공영주차장","type":"공영","category":"노외","address":"울산광역시 중구 번영로 378","lat":35.55796895,"lng":129.327573,"totalSpaces":49,"isFree":false,"operatingDays":"평일+토요일+공휴일","weekdayOpen":"00:00","weekdayClose":"23:59","weekendOpen":"00:00","weekendClose":"23:59","holidayOpen":"00:00","holidayClose":"23:59","feeInfo":"기본 30분 500원 / 추가 10분당 200원","phone":"052-290-7630","updatedAt":"2021-01-14","sido":"울산광역시","sigungu":"중구","dong":"학산동"},{"name":"번영로공영주차장","type":"공영","category":"노외","address":"울산광역시 중구 번영로 378","lat":35.55796799,"lng":129.3275715,"totalSpaces":49,"isFree":false,"operatingDays":"평일+토요일+공휴일","weekdayOpen":"00:00","weekdayClose":"23:59","weekendOpen":"00:00","weekendClose":"23:59","holidayOpen":"00:00","holidayClose":"23:59","feeInfo":"기본 30분 500원 / 추가 10분당 200원","phone":"052-290-7630","updatedAt":"2025-12-01","sido":"울산광역시","sigungu":"중구","dong":"학산동"},{"name":"도화공원","type":"공영","category":"노외","address":"울산광역시 중구 도화골8길14","lat":35.56600855,"lng":129.3319345,"totalSpaces":47,"isFree":false,"operatingDays":"평일+토요일+공휴일","weekdayOpen":"00:00","weekdayClose":"23:59","weekendOpen":"00:00","weekendClose":"23:59","holidayOpen":"00:00","holidayClose":"23:59","feeInfo":"기본 30분 500원 / 추가 10분당 200원","phone":"052-290-7630","updatedAt":"2021-01-14","sido":"울산광역시","sigungu":"중구","dong":"복산동"},{"name":"도화공원","type":"공영","category":"노외","address":"울산광역시 중구 도화골8길14","lat":35.56600779,"lng":129.331932,"totalSpaces":47,"isFree":false,"operatingDays":"평일+토요일+공휴일","weekdayOpen":"00:00","weekdayClose":"23:59","weekendOpen":"00:00","weekendClose":"23:59","holidayOpen":"00:00","holidayClose":"23:59","feeInfo":"기본 30분 500원 / 추가 10분당 200원","phone":"052-290-7630","updatedAt":"2025-12-01","sido":"울산광역시","sigungu":"중구","dong":"복산동"},{"name":"태화둔치2 공영주차장","type":"공영","category":"노외","address":"울산광역시 중구 태화동 800","lat":35.55155513,"lng":129.285973,"totalSpaces":47,"isFree":false,"operatingDays":"평일+토요일+공휴일","weekdayOpen":"00:00","weekdayClose":"23:59","weekendOpen":"00:00","weekendClose":"23:59","holidayOpen":"00:00","holidayClose":"23:59","feeInfo":"기본 30분 500원 / 추가 10분당 200원","phone":"052-290-7630","updatedAt":"2025-12-01","sido":"울산광역시","sigungu":"중구","dong":"태화동"},{"name":"약사복개천공영주차장","type":"공영","category":"노상","address":"울산광역시 중구 남외동 983-14","lat":35.56640872,"lng":129.3450267,"totalSpaces":42,"isFree":false,"operatingDays":"평일+토요일+공휴일","weekdayOpen":"00:00","weekdayClose":"23:59","weekendOpen":"00:00","weekendClose":"23:59","holidayOpen":"00:00","holidayClose":"23:59","feeInfo":"기본 30분 500원 / 추가 10분당 200원","phone":"052-290-7630","updatedAt":"2025-12-01","sido":"울산광역시","sigungu":"중구","dong":"남외동"},{"name":"학성새벽시장공영주차장","type":"공영","category":"노외","address":"울산광역시 중구 학성동 362-2","lat":35.5570625145,"lng":129.3333908055,"totalSpaces":41,"isFree":false,"operatingDays":"평일+토요일+공휴일","weekdayOpen":"00:00","weekdayClose":"23:59","weekendOpen":"00:00","weekendClose":"23:59","holidayOpen":"00:00","holidayClose":"23:59","feeInfo":"기본 30분 500원 / 추가 10분당 200원","phone":"052-290-7630","updatedAt":"2025-12-01","sido":"울산광역시","sigungu":"중구","dong":"학성동"},{"name":"학성새벽시장 노상공영주차장","type":"공영","category":"노상","address":"울산광역시 중구 구교로 71","lat":35.55569498,"lng":129.3322177,"totalSpaces":38,"isFree":false,"operatingDays":"평일+토요일+공휴일","weekdayOpen":"06:00","weekdayClose":"12:00","weekendOpen":"06:00","weekendClose":"12:00","holidayOpen":"06:00","holidayClose":"12:00","feeInfo":"기본 30분 500원 / 추가 10분당 200원","phone":"052-290-7630","updatedAt":"2021-01-14","sido":"울산광역시","sigungu":"중구","dong":"학성동"},{"name":"학성새벽시장 노상공영주차장","type":"공영","category":"노상","address":"울산광역시 중구 구교로 71","lat":35.55569599,"lng":129.3322169,"totalSpaces":38,"isFree":false,"operatingDays":"평일+토요일+공휴일","weekdayOpen":"00:00","weekdayClose":"23:59","weekendOpen":"00:00","weekendClose":"23:59","holidayOpen":"00:00","holidayClose":"23:59","feeInfo":"기본 30분 500원 / 추가 10분당 200원","phone":"052-290-7630","updatedAt":"2025-12-01","sido":"울산광역시","sigungu":"중구","dong":"학성동"},{"name":"선우시장","type":"공영","category":"노외","address":"울산광역시 중구 남외동 389-4","lat":35.57073237,"lng":129.3420548,"totalSpaces":27,"isFree":false,"operatingDays":"평일+토요일+공휴일","weekdayOpen":"00:00","weekdayClose":"23:59","weekendOpen":"00:00","weekendClose":"23:59","holidayOpen":"00:00","holidayClose":"23:59","feeInfo":"기본 30분 500원 / 추가 10분당 200원","phone":"052-290-7630","updatedAt":"2025-12-01","sido":"울산광역시","sigungu":"중구","dong":"남외동"},{"name":"태화시장공영주차장","type":"공영","category":"노외","address":"울산광역시 중구 유곡로 9","lat":35.55625918,"lng":129.3085315,"totalSpaces":22,"isFree":false,"operatingDays":"평일+토요일+공휴일","weekdayOpen":"00:00","weekdayClose":"23:59","weekendOpen":"00:00","weekendClose":"23:59","holidayOpen":"00:00","holidayClose":"23:59","feeInfo":"기본 30분 500원 / 추가 10분당 200원","phone":"052-290-7630","updatedAt":"2021-01-14","sido":"울산광역시","sigungu":"중구","dong":"태화동"},{"name":"태화시장공영주차장","type":"공영","category":"노외","address":"울산광역시 중구 유곡로 9","lat":35.55625916,"lng":129.3085326,"totalSpaces":22,"isFree":false,"operatingDays":"평일+토요일+공휴일","weekdayOpen":"00:00","weekdayClose":"23:59","weekendOpen":"00:00","weekendClose":"23:59","holidayOpen":"00:00","holidayClose":"23:59","feeInfo":"기본 30분 500원 / 추가 10분당 200원","phone":"052-290-7630","updatedAt":"2025-12-01","sido":"울산광역시","sigungu":"중구","dong":"태화동"},{"name":"병영막창거리 공영주차장","type":"공영","category":"노외","address":"울산광역시 중구 곽남17길 7-2","lat":35.56956991,"lng":129.3438027,"totalSpaces":19,"isFree":false,"operatingDays":"평일+토요일+공휴일","weekdayOpen":"15:00","weekdayClose":"21:00","weekendOpen":"15:00","weekendClose":"21:00","holidayOpen":"15:00","holidayClose":"21:00","feeInfo":"기본 30분 500원 / 추가 10분당 200원","phone":"052-290-7630","updatedAt":"2021-01-14","sido":"울산광역시","sigungu":"중구","dong":"남외동"},{"name":"병영막창거리 공영주차장","type":"공영","category":"노외","address":"울산광역시 중구 곽남17길 7-2","lat":35.56956995,"lng":129.3438007,"totalSpaces":19,"isFree":false,"operatingDays":"평일+토요일+공휴일","weekdayOpen":"00:00","weekdayClose":"23:59","weekendOpen":"00:00","weekendClose":"23:59","holidayOpen":"00:00","holidayClose":"23:59","feeInfo":"기본 30분 500원 / 추가 10분당 200원","phone":"052-290-7630","updatedAt":"2025-12-01","sido":"울산광역시","sigungu":"중구","dong":"남외동"},{"name":"울산시장공영주차장","type":"공영","category":"노외","address":"울산광역시 중구 학산동 54-7","lat":35.55577014,"lng":129.3286852,"totalSpaces":14,"isFree":false,"operatingDays":"평일+토요일+공휴일","weekdayOpen":"00:00","weekdayClose":"23:59","weekendOpen":"00:00","weekendClose":"23:59","holidayOpen":"00:00","holidayClose":"23:59","feeInfo":"기본 30분 500원 / 추가 10분당 200원","phone":"052-290-7630","updatedAt":"2025-12-01","sido":"울산광역시","sigungu":"중구","dong":"학산동"}]}