{"sido":"광주광역시","sigungu":"동구","totalCount":207,"validCount":200,"items":[{"name":"황금주차장","type":"민영","category":"부설","address":"광주광역시 동구 서석로 29-2","lat":35.146347,"lng":126.9168091,"totalSpaces":301,"isFree":false,"operatingDays":"평일+토요일+공휴일","weekdayOpen":"00:00","weekdayClose":"23:59","weekendOpen":"00:00","weekendClose":"23:59","holidayOpen":"00:00","holidayClose":"23:59","feeInfo":"기본 30분 1,500원 / 추가 15분당 750원","phone":"062-222-2077","updatedAt":"2025-12-12","sido":"광주광역시","sigungu":"동구","dong":"황금동"},{"name":"호남동 공영주차장","type":"공영","category":"노외","address":"광주광역시 동구 천변우로 365","lat":35.1480873,"lng":126.9114597,"totalSpaces":193,"isFree":false,"operatingDays":"평일+토요일+공휴일","weekdayOpen":"07:00","weekdayClose":"23:00","weekendOpen":"07:00","weekendClose":"23:00","holidayOpen":"07:00","holidayClose":"23:00","feeInfo":"기본 30분 700원 / 추가 15분당 350원","phone":"062-608-2914","updatedAt":"2025-07-10","sido":"광주광역시","sigungu":"동구","dong":"호남동"},{"name":"남광주시장 주차장","type":"공영","category":"노외","address":"광주광역시 동구 제봉로 7","lat":35.13893696,"lng":126.9218729,"totalSpaces":123,"isFree":false,"operatingDays":"평일+토요일+공휴일","weekdayOpen":"09:00","weekdayClose":"19:00","weekendOpen":"09:00","weekendClose":"19:00","holidayOpen":"09:00","holidayClose":"23:59","feeInfo":"기본 30분 700원 / 추가 15분당 350원","phone":"062-608-2704","updatedAt":"2025-07-10","sido":"광주광역시","sigungu":"동구","dong":""},{"name":"한화생명보험㈜광주사옥","type":"민영","category":"노외","address":"광주광역시 동구 중앙로 223","lat":35.15269643,"lng":126.9180494,"totalSpaces":119,"isFree":false,"operatingDays":"평일+토요일+공휴일","weekdayOpen":"00:00","weekdayClose":"23:59","weekendOpen":"00:00","weekendClose":"23:59","holidayOpen":"00:00","holidayClose":"23:59","feeInfo":"기본 30분 800원","phone":"062-608-2914","updatedAt":"2025-07-10","sido":"광주광역시","sigungu":"동구","dong":""},{"name":"금남지하상가 지하주차장","type":"민영","category":"노외","address":"광주광역시 동구 서석로 지하 56","lat":35.14783761,"lng":126.9200208,"totalSpaces":107,"isFree":false,"operatingDays":"평일+토요일+공휴일","weekdayOpen":"00:00","weekdayClose":"23:59","weekendOpen":"00:00","weekendClose":"23:59","holidayOpen":"00:00","holidayClose":"23:59","feeInfo":"기본 30분 800원","phone":"062-608-2914","updatedAt":"2025-07-10","sido":"광주광역시","sigungu":"동구","dong":""},{"name":"빵빵주차장","type":"민영","category":"노외","address":"광주광역시 동구 충장로5가 80-1","lat":35.1508475102,"lng":126.9109494398,"totalSpaces":96,"isFree":false,"operatingDays":"평일+토요일+공휴일","weekdayOpen":"00:00","weekdayClose":"23:59","weekendOpen":"00:00","weekendClose":"23:59","holidayOpen":"00:00","holidayClose":"23:59","feeInfo":"기본 30분 800원","phone":"062-608-2914","updatedAt":"2025-07-10","sido":"광주광역시","sigungu":"동구","dong":"충장로5가"},{"name":"남도주차장","type":"민영","category":"노외","address":"광주광역시 동구 계림동277-1","lat":35.1567189918,"lng":126.9198149619,"totalSpaces":80,"isFree":false,"operatingDays":"평일+토요일+공휴일","weekdayOpen":"00:00","weekdayClose":"23:59","weekendOpen":"00:00","weekendClose":"23:59","holidayOpen":"00:00","holidayClose":"23:59","feeInfo":"기본 30분 800원","phone":"062-608-2914","updatedAt":"2025-07-10","sido":"광주광역시","sigungu":"동구","dong":""},{"name":"시네마주차장","type":"민영","category":"노외","address":"광주광역시 동구 충장로 46번길 14","lat":35.14972498,"lng":126.9121086,"totalSpaces":79,"isFree":false,"operatingDays":"평일+토요일+공휴일","weekdayOpen":"00:00","weekdayClose":"23:59","weekendOpen":"00:00","weekendClose":"23:59","holidayOpen":"00:00","holidayClose":"23:59","feeInfo":"기본 30분 800원","phone":"062-608-2914","updatedAt":"2025-07-10","sido":"광주광역시","sigungu":"동구","dong":""},{"name":"금남전자상가주차장","type":"민영","category":"노외","address":"광주광역시 동구 독립로264번길 12","lat":35.15382435,"lng":126.9120823,"totalSpaces":76,"isFree":false,"operatingDays":"평일+토요일+공휴일","weekdayOpen":"00:00","weekdayClose":"23:59","weekendOpen":"00:00","weekendClose":"23:59","holidayOpen":"00:00","holidayClose":"23:59","feeInfo":"기본 30분 800원","phone":"062-608-2914","updatedAt":"2025-07-10","sido":"광주광역시","sigungu":"동구","dong":"금남로5가"},{"name":"신흥주차장","type":"민영","category":"노외","address":"광주광역시 동구 충장로 46번길 14","lat":35.14972498,"lng":126.9121086,"totalSpaces":72,"isFree":false,"operatingDays":"평일+토요일+공휴일","weekdayOpen":"00:00","weekdayClose":"23:59","weekendOpen":"00:00","weekendClose":"23:59","holidayOpen":"00:00","holidayClose":"23:59","feeInfo":"기본 30분 800원","phone":"062-608-2914","updatedAt":"2025-07-10","sido":"광주광역시","sigungu":"동구","dong":""},{"name":"학동주차장","type":"민영","category":"노외","address":"광주광역시 동구 제봉로 14","lat":35.14044102,"lng":126.9227801,"totalSpaces":67,"isFree":false,"operatingDays":"평일+토요일+공휴일","weekdayOpen":"00:00","weekdayClose":"23:59","weekendOpen":"00:00","weekendClose":"23:59","holidayOpen":"00:00","holidayClose":"23:59","feeInfo":"기본 30분 800원","phone":"062-608-2914","updatedAt":"2025-07-10","sido":"광주광역시","sigungu":"동구","dong":"학동"},{"name":"추선장학회주차장","type":"민영","category":"노외","address":"광주광역시 동구 대인동 163","lat":35.15179429,"lng":126.9169045,"totalSpaces":65,"isFree":false,"operatingDays":"평일+토요일+공휴일","weekdayOpen":"00:00","weekdayClose":"23:59","weekendOpen":"00:00","weekendClose":"23:59","holidayOpen":"00:00","holidayClose":"23:59","feeInfo":"기본 30분 800원","phone":"062-608-2914","updatedAt":"2025-07-10","sido":"광주광역시","sigungu":"동구","dong":"대인동"},{"name":"대인시장 공영주차장 제1주차장","type":"공영","category":"노외","address":"광주광역시 동구 제봉로 194번길 7-1","lat":35.15414128,"lng":126.9166914,"totalSpaces":62,"isFree":false,"operatingDays":"평일+토요일+공휴일","weekdayOpen":"08:00","weekdayClose":"18:00","weekendOpen":"08:00","weekendClose":"20:00","holidayOpen":"08:00","holidayClose":"23:59","feeInfo":"기본 30분 500원 / 추가 15분당 250원","phone":"062-608-2703","updatedAt":"2025-07-10","sido":"광주광역시","sigungu":"동구","dong":""},{"name":"대인시장 공영주차장 제2주차장","type":"공영","category":"노외","address":"광주광역시 동구 제봉로 194번길 10","lat":35.15407676,"lng":126.9172446,"totalSpaces":62,"isFree":false,"operatingDays":"평일+토요일+공휴일","weekdayOpen":"08:00","weekdayClose":"18:00","weekendOpen":"08:00","weekendClose":"20:00","holidayOpen":"08:00","holidayClose":"23:59","feeInfo":"기본 30분 500원 / 추가 15분당 250원","phone":"062-608-2703","updatedAt":"2025-07-10","sido":"광주광역시","sigungu":"동구","dong":""},{"name":"충장주차빌딩","type":"민영","category":"노외","address":"광주광역시 동구 충장로 14-12","lat":35.15213182,"lng":126.9099287,"totalSpaces":62,"isFree":false,"operatingDays":"평일+토요일+공휴일","weekdayOpen":"00:00","weekdayClose":"23:59","weekendOpen":"00:00","weekendClose":"23:59","holidayOpen":"00:00","holidayClose":"23:59","feeInfo":"기본 30분 800원","phone":"062-608-2914","updatedAt":"2025-07-10","sido":"광주광역시","sigungu":"동구","dong":"충장로5가"},{"name":"남도주차장","type":"민영","category":"노외","address":"광주광역시 동구 남동 167-3","lat":35.144702981,"lng":126.9192654711,"totalSpaces":60,"isFree":false,"operatingDays":"평일+토요일+공휴일","weekdayOpen":"00:00","weekdayClose":"23:59","weekendOpen":"00:00","weekendClose":"23:59","holidayOpen":"00:00","holidayClose":"23:59","feeInfo":"기본 30분 800원","phone":"062-608-2914","updatedAt":"2025-07-10","sido":"광주광역시","sigungu":"동구","dong":"남동"},{"name":"한일빌딩주차장","type":"민영","category":"노외","address":"광주광역시 동구 제봉로 27","lat":35.1411286,"lng":126.9211291,"totalSpaces":58,"isFree":false,"operatingDays":"평일+토요일+공휴일","weekdayOpen":"00:00","weekdayClose":"23:59","weekendOpen":"00:00","weekendClose":"23:59","holidayOpen":"00:00","holidayClose":"23:59","feeInfo":"기본 30분 800원","phone":"062-608-2914","updatedAt":"2025-07-10","sido":"광주광역시","sigungu":"동구","dong":"학동"},{"name":"반도주차장","type":"민영","category":"노외","address":"광주광역시 동구 대인동 28-6","lat":35.1538309831,"lng":126.9135256654,"totalSpaces":50,"isFree":false,"operatingDays":"평일+토요일+공휴일","weekdayOpen":"00:00","weekdayClose":"23:59","weekendOpen":"00:00","weekendClose":"23:59","holidayOpen":"00:00","holidayClose":"23:59","feeInfo":"기본 30분 800원","phone":"062-608-2914","updatedAt":"2025-07-10","sido":"광주광역시","sigungu":"동구","dong":"대인동"},{"name":"에스원주차장","type":"민영","category":"노외","address":"광주광역시 동구 문화전당로26번길 6","lat":35.14472985,"lng":126.9202345,"totalSpaces":50,"isFree":false,"operatingDays":"평일+토요일+공휴일","weekdayOpen":"00:00","weekdayClose":"23:59","weekendOpen":"00:00","weekendClose":"23:59","holidayOpen":"00:00","holidayClose":"23:59","feeInfo":"기본 30분 800원","phone":"062-608-2914","updatedAt":"2025-07-10","sido":"광주광역시","sigungu":"동구","dong":"남동"},{"name":"천하주차장","type":"민영","category":"노외","address":"광주광역시 동구 금남로 250-3","lat":35.14743296,"lng":126.9187614,"totalSpaces":46,"isFree":false,"operatingDays":"평일+토요일+공휴일","weekdayOpen":"00:00","weekdayClose":"23:59","weekendOpen":"00:00","weekendClose":"23:59","holidayOpen":"00:00","holidayClose":"23:59","feeInfo":"기본 30분 800원","phone":"062-608-2914","updatedAt":"2025-07-10","sido":"광주광역시","sigungu":"동구","dong":"금남로1가"},{"name":"무등주차빌딩주차장","type":"민영","category":"노외","address":"광주광역시 동구 구성로204번길 15-5","lat":35.15304105,"lng":126.9158628,"totalSpaces":46,"isFree":false,"operatingDays":"평일+토요일+공휴일","weekdayOpen":"00:00","weekdayClose":"23:59","weekendOpen":"00:00","weekendClose":"23:59","holidayOpen":"00:00","holidayClose":"23:59","feeInfo":"기본 30분 800원","phone":"062-608-2914","updatedAt":"2025-07-10","sido":"광주광역시","sigungu":"동구","dong":"대인동"},{"name":"용산역주차장","type":"민영","category":"노외","address":"광주광역시 동구 칠전길 2","lat":35.10703912,"lng":126.9333766,"totalSpaces":46,"isFree":false,"operatingDays":"평일+토요일+공휴일","weekdayOpen":"00:00","weekdayClose":"23:59","weekendOpen":"00:00","weekendClose":"23:59","holidayOpen":"00:00","holidayClose":"23:59","feeInfo":"기본 30분 800원","phone":"062-608-2914","updatedAt":"2025-07-10","sido":"광주광역시","sigungu":"동구","dong":"월남동"},{"name":"전남여고뒤 공영주차장","type":"공영","category":"노상","address":"광주광역시 동구 장동 139","lat":35.1516666,"lng":126.9187879,"totalSpaces":44,"isFree":false,"operatingDays":"평일+토요일+공휴일","weekdayOpen":"08:00","weekdayClose":"20:00","weekendOpen":"08:00","weekendClose":"20:00","holidayOpen":"00:00","holidayClose":"23:59","feeInfo":"기본 30분 700원 / 추가 15분당 350원","phone":"062-608-2914","updatedAt":"2025-07-10","sido":"광주광역시","sigungu":"동구","dong":"장동"},{"name":"전자의거리 공영주차장","type":"공영","category":"노외","address":"광주광역시 동구 대인동 27-9","lat":35.1534911393,"lng":126.9140997384,"totalSpaces":43,"isFree":false,"operatingDays":"평일+토요일+공휴일","weekdayOpen":"09:00","weekdayClose":"19:00","weekendOpen":"09:00","weekendClose":"19:00","holidayOpen":"09:00","holidayClose":"23:59","feeInfo":"기본 30분 700원 / 추가 15분당 350원","phone":"062-608-2703","updatedAt":"2025-07-10","sido":"광주광역시","sigungu":"동구","dong":"대인동"},{"name":"남동주차장","type":"민영","category":"노외","address":"광주광역시 동구 금동 40,41,42","lat":35.14395607,"lng":126.9162898474,"totalSpaces":42,"isFree":false,"operatingDays":"평일+토요일+공휴일","weekdayOpen":"00:00","weekdayClose":"23:59","weekendOpen":"00:00","weekendClose":"23:59","holidayOpen":"00:00","holidayClose":"23:59","feeInfo":"기본 30분 800원","phone":"062-608-2914","updatedAt":"2025-07-10","sido":"광주광역시","sigungu":"동구","dong":"금동"},{"name":"동구주차장","type":"민영","category":"노외","address":"광주광역시 동구 화산로 346","lat":35.11963209,"lng":126.9317208,"totalSpaces":41,"isFree":false,"operatingDays":"평일+토요일+공휴일","weekdayOpen":"00:00","weekdayClose":"23:59","weekendOpen":"00:00","weekendClose":"23:59","holidayOpen":"00:00","holidayClose":"23:59","feeInfo":"기본 30분 800원","phone":"062-608-2914","updatedAt":"2025-07-10","sido":"광주광역시","sigungu":"동구","dong":"용산동"},{"name":"대일주차장","type":"민영","category":"노외","address":"광주광역시 동구 구성로194번길 3","lat":35.15284518,"lng":126.9141817,"totalSpaces":40,"isFree":false,"operatingDays":"평일+토요일+공휴일","weekdayOpen":"00:00","weekdayClose":"23:59","weekendOpen":"00:00","weekendClose":"23:59","holidayOpen":"00:00","holidayClose":"23:59","feeInfo":"기본 30분 800원","phone":"062-608-2914","updatedAt":"2025-07-10","sido":"광주광역시","sigungu":"동구","dong":"대인동"},{"name":"한강주차장","type":"민영","category":"노외","address":"광주광역시 동구 서석로 13","lat":35.14545839,"lng":126.9152781,"totalSpaces":40,"isFree":false,"operatingDays":"평일+토요일+공휴일","weekdayOpen":"00:00","weekdayClose":"23:59","weekendOpen":"00:00","weekendClose":"23:59","holidayOpen":"00:00","holidayClose":"23:59","feeInfo":"기본 30분 800원","phone":"062-608-2914","updatedAt":"2025-07-10","sido":"광주광역시","sigungu":"동구","dong":"불로동"},{"name":"글로벌주차장","type":"민영","category":"노외","address":"광주광역시 동구 금남로 5가 6-2","lat":35.1538528767,"lng":126.9112194012,"totalSpaces":40,"isFree":false,"operatingDays":"평일+토요일+공휴일","weekdayOpen":"00:00","weekdayClose":"23:59","weekendOpen":"00:00","weekendClose":"23:59","holidayOpen":"00:00","holidayClose":"23:59","feeInfo":"기본 30분 800원","phone":"062-608-2914","updatedAt":"2025-07-10","sido":"광주광역시","sigungu":"동구","dong":""},{"name":"광고앞 공영주차장","type":"공영","category":"노상","address":"광주광역시 동구 계림동 505-329","lat":35.16261582,"lng":126.9192819,"totalSpaces":38,"isFree":false,"operatingDays":"평일+토요일+공휴일","weekdayOpen":"08:00","weekdayClose":"20:00","weekendOpen":"08:00","weekendClose":"20:00","holidayOpen":"08:00","holidayClose":"20:00","feeInfo":"기본 30분 700원 / 추가 15분당 350원","phone":"062-608-2914","updatedAt":"2025-07-10","sido":"광주광역시","sigungu":"동구","dong":"계림동"},{"name":"충장로상점가 공영주차장","type":"공영","category":"노외","address":"광주광역시 동구 금남로 5가 124-1","lat":35.1513800839,"lng":126.912573741,"totalSpaces":38,"isFree":false,"operatingDays":"평일+토요일+공휴일","weekdayOpen":"08:00","weekdayClose":"21:00","weekendOpen":"08:00","weekendClose":"21:00","holidayOpen":"08:00","holidayClose":"23:59","feeInfo":"기본 30분 700원 / 추가 15분당 350원","phone":"062-608-2703","updatedAt":"2025-07-10","sido":"광주광역시","sigungu":"동구","dong":""},{"name":"스타주차장","type":"민영","category":"노외","address":"광주광역시 동구 서석로7번길 6-7","lat":35.14607087,"lng":126.9146366,"totalSpaces":36,"isFree":false,"operatingDays":"평일+토요일+공휴일","weekdayOpen":"00:00","weekdayClose":"23:59","weekendOpen":"00:00","weekendClose":"23:59","holidayOpen":"00:00","holidayClose":"23:59","feeInfo":"기본 30분 800원","phone":"062-608-2914","updatedAt":"2025-07-10","sido":"광주광역시","sigungu":"동구","dong":"불로동"},{"name":"안전주차장","type":"민영","category":"노외","address":"광주광역시 동구 문화전당로35번길 23-2","lat":35.14488614,"lng":126.916736,"totalSpaces":36,"isFree":false,"operatingDays":"평일+토요일+공휴일","weekdayOpen":"00:00","weekdayClose":"23:59","weekendOpen":"00:00","weekendClose":"23:59","holidayOpen":"00:00","holidayClose":"23:59","feeInfo":"기본 30분 800원","phone":"062-608-2914","updatedAt":"2025-07-10","sido":"광주광역시","sigungu":"동구","dong":"금동"},{"name":"성인주차장","type":"민영","category":"노외","address":"광주광역시 동구 금남로 189-2","lat":35.1514353,"lng":126.9139725,"totalSpaces":36,"isFree":false,"operatingDays":"평일+토요일+공휴일","weekdayOpen":"00:00","weekdayClose":"23:59","weekendOpen":"00:00","weekendClose":"23:59","holidayOpen":"00:00","holidayClose":"23:59","feeInfo":"기본 30분 800원","phone":"062-608-2914","updatedAt":"2025-07-10","sido":"광주광역시","sigungu":"동구","dong":"금남로5가"},{"name":"남동주차장","type":"민영","category":"노외","address":"광주광역시 동구 문화전당로16번길 4","lat":35.14411706,"lng":126.9204327,"totalSpaces":36,"isFree":false,"operatingDays":"평일+토요일+공휴일","weekdayOpen":"00:00","weekdayClose":"23:59","weekendOpen":"00:00","weekendClose":"23:59","holidayOpen":"00:00","holidayClose":"23:59","feeInfo":"기본 30분 800원","phone":"062-608-2914","updatedAt":"2025-07-10","sido":"광주광역시","sigungu":"동구","dong":"남동"},{"name":"동명주차장","type":"민영","category":"노외","address":"광주광역시 동구 동명동 245-16","lat":35.1538737988,"lng":126.9202349351,"totalSpaces":36,"isFree":false,"operatingDays":"평일+토요일+공휴일","weekdayOpen":"00:00","weekdayClose":"23:59","weekendOpen":"00:00","weekendClose":"23:59","holidayOpen":"00:00","holidayClose":"23:59","feeInfo":"기본 30분 800원","phone":"062-608-2914","updatedAt":"2025-07-10","sido":"광주광역시","sigungu":"동구","dong":"동명동"},{"name":"궁동 공영주차장","type":"공영","category":"노외","address":"광주광역시 동구 제봉로 153-4","lat":35.1509667,"lng":126.9194163,"totalSpaces":35,"isFree":false,"operatingDays":"평일+토요일+공휴일","weekdayOpen":"08:00","weekdayClose":"18:00","weekendOpen":"00:00","weekendClose":"23:59","holidayOpen":"00:00","holidayClose":"23:59","feeInfo":"기본 30분 700원 / 추가 15분당 350원","phone":"062-608-2914","updatedAt":"2025-07-10","sido":"광주광역시","sigungu":"동구","dong":"궁동"},{"name":"동산주차장","type":"민영","category":"노외","address":"광주광역시 동구 금남로 161-26","lat":35.15362829,"lng":126.9126819,"totalSpaces":34,"isFree":false,"operatingDays":"평일+토요일+공휴일","weekdayOpen":"00:00","weekdayClose":"23:59","weekendOpen":"00:00","weekendClose":"23:59","holidayOpen":"00:00","holidayClose":"23:59","feeInfo":"기본 30분 800원","phone":"062-608-2914","updatedAt":"2025-07-10","sido":"광주광역시","sigungu":"동구","dong":""},{"name":"화성주차장","type":"민영","category":"노외","address":"광주광역시 동구 의재로 19","lat":35.13351207,"lng":126.9299185,"totalSpaces":34,"isFree":false,"operatingDays":"평일+토요일+공휴일","weekdayOpen":"00:00","weekdayClose":"23:59","weekendOpen":"00:00","weekendClose":"23:59","holidayOpen":"00:00","holidayClose":"23:59","feeInfo":"기본 30분 800원","phone":"062-608-2914","updatedAt":"2025-07-10","sido":"광주광역시","sigungu":"동구","dong":"학동"},{"name":"금동주차장","type":"민영","category":"노외","address":"광주광역시 동구 금동 153","lat":35.1431477496,"lng":126.9180069273,"totalSpaces":33,"isFree":false,"operatingDays":"평일+토요일+공휴일","weekdayOpen":"00:00","weekdayClose":"23:59","weekendOpen":"00:00","weekendClose":"23:59","holidayOpen":"00:00","holidayClose":"23:59","feeInfo":"기본 30분 800원","phone":"062-608-2914","updatedAt":"2025-07-10","sido":"광주광역시","sigungu":"동구","dong":"금동"},{"name":"그랜드주차장","type":"민영","category":"노외","address":"광주광역시 동구 서석로 24","lat":35.14557462,"lng":126.9165026,"totalSpaces":31,"isFree":false,"operatingDays":"평일+토요일+공휴일","weekdayOpen":"00:00","weekdayClose":"23:59","weekendOpen":"00:00","weekendClose":"23:59","holidayOpen":"00:00","holidayClose":"23:59","feeInfo":"기본 30분 800원","phone":"062-608-2914","updatedAt":"2025-07-10","sido":"광주광역시","sigungu":"동구","dong":"불로동"},{"name":"5가주차장","type":"민영","category":"노외","address":"광주광역시 동구 금남로 154-2","lat":35.15287845,"lng":126.9103449,"totalSpaces":30,"isFree":false,"operatingDays":"평일+토요일+공휴일","weekdayOpen":"00:00","weekdayClose":"23:59","weekendOpen":"00:00","weekendClose":"23:59","holidayOpen":"00:00","holidayClose":"23:59","feeInfo":"기본 30분 800원","phone":"062-608-2914","updatedAt":"2025-07-10","sido":"광주광역시","sigungu":"동구","dong":"금남로5가"},{"name":"월드주차장","type":"민영","category":"노외","address":"광주광역시 동구 구성로 201","lat":35.15374623,"lng":126.9137549,"totalSpaces":30,"isFree":false,"operatingDays":"평일+토요일+공휴일","weekdayOpen":"00:00","weekdayClose":"23:59","weekendOpen":"00:00","weekendClose":"23:59","holidayOpen":"00:00","holidayClose":"23:59","feeInfo":"기본 30분 800원","phone":"062-608-2914","updatedAt":"2025-07-10","sido":"광주광역시","sigungu":"동구","dong":"대인동"},{"name":"보건주차장","type":"민영","category":"노외","address":"광주광역시 동구 양림로119번길 16-1","lat":35.14125039,"lng":126.9199263,"totalSpaces":30,"isFree":false,"operatingDays":"평일+토요일+공휴일","weekdayOpen":"00:00","weekdayClose":"23:59","weekendOpen":"00:00","weekendClose":"23:59","holidayOpen":"00:00","holidayClose":"23:59","feeInfo":"기본 30분 800원","phone":"062-608-2914","updatedAt":"2025-07-10","sido":"광주광역시","sigungu":"동구","dong":"학동"},{"name":"동산주차장","type":"민영","category":"노외","address":"광주광역시 동구 금남로 161-26","lat":35.15362829,"lng":126.9126819,"totalSpaces":30,"isFree":false,"operatingDays":"평일+토요일+공휴일","weekdayOpen":"00:00","weekdayClose":"23:59","weekendOpen":"00:00","weekendClose":"23:59","holidayOpen":"00:00","holidayClose":"23:59","feeInfo":"기본 30분 800원","phone":"062-608-2914","updatedAt":"2025-07-10","sido":"광주광역시","sigungu":"동구","dong":"금남로5가"},{"name":"모든주차장","type":"민영","category":"노외","address":"광주광역시 동구 구성로 143","lat":35.14983897,"lng":126.9102121,"totalSpaces":30,"isFree":false,"operatingDays":"평일+토요일+공휴일","weekdayOpen":"00:00","weekdayClose":"23:59","weekendOpen":"00:00","weekendClose":"23:59","holidayOpen":"00:00","holidayClose":"23:59","feeInfo":"기본 30분 800원","phone":"062-608-2914","updatedAt":"2025-07-10","sido":"광주광역시","sigungu":"동구","dong":"수기동"},{"name":"평화주차장","type":"민영","category":"노외","address":"광주광역시 동구 구성로 277","lat":35.15861067,"lng":126.9200366,"totalSpaces":30,"isFree":false,"operatingDays":"평일+토요일+공휴일","weekdayOpen":"00:00","weekdayClose":"23:59","weekendOpen":"00:00","weekendClose":"23:59","holidayOpen":"00:00","holidayClose":"23:59","feeInfo":"기본 30분 800원","phone":"062-608-2914","updatedAt":"2025-07-10","sido":"광주광역시","sigungu":"동구","dong":"계림동"},{"name":"문화주차장","type":"민영","category":"노외","address":"광주광역시 동구 지산로 73","lat":35.15018533,"lng":126.9328454,"totalSpaces":30,"isFree":false,"operatingDays":"평일+토요일+공휴일","weekdayOpen":"00:00","weekdayClose":"23:59","weekendOpen":"00:00","weekendClose":"23:59","holidayOpen":"00:00","holidayClose":"23:59","feeInfo":"기본 30분 800원","phone":"062-608-2914","updatedAt":"2025-07-10","sido":"광주광역시","sigungu":"동구","dong":""},{"name":"일신주차장","type":"민영","category":"노외","address":"광주광역시 동구 구성로 171","lat":35.15162146,"lng":126.9121285,"totalSpaces":29,"isFree":false,"operatingDays":"평일+토요일+공휴일","weekdayOpen":"00:00","weekdayClose":"23:59","weekendOpen":"00:00","weekendClose":"23:59","holidayOpen":"00:00","holidayClose":"23:59","feeInfo":"기본 30분 800원","phone":"062-608-2914","updatedAt":"2025-07-10","sido":"광주광역시","sigungu":"동구","dong":"충장로5가"},{"name":"지산주차장","type":"민영","category":"노외","address":"광주광역시 동구 금남로 203","lat":35.15051708,"lng":126.9155057,"totalSpaces":29,"isFree":false,"operatingDays":"평일+토요일+공휴일","weekdayOpen":"00:00","weekdayClose":"23:59","weekendOpen":"00:00","weekendClose":"23:59","holidayOpen":"00:00","holidayClose":"23:59","feeInfo":"기본 30분 800원","phone":"062-608-2914","updatedAt":"2025-07-10","sido":"광주광역시","sigungu":"동구","dong":"금남로4가"},{"name":"청송주차장","type":"민영","category":"노외","address":"광주광역시 동구 동계천로95번길 33","lat":35.1542022,"lng":126.9215247,"totalSpaces":28,"isFree":false,"operatingDays":"평일+토요일+공휴일","weekdayOpen":"00:00","weekdayClose":"23:59","weekendOpen":"00:00","weekendClose":"23:59","holidayOpen":"00:00","holidayClose":"23:59","feeInfo":"기본 30분 800원","phone":"062-608-2914","updatedAt":"2025-07-10","sido":"광주광역시","sigungu":"동구","dong":"동명동"},{"name":"전자상가주차장","type":"민영","category":"노외","address":"광주광역시 동구 금남로169번길 12-1","lat":35.15317245,"lng":126.9130356,"totalSpaces":28,"isFree":false,"operatingDays":"평일+토요일+공휴일","weekdayOpen":"00:00","weekdayClose":"23:59","weekendOpen":"00:00","weekendClose":"23:59","holidayOpen":"00:00","holidayClose":"23:59","feeInfo":"기본 30분 800원","phone":"062-608-2914","updatedAt":"2025-07-10","sido":"광주광역시","sigungu":"동구","dong":"금남로5가"},{"name":"남도주차장","type":"민영","category":"노외","address":"광주광역시 동구 문화전당로35번길 35-1","lat":35.14418236,"lng":126.9157052,"totalSpaces":28,"isFree":false,"operatingDays":"평일+토요일+공휴일","weekdayOpen":"00:00","weekdayClose":"23:59","weekendOpen":"00:00","weekendClose":"23:59","holidayOpen":"00:00","holidayClose":"23:59","feeInfo":"기본 30분 800원","phone":"062-608-2914","updatedAt":"2025-07-10","sido":"광주광역시","sigungu":"동구","dong":"금동"},{"name":"다촌주차장","type":"민영","category":"노외","address":"광주광역시 동구 광산동 100-36","lat":35.14591128,"lng":126.9184907,"totalSpaces":28,"isFree":false,"operatingDays":"평일+토요일+공휴일","weekdayOpen":"00:00","weekdayClose":"23:59","weekendOpen":"00:00","weekendClose":"23:59","holidayOpen":"00:00","holidayClose":"23:59","feeInfo":"기본 30분 800원","phone":"062-608-2914","updatedAt":"2025-07-10","sido":"광주광역시","sigungu":"동구","dong":"광산동"},{"name":"혜성주차장","type":"민영","category":"노외","address":"광주광역시 동구 계림동 293-6","lat":35.15767623,"lng":126.9190848,"totalSpaces":26,"isFree":false,"operatingDays":"평일+토요일+공휴일","weekdayOpen":"00:00","weekdayClose":"23:59","weekendOpen":"00:00","weekendClose":"23:59","holidayOpen":"00:00","holidayClose":"23:59","feeInfo":"기본 30분 800원","phone":"062-608-2914","updatedAt":"2025-07-10","sido":"광주광역시","sigungu":"동구","dong":"계림동"},{"name":"바른주차장","type":"민영","category":"노외","address":"광주광역시 동구 준법로 3","lat":35.14961963,"lng":126.9334955,"totalSpaces":26,"isFree":false,"operatingDays":"평일+토요일+공휴일","weekdayOpen":"00:00","weekdayClose":"23:59","weekendOpen":"00:00","weekendClose":"23:59","holidayOpen":"00:00","holidayClose":"23:59","feeInfo":"기본 30분 800원","phone":"062-608-2914","updatedAt":"2025-07-10","sido":"광주광역시","sigungu":"동구","dong":"지산동"},{"name":"금남주차장","type":"민영","category":"노외","address":"광주광역시 동구 중앙로196번길 9","lat":35.15016833,"lng":126.917051,"totalSpaces":26,"isFree":false,"operatingDays":"평일+토요일+공휴일","weekdayOpen":"00:00","weekdayClose":"23:59","weekendOpen":"00:00","weekendClose":"23:59","holidayOpen":"00:00","holidayClose":"23:59","feeInfo":"기본 30분 800원","phone":"062-608-2914","updatedAt":"2025-07-10","sido":"광주광역시","sigungu":"동구","dong":"궁동"},{"name":"금남주차장","type":"민영","category":"노외","address":"광주광역시 동구 중앙로196번길9","lat":35.15016833,"lng":126.917051,"totalSpaces":26,"isFree":false,"operatingDays":"평일+토요일+공휴일","weekdayOpen":"00:00","weekdayClose":"23:59","weekendOpen":"00:00","weekendClose":"23:59","holidayOpen":"00:00","holidayClose":"23:59","feeInfo":"기본 30분 800원","phone":"062-608-2914","updatedAt":"2025-07-10","sido":"광주광역시","sigungu":"동구","dong":"궁동"},{"name":"삼성주차장","type":"민영","category":"노외","address":"광주광역시 동구 구성로152번길 24-1","lat":35.14865455,"lng":126.9126409,"totalSpaces":26,"isFree":false,"operatingDays":"평일+토요일+공휴일","weekdayOpen":"00:00","weekdayClose":"23:59","weekendOpen":"00:00","weekendClose":"23:59","holidayOpen":"00:00","holidayClose":"23:59","feeInfo":"기본 30분 800원","phone":"062-608-2914","updatedAt":"2025-07-10","sido":"광주광역시","sigungu":"동구","dong":"호남동"},{"name":"금남주차장","type":"민영","category":"노외","address":"광주광역시 동구 중앙로196번길 9","lat":35.15016833,"lng":126.917051,"totalSpaces":26,"isFree":false,"operatingDays":"평일+토요일+공휴일","weekdayOpen":"00:00","weekdayClose":"23:59","weekendOpen":"00:00","weekendClose":"23:59","holidayOpen":"00:00","holidayClose":"23:59","feeInfo":"기본 30분 800원","phone":"062-608-2914","updatedAt":"2025-07-10","sido":"광주광역시","sigungu":"동구","dong":"궁동"},{"name":"황금알주차장","type":"민영","category":"노외","address":"광주광역시 동구 서석동 470-31, 470-33","lat":35.1431876459,"lng":126.9238468471,"totalSpaces":26,"isFree":false,"operatingDays":"평일+토요일+공휴일","weekdayOpen":"00:00","weekdayClose":"23:59","weekendOpen":"00:00","weekendClose":"23:59","holidayOpen":"00:00","holidayClose":"23:59","feeInfo":"기본 30분 800원","phone":"062-608-2914","updatedAt":"2025-07-10","sido":"광주광역시","sigungu":"동구","dong":"서석동"},{"name":"건영주차장","type":"민영","category":"노외","address":"광주광역시 동구 계림동 298-1","lat":35.1559899522,"lng":126.9190311759,"totalSpaces":26,"isFree":false,"operatingDays":"평일+토요일+공휴일","weekdayOpen":"00:00","weekdayClose":"23:59","weekendOpen":"00:00","weekendClose":"23:59","holidayOpen":"00:00","holidayClose":"23:59","feeInfo":"기본 30분 800원","phone":"062-608-2914","updatedAt":"2025-07-10","sido":"광주광역시","sigungu":"동구","dong":"계림동"},{"name":"한일주차장","type":"민영","category":"노외","address":"광주광역시 동구 불로동 89","lat":35.145330873,"lng":126.9144201755,"totalSpaces":25,"isFree":false,"operatingDays":"평일+토요일+공휴일","weekdayOpen":"00:00","weekdayClose":"23:59","weekendOpen":"00:00","weekendClose":"23:59","holidayOpen":"00:00","holidayClose":"23:59","feeInfo":"기본 30분 800원","phone":"062-608-2914","updatedAt":"2025-07-10","sido":"광주광역시","sigungu":"동구","dong":"불로동"},{"name":"스마일주차장","type":"민영","category":"노외","address":"광주광역시 동구 호남동 37-10","lat":35.14865428,"lng":126.9126396,"totalSpaces":24,"isFree":false,"operatingDays":"평일+토요일+공휴일","weekdayOpen":"00:00","weekdayClose":"23:59","weekendOpen":"00:00","weekendClose":"23:59","holidayOpen":"00:00","holidayClose":"23:59","feeInfo":"기본 30분 800원 / 추가 15분당 350원","phone":"062-608-2914","updatedAt":"2025-07-10","sido":"광주광역시","sigungu":"동구","dong":"호남동"},{"name":"한성주차장","type":"민영","category":"노외","address":"광주광역시 동구 장동 39-26","lat":35.1524128684,"lng":126.9197389293,"totalSpaces":24,"isFree":false,"operatingDays":"평일+토요일+공휴일","weekdayOpen":"00:00","weekdayClose":"23:59","weekendOpen":"00:00","weekendClose":"23:59","holidayOpen":"00:00","holidayClose":"23:59","feeInfo":"기본 30분 800원","phone":"062-608-2914","updatedAt":"2025-07-10","sido":"광주광역시","sigungu":"동구","dong":"장동"},{"name":"황금알주차장","type":"민영","category":"노외","address":"광주광역시 동구 서석동 470-8,999-14,470-48","lat":35.1433552545,"lng":126.92358123,"totalSpaces":24,"isFree":false,"operatingDays":"평일+토요일+공휴일","weekdayOpen":"00:00","weekdayClose":"23:59","weekendOpen":"00:00","weekendClose":"23:59","holidayOpen":"00:00","holidayClose":"23:59","feeInfo":"기본 30분 800원","phone":"062-608-2914","updatedAt":"2025-07-10","sido":"광주광역시","sigungu":"동구","dong":"서석동"},{"name":"충장주차장","type":"민영","category":"노외","address":"광주광역시 동구 중앙로 165","lat":35.14912023,"lng":126.9134394,"totalSpaces":24,"isFree":false,"operatingDays":"평일+토요일+공휴일","weekdayOpen":"00:00","weekdayClose":"23:59","weekendOpen":"00:00","weekendClose":"23:59","holidayOpen":"00:00","holidayClose":"23:59","feeInfo":"기본 30분 800원","phone":"062-608-2914","updatedAt":"2025-07-10","sido":"광주광역시","sigungu":"동구","dong":"충장로4가"},{"name":"월드주차장","type":"민영","category":"노외","address":"광주광역시 동구 서석로7번길 6-7","lat":35.14607087,"lng":126.9146366,"totalSpaces":24,"isFree":false,"operatingDays":"평일+토요일+공휴일","weekdayOpen":"00:00","weekdayClose":"23:59","weekendOpen":"00:00","weekendClose":"23:59","holidayOpen":"00:00","holidayClose":"23:59","feeInfo":"기본 30분 800원","phone":"062-608-2914","updatedAt":"2025-07-10","sido":"광주광역시","sigungu":"동구","dong":"불로동"},{"name":"삼성주차장","type":"민영","category":"노외","address":"광주광역시 동구 구성로152번길 24-1","lat":35.14865455,"lng":126.9126409,"totalSpaces":23,"isFree":false,"operatingDays":"평일+토요일+공휴일","weekdayOpen":"00:00","weekdayClose":"23:59","weekendOpen":"00:00","weekendClose":"23:59","holidayOpen":"00:00","holidayClose":"23:59","feeInfo":"기본 30분 800원","phone":"062-608-2914","updatedAt":"2025-07-10","sido":"광주광역시","sigungu":"동구","dong":"호남동"},{"name":"덕영주차장","type":"민영","category":"노외","address":"광주광역시 동구 금남로 171-1","lat":35.15249057,"lng":126.9123998,"totalSpaces":23,"isFree":false,"operatingDays":"평일+토요일+공휴일","weekdayOpen":"00:00","weekdayClose":"23:59","weekendOpen":"00:00","weekendClose":"23:59","holidayOpen":"00:00","holidayClose":"23:59","feeInfo":"기본 30분 800원","phone":"062-608-2914","updatedAt":"2025-07-10","sido":"광주광역시","sigungu":"동구","dong":"금남로5가"},{"name":"억만이주차장","type":"민영","category":"노외","address":"광주광역시 동구 중흥로 233","lat":35.15938508,"lng":126.9188812,"totalSpaces":22,"isFree":false,"operatingDays":"평일+토요일+공휴일","weekdayOpen":"00:00","weekdayClose":"23:59","weekendOpen":"00:00","weekendClose":"23:59","holidayOpen":"00:00","holidayClose":"23:59","feeInfo":"기본 30분 800원","phone":"062-608-2914","updatedAt":"2025-07-10","sido":"광주광역시","sigungu":"동구","dong":"계림동"},{"name":"대성주차장","type":"민영","category":"노외","address":"광주광역시 동구 불로동 7","lat":35.14622291,"lng":126.9155099,"totalSpaces":22,"isFree":false,"operatingDays":"평일+토요일+공휴일","weekdayOpen":"00:00","weekdayClose":"23:59","weekendOpen":"00:00","weekendClose":"23:59","holidayOpen":"00:00","holidayClose":"23:59","feeInfo":"기본 30분 800원","phone":"062-608-2914","updatedAt":"2025-07-10","sido":"광주광역시","sigungu":"동구","dong":"불로동"},{"name":"광주주차장","type":"민영","category":"노외","address":"광주광역시 동구 서석로85번길 8-7","lat":35.15008759,"lng":126.9203083,"totalSpaces":22,"isFree":false,"operatingDays":"평일+토요일+공휴일","weekdayOpen":"00:00","weekdayClose":"23:59","weekendOpen":"00:00","weekendClose":"23:59","holidayOpen":"00:00","holidayClose":"23:59","feeInfo":"기본 30분 800원","phone":"062-608-2914","updatedAt":"2025-07-10","sido":"광주광역시","sigungu":"동구","dong":"대의동"},{"name":"시민주차장","type":"민영","category":"노외","address":"광주광역시 동구 대인동 180","lat":35.15268816,"lng":126.9165041,"totalSpaces":21,"isFree":false,"operatingDays":"평일+토요일+공휴일","weekdayOpen":"00:00","weekdayClose":"23:59","weekendOpen":"00:00","weekendClose":"23:59","holidayOpen":"00:00","holidayClose":"23:59","feeInfo":"기본 30분 800원","phone":"062-608-2914","updatedAt":"2025-07-10","sido":"광주광역시","sigungu":"동구","dong":"대인동"},{"name":"명동주차장","type":"민영","category":"노외","address":"광주광역시 동구 서석로7번길 3","lat":35.14529207,"lng":126.9145979,"totalSpaces":21,"isFree":false,"operatingDays":"평일+토요일+공휴일","weekdayOpen":"00:00","weekdayClose":"23:59","weekendOpen":"00:00","weekendClose":"23:59","holidayOpen":"00:00","holidayClose":"23:59","feeInfo":"기본 30분 800원","phone":"062-608-2914","updatedAt":"2025-07-10","sido":"광주광역시","sigungu":"동구","dong":"불로동"},{"name":"동화주차장","type":"민영","category":"노외","address":"광주광역시 동구 서석로85번길 12","lat":35.15030004,"lng":126.9198911,"totalSpaces":21,"isFree":false,"operatingDays":"평일+토요일+공휴일","weekdayOpen":"00:00","weekdayClose":"23:59","weekendOpen":"00:00","weekendClose":"23:59","holidayOpen":"00:00","holidayClose":"23:59","feeInfo":"기본 30분 800원","phone":"062-608-2914","updatedAt":"2025-07-10","sido":"광주광역시","sigungu":"동구","dong":"궁동"},{"name":"전성주차장","type":"민영","category":"노외","address":"광주광역시 동구 천변우로 357","lat":35.14890551,"lng":126.9106916,"totalSpaces":21,"isFree":false,"operatingDays":"평일+토요일+공휴일","weekdayOpen":"00:00","weekdayClose":"23:59","weekendOpen":"00:00","weekendClose":"23:59","holidayOpen":"00:00","holidayClose":"23:59","feeInfo":"기본 30분 800원","phone":"062-608-2914","updatedAt":"2025-07-10","sido":"광주광역시","sigungu":"동구","dong":"수기동"},{"name":"동산주차장","type":"민영","category":"노외","address":"광주광역시 동구 필문대로 149","lat":35.15747859,"lng":126.9318648,"totalSpaces":20,"isFree":false,"operatingDays":"평일+토요일+공휴일","weekdayOpen":"00:00","weekdayClose":"23:59","weekendOpen":"00:00","weekendClose":"23:59","holidayOpen":"00:00","holidayClose":"23:59","feeInfo":"기본 30분 800원","phone":"062-608-2914","updatedAt":"2025-07-10","sido":"광주광역시","sigungu":"동구","dong":"산수동"},{"name":"남선회관주차장","type":"민영","category":"노외","address":"광주광역시 동구 구성로 184-8","lat":35.15192891,"lng":126.9135066,"totalSpaces":20,"isFree":false,"operatingDays":"평일+토요일+공휴일","weekdayOpen":"00:00","weekdayClose":"23:59","weekendOpen":"00:00","weekendClose":"23:59","holidayOpen":"00:00","holidayClose":"23:59","feeInfo":"기본 30분 800원","phone":"062-608-2914","updatedAt":"2025-07-10","sido":"광주광역시","sigungu":"동구","dong":"금남로5가"},{"name":"대연각주차장","type":"민영","category":"노외","address":"광주광역시 동구 제봉로212번길 6","lat":35.15500949,"lng":126.915672,"totalSpaces":20,"isFree":false,"operatingDays":"평일+토요일+공휴일","weekdayOpen":"00:00","weekdayClose":"23:59","weekendOpen":"00:00","weekendClose":"23:59","holidayOpen":"00:00","holidayClose":"23:59","feeInfo":"기본 30분 800원","phone":"062-608-2914","updatedAt":"2025-07-10","sido":"광주광역시","sigungu":"동구","dong":"대인동"},{"name":"중앙로주차장","type":"민영","category":"노외","address":"광주광역시 동구 중앙로 228","lat":35.15257787,"lng":126.9186728,"totalSpaces":20,"isFree":false,"operatingDays":"평일+토요일+공휴일","weekdayOpen":"00:00","weekdayClose":"23:59","weekendOpen":"00:00","weekendClose":"23:59","holidayOpen":"00:00","holidayClose":"23:59","feeInfo":"기본 30분 800원","phone":"062-608-2914","updatedAt":"2025-07-10","sido":"광주광역시","sigungu":"동구","dong":"장동"},{"name":"전일주차장","type":"민영","category":"노외","address":"광주광역시 동구 서석로 67","lat":35.14835987,"lng":126.9192345,"totalSpaces":20,"isFree":false,"operatingDays":"평일+토요일+공휴일","weekdayOpen":"00:00","weekdayClose":"23:59","weekendOpen":"00:00","weekendClose":"23:59","holidayOpen":"00:00","holidayClose":"23:59","feeInfo":"기본 30분 800원","phone":"062-608-2914","updatedAt":"2025-07-10","sido":"광주광역시","sigungu":"동구","dong":"대의동"},{"name":"예술주차장","type":"민영","category":"노외","address":"광주광역시 동구 서석로85번길 21","lat":35.15055523,"lng":126.9187056,"totalSpaces":20,"isFree":false,"operatingDays":"평일+토요일+공휴일","weekdayOpen":"00:00","weekdayClose":"23:59","weekendOpen":"00:00","weekendClose":"23:59","holidayOpen":"00:00","holidayClose":"23:59","feeInfo":"기본 30분 800원","phone":"062-608-2914","updatedAt":"2025-07-10","sido":"광주광역시","sigungu":"동구","dong":"궁동"},{"name":"남경주차장","type":"민영","category":"노외","address":"광주광역시 동구 서석로 11","lat":35.14545827,"lng":126.9150714,"totalSpaces":20,"isFree":false,"operatingDays":"평일+토요일+공휴일","weekdayOpen":"00:00","weekdayClose":"23:59","weekendOpen":"00:00","weekendClose":"23:59","holidayOpen":"00:00","holidayClose":"23:59","feeInfo":"기본 30분 800원","phone":"062-608-2914","updatedAt":"2025-07-10","sido":"광주광역시","sigungu":"동구","dong":"불로동"},{"name":"청운주차장","type":"민영","category":"노외","address":"광주광역시 동구 지산로 55","lat":35.14872498,"lng":126.9325993,"totalSpaces":20,"isFree":false,"operatingDays":"평일+토요일+공휴일","weekdayOpen":"00:00","weekdayClose":"23:59","weekendOpen":"00:00","weekendClose":"23:59","holidayOpen":"00:00","holidayClose":"23:59","feeInfo":"기본 30분 800원","phone":"062-608-2914","updatedAt":"2025-07-10","sido":"광주광역시","sigungu":"동구","dong":"지산동"},{"name":"청송주차장","type":"민영","category":"노외","address":"광주광역시 동구 지산로 61","lat":35.14923294,"lng":126.9328199,"totalSpaces":20,"isFree":false,"operatingDays":"평일+토요일+공휴일","weekdayOpen":"00:00","weekdayClose":"23:59","weekendOpen":"00:00","weekendClose":"23:59","holidayOpen":"00:00","holidayClose":"23:59","feeInfo":"기본 30분 800원","phone":"062-608-2914","updatedAt":"2025-07-10","sido":"광주광역시","sigungu":"동구","dong":"지산동"},{"name":"대인주차장","type":"민영","category":"노외","address":"광주광역시 동구 구성로238번길 24","lat":35.15429433,"lng":126.9190838,"totalSpaces":20,"isFree":false,"operatingDays":"평일+토요일+공휴일","weekdayOpen":"00:00","weekdayClose":"23:59","weekendOpen":"00:00","weekendClose":"23:59","holidayOpen":"00:00","holidayClose":"23:59","feeInfo":"기본 30분 800원","phone":"062-608-2914","updatedAt":"2025-07-10","sido":"광주광역시","sigungu":"동구","dong":"계림동"},{"name":"서광주차장","type":"민영","category":"노외","address":"광주광역시 동구 백서로197번길 5","lat":35.14581073,"lng":126.9246845,"totalSpaces":20,"isFree":false,"operatingDays":"평일+토요일+공휴일","weekdayOpen":"00:00","weekdayClose":"23:59","weekendOpen":"00:00","weekendClose":"23:59","holidayOpen":"00:00","holidayClose":"23:59","feeInfo":"기본 30분 800원","phone":"062-608-2914","updatedAt":"2025-07-10","sido":"광주광역시","sigungu":"동구","dong":"서석동"},{"name":"광일주차장","type":"민영","category":"노외","address":"광주광역시 동구 필문대로153번길 5-3","lat":35.15719747,"lng":126.932067,"totalSpaces":20,"isFree":false,"operatingDays":"평일+토요일+공휴일","weekdayOpen":"00:00","weekdayClose":"23:59","weekendOpen":"00:00","weekendClose":"23:59","holidayOpen":"00:00","holidayClose":"23:59","feeInfo":"기본 30분 800원","phone":"062-608-2914","updatedAt":"2025-07-10","sido":"광주광역시","sigungu":"동구","dong":"산수동"},{"name":"예술의거리주차장","type":"민영","category":"노외","address":"광주광역시 동구 예술길 27-6","lat":35.14974446,"lng":126.9193824,"totalSpaces":20,"isFree":false,"operatingDays":"평일+토요일+공휴일","weekdayOpen":"00:00","weekdayClose":"23:59","weekendOpen":"00:00","weekendClose":"23:59","holidayOpen":"00:00","holidayClose":"23:59","feeInfo":"기본 30분 800원","phone":"062-608-2914","updatedAt":"2025-07-10","sido":"광주광역시","sigungu":"동구","dong":"대의동"},{"name":"중앙주차장","type":"민영","category":"노외","address":"광주광역시 동구 호남동 48","lat":35.1471027872,"lng":126.9122462198,"totalSpaces":20,"isFree":false,"operatingDays":"평일+토요일+공휴일","weekdayOpen":"00:00","weekdayClose":"23:59","weekendOpen":"00:00","weekendClose":"23:59","holidayOpen":"00:00","holidayClose":"23:59","feeInfo":"기본 30분 800원","phone":"062-608-2914","updatedAt":"2025-07-10","sido":"광주광역시","sigungu":"동구","dong":"호남동"},{"name":"매일주차장","type":"민영","category":"노외","address":"광주광역시 동구 구성로194번길 3","lat":35.15284518,"lng":126.9141817,"totalSpaces":20,"isFree":false,"operatingDays":"평일+토요일+공휴일","weekdayOpen":"00:00","weekdayClose":"23:59","weekendOpen":"00:00","weekendClose":"23:59","holidayOpen":"00:00","holidayClose":"23:59","feeInfo":"기본 30분 800원","phone":"062-608-2914","updatedAt":"2025-07-10","sido":"광주광역시","sigungu":"동구","dong":""},{"name":"동명주차장","type":"민영","category":"노외","address":"광주광역시 동구 지산로 73","lat":35.15018533,"lng":126.9328454,"totalSpaces":20,"isFree":false,"operatingDays":"평일+토요일+공휴일","weekdayOpen":"00:00","weekdayClose":"23:59","weekendOpen":"00:00","weekendClose":"23:59","holidayOpen":"00:00","holidayClose":"23:59","feeInfo":"기본 30분 800원","phone":"062-608-2914","updatedAt":"2025-07-10","sido":"광주광역시","sigungu":"동구","dong":"지산동"},{"name":"세성주차장","type":"민영","category":"노외","address":"광주광역시 동구 동계천로 22","lat":35.15569751,"lng":126.9147889,"totalSpaces":19,"isFree":false,"operatingDays":"평일+토요일+공휴일","weekdayOpen":"00:00","weekdayClose":"23:59","weekendOpen":"00:00","weekendClose":"23:59","holidayOpen":"00:00","holidayClose":"23:59","feeInfo":"기본 30분 800원","phone":"062-608-2914","updatedAt":"2025-07-10","sido":"광주광역시","sigungu":"동구","dong":"대인동"},{"name":"궁동주차장","type":"민영","category":"노외","address":"광주광역시 동구 궁동 17-7","lat":35.1509296221,"lng":126.9197099481,"totalSpaces":19,"isFree":false,"operatingDays":"평일+토요일+공휴일","weekdayOpen":"00:00","weekdayClose":"23:59","weekendOpen":"00:00","weekendClose":"23:59","holidayOpen":"00:00","holidayClose":"23:59","feeInfo":"기본 30분 800원","phone":"062-608-2914","updatedAt":"2025-07-10","sido":"광주광역시","sigungu":"동구","dong":"궁동"},{"name":"담양주차장","type":"민영","category":"노외","address":"광주광역시 동구 필문대로165번길 1-3","lat":35.15622777,"lng":126.9323487,"totalSpaces":18,"isFree":false,"operatingDays":"평일+토요일+공휴일","weekdayOpen":"00:00","weekdayClose":"23:59","weekendOpen":"00:00","weekendClose":"23:59","holidayOpen":"00:00","holidayClose":"23:59","feeInfo":"기본 30분 800원","phone":"062-608-2914","updatedAt":"2025-07-10","sido":"광주광역시","sigungu":"동구","dong":"산수동"},{"name":"성일주차장","type":"민영","category":"노외","address":"광주광역시 동구 동계천로 22","lat":35.15569751,"lng":126.9147889,"totalSpaces":18,"isFree":false,"operatingDays":"평일+토요일+공휴일","weekdayOpen":"00:00","weekdayClose":"23:59","weekendOpen":"00:00","weekendClose":"23:59","holidayOpen":"00:00","holidayClose":"23:59","feeInfo":"기본 30분 800원","phone":"062-608-2914","updatedAt":"2025-07-10","sido":"광주광역시","sigungu":"동구","dong":"대인동"},{"name":"삼복주차장","type":"민영","category":"노외","address":"광주광역시 동구 중앙로 253-2","lat":35.15448253,"lng":126.9201679,"totalSpaces":18,"isFree":false,"operatingDays":"평일+토요일+공휴일","weekdayOpen":"00:00","weekdayClose":"23:59","weekendOpen":"00:00","weekendClose":"23:59","holidayOpen":"00:00","holidayClose":"23:59","feeInfo":"기본 30분 800원","phone":"062-608-2914","updatedAt":"2025-07-10","sido":"광주광역시","sigungu":"동구","dong":"계림동"},{"name":"현대주차장","type":"민영","category":"노외","address":"광주광역시 동구 백서로 129","lat":35.14215143,"lng":126.9194382,"totalSpaces":18,"isFree":false,"operatingDays":"평일+토요일+공휴일","weekdayOpen":"00:00","weekdayClose":"23:59","weekendOpen":"00:00","weekendClose":"23:59","holidayOpen":"00:00","holidayClose":"23:59","feeInfo":"기본 30분 800원","phone":"062-608-2914","updatedAt":"2025-07-10","sido":"광주광역시","sigungu":"동구","dong":"금동"},{"name":"신화주차장","type":"민영","category":"노외","address":"광주광역시 동구 문화전당로23번길 7","lat":35.144101,"lng":126.9187426,"totalSpaces":18,"isFree":false,"operatingDays":"평일+토요일+공휴일","weekdayOpen":"00:00","weekdayClose":"23:59","weekendOpen":"00:00","weekendClose":"23:59","holidayOpen":"00:00","holidayClose":"23:59","feeInfo":"기본 30분 800원","phone":"062-608-2914","updatedAt":"2025-07-10","sido":"광주광역시","sigungu":"동구","dong":"남동"},{"name":"황금알주차장","type":"민영","category":"노외","address":"광주광역시 동구 서석동 125-1","lat":35.1433723916,"lng":126.9224263704,"totalSpaces":18,"isFree":false,"operatingDays":"평일+토요일+공휴일","weekdayOpen":"00:00","weekdayClose":"23:59","weekendOpen":"00:00","weekendClose":"23:59","holidayOpen":"00:00","holidayClose":"23:59","feeInfo":"기본 30분 800원","phone":"062-608-2914","updatedAt":"2025-07-10","sido":"광주광역시","sigungu":"동구","dong":"서석동"},{"name":"대광주차장","type":"민영","category":"노외","address":"광주광역시 동구 문화전당로26번길 4","lat":35.14476581,"lng":126.920094,"totalSpaces":18,"isFree":false,"operatingDays":"평일+토요일+공휴일","weekdayOpen":"00:00","weekdayClose":"23:59","weekendOpen":"00:00","weekendClose":"23:59","holidayOpen":"00:00","holidayClose":"23:59","feeInfo":"기본 30분 800원","phone":"062-608-2914","updatedAt":"2025-07-10","sido":"광주광역시","sigungu":"동구","dong":"남동"},{"name":"태능주차장","type":"민영","category":"노외","address":"광주광역시 동구 중앙로 149-10","lat":35.14832973,"lng":126.912176,"totalSpaces":18,"isFree":false,"operatingDays":"평일+토요일+공휴일","weekdayOpen":"00:00","weekdayClose":"23:59","weekendOpen":"00:00","weekendClose":"23:59","holidayOpen":"00:00","holidayClose":"23:59","feeInfo":"기본 30분 800원","phone":"062-608-2914","updatedAt":"2025-07-10","sido":"광주광역시","sigungu":"동구","dong":"호남동"},{"name":"계림동홈플러스앞 공영주차장","type":"공영","category":"노상","address":"광주광역시 동구 독립로 366","lat":35.16300267,"lng":126.9155628,"totalSpaces":18,"isFree":false,"operatingDays":"평일+토요일+공휴일","weekdayOpen":"08:00","weekdayClose":"18:00","weekendOpen":"08:00","weekendClose":"18:00","holidayOpen":"08:00","holidayClose":"18:00","feeInfo":"기본 30분 700원 / 추가 15분당 350원","phone":"062-608-2914","updatedAt":"2025-07-10","sido":"광주광역시","sigungu":"동구","dong":"계림동"},{"name":"엑스포주차장","type":"민영","category":"노외","address":"광주광역시 동구 동명로 51","lat":35.15168145,"lng":126.926413,"totalSpaces":18,"isFree":false,"operatingDays":"평일+토요일+공휴일","weekdayOpen":"00:00","weekdayClose":"23:59","weekendOpen":"00:00","weekendClose":"23:59","holidayOpen":"00:00","holidayClose":"23:59","feeInfo":"기본 30분 800원","phone":"062-608-2914","updatedAt":"2025-07-10","sido":"광주광역시","sigungu":"동구","dong":"동명동"},{"name":"금호주차장","type":"민영","category":"노외","address":"광주광역시 동구 충장로5가 100-6","lat":35.1525101983,"lng":126.9089751123,"totalSpaces":18,"isFree":false,"operatingDays":"평일+토요일+공휴일","weekdayOpen":"00:00","weekdayClose":"23:59","weekendOpen":"00:00","weekendClose":"23:59","holidayOpen":"00:00","holidayClose":"23:59","feeInfo":"기본 30분 800원","phone":"062-608-2914","updatedAt":"2025-07-10","sido":"광주광역시","sigungu":"동구","dong":"충장로5가"},{"name":"현대주차장","type":"민영","category":"노외","address":"광주광역시 동구 백서로 129","lat":35.14215143,"lng":126.9194382,"totalSpaces":18,"isFree":false,"operatingDays":"평일+토요일+공휴일","weekdayOpen":"00:00","weekdayClose":"23:59","weekendOpen":"00:00","weekendClose":"23:59","holidayOpen":"00:00","holidayClose":"23:59","feeInfo":"기본 30분 800원","phone":"062-608-2914","updatedAt":"2025-07-10","sido":"광주광역시","sigungu":"동구","dong":"금동"},{"name":"효성주차장","type":"민영","category":"노외","address":"광주광역시 동구 호남동 39-11","lat":35.1474139089,"lng":126.9130074863,"totalSpaces":17,"isFree":false,"operatingDays":"평일+토요일+공휴일","weekdayOpen":"00:00","weekdayClose":"23:59","weekendOpen":"00:00","weekendClose":"23:59","holidayOpen":"00:00","holidayClose":"23:59","feeInfo":"기본 30분 800원","phone":"062-608-2914","updatedAt":"2025-07-10","sido":"광주광역시","sigungu":"동구","dong":"호남동"},{"name":"G.J관광호텔주차장","type":"민영","category":"노외","address":"광주광역시 동구 구성로 143","lat":35.14983897,"lng":126.9102121,"totalSpaces":17,"isFree":false,"operatingDays":"평일+토요일+공휴일","weekdayOpen":"00:00","weekdayClose":"23:59","weekendOpen":"00:00","weekendClose":"23:59","holidayOpen":"00:00","holidayClose":"23:59","feeInfo":"기본 30분 800원","phone":"062-608-2914","updatedAt":"2025-07-10","sido":"광주광역시","sigungu":"동구","dong":"수기동"},{"name":"광명주차장","type":"민영","category":"노외","address":"광주광역시 동구 중앙로 276","lat":35.15630373,"lng":126.920851,"totalSpaces":17,"isFree":false,"operatingDays":"평일+토요일+공휴일","weekdayOpen":"00:00","weekdayClose":"23:59","weekendOpen":"00:00","weekendClose":"23:59","holidayOpen":"00:00","holidayClose":"23:59","feeInfo":"기본 30분 800원","phone":"062-608-2914","updatedAt":"2025-07-10","sido":"광주광역시","sigungu":"동구","dong":"계림동"},{"name":"춘추주차장","type":"민영","category":"노외","address":"광주광역시 동구 문화전당로26번길 8","lat":35.14493188,"lng":126.9204143,"totalSpaces":17,"isFree":false,"operatingDays":"평일+토요일+공휴일","weekdayOpen":"00:00","weekdayClose":"23:59","weekendOpen":"00:00","weekendClose":"23:59","holidayOpen":"00:00","holidayClose":"23:59","feeInfo":"기본 30분 800원","phone":"062-608-2914","updatedAt":"2025-07-10","sido":"광주광역시","sigungu":"동구","dong":"남동"},{"name":"장동주차장","type":"민영","category":"노외","address":"광주광역시 동구 동계천로 129-3","lat":35.14981602,"lng":126.9240951,"totalSpaces":17,"isFree":false,"operatingDays":"평일+토요일+공휴일","weekdayOpen":"00:00","weekdayClose":"23:59","weekendOpen":"00:00","weekendClose":"23:59","holidayOpen":"00:00","holidayClose":"23:59","feeInfo":"기본 30분 800원","phone":"062-608-2914","updatedAt":"2025-07-10","sido":"광주광역시","sigungu":"동구","dong":"동명동"},{"name":"파레스주차장","type":"민영","category":"노외","address":"광주광역시 동구 서석로7번길 15-2","lat":35.14618208,"lng":126.9138419,"totalSpaces":17,"isFree":false,"operatingDays":"평일+토요일+공휴일","weekdayOpen":"00:00","weekdayClose":"23:59","weekendOpen":"00:00","weekendClose":"23:59","holidayOpen":"00:00","holidayClose":"23:59","feeInfo":"기본 30분 800원","phone":"062-608-2914","updatedAt":"2025-07-10","sido":"광주광역시","sigungu":"동구","dong":"불로동"},{"name":"학동주차장","type":"민영","category":"노외","address":"광주광역시 동구 양림로115번길 20-1","lat":35.14098284,"lng":126.9188073,"totalSpaces":17,"isFree":false,"operatingDays":"평일+토요일+공휴일","weekdayOpen":"00:00","weekdayClose":"23:59","weekendOpen":"00:00","weekendClose":"23:59","holidayOpen":"00:00","holidayClose":"23:59","feeInfo":"기본 30분 800원","phone":"062-608-2914","updatedAt":"2025-07-10","sido":"광주광역시","sigungu":"동구","dong":"학동"},{"name":"동아주차장","type":"민영","category":"노외","address":"광주광역시 동구 중앙로 273","lat":35.15615196,"lng":126.9203375,"totalSpaces":16,"isFree":false,"operatingDays":"평일+토요일+공휴일","weekdayOpen":"00:00","weekdayClose":"23:59","weekendOpen":"00:00","weekendClose":"23:59","holidayOpen":"00:00","holidayClose":"23:59","feeInfo":"기본 30분 800원","phone":"062-608-2914","updatedAt":"2025-07-10","sido":"광주광역시","sigungu":"동구","dong":"계림동"},{"name":"금촌주차장","type":"민영","category":"노외","address":"광주광역시 동구 경양로277번길 30","lat":35.15779224,"lng":126.9200418,"totalSpaces":16,"isFree":false,"operatingDays":"평일+토요일+공휴일","weekdayOpen":"00:00","weekdayClose":"23:59","weekendOpen":"00:00","weekendClose":"23:59","holidayOpen":"00:00","holidayClose":"23:59","feeInfo":"기본 30분 800원","phone":"062-608-2914","updatedAt":"2025-07-10","sido":"광주광역시","sigungu":"동구","dong":"계림동"},{"name":"동산주차장","type":"민영","category":"노외","address":"광주광역시 동구 동명로110번길 4","lat":35.15039766,"lng":126.9321516,"totalSpaces":16,"isFree":false,"operatingDays":"평일+토요일+공휴일","weekdayOpen":"00:00","weekdayClose":"23:59","weekendOpen":"00:00","weekendClose":"23:59","holidayOpen":"00:00","holidayClose":"23:59","feeInfo":"기본 30분 800원","phone":"062-608-2914","updatedAt":"2025-07-10","sido":"광주광역시","sigungu":"동구","dong":"지산동"},{"name":"중앙주차장","type":"민영","category":"노외","address":"광주광역시 동구 서석로85번길 1","lat":35.14938104,"lng":126.9204802,"totalSpaces":16,"isFree":false,"operatingDays":"평일+토요일+공휴일","weekdayOpen":"00:00","weekdayClose":"23:59","weekendOpen":"00:00","weekendClose":"23:59","holidayOpen":"00:00","holidayClose":"23:59","feeInfo":"기본 30분 800원","phone":"062-608-2914","updatedAt":"2025-07-10","sido":"광주광역시","sigungu":"동구","dong":"대의동"},{"name":"매일주차장","type":"민영","category":"노외","address":"광주광역시 동구 대인동 153","lat":35.1519668,"lng":126.9161142,"totalSpaces":16,"isFree":false,"operatingDays":"평일+토요일+공휴일","weekdayOpen":"00:00","weekdayClose":"23:59","weekendOpen":"00:00","weekendClose":"23:59","holidayOpen":"00:00","holidayClose":"23:59","feeInfo":"기본 30분 800원","phone":"062-608-2914","updatedAt":"2025-07-10","sido":"광주광역시","sigungu":"동구","dong":"대인동"},{"name":"삼성주차장","type":"민영","category":"노외","address":"광주광역시 동구 서석로 31-3","lat":35.14633577,"lng":126.9170944,"totalSpaces":16,"isFree":false,"operatingDays":"평일+토요일+공휴일","weekdayOpen":"00:00","weekdayClose":"23:59","weekendOpen":"00:00","weekendClose":"23:59","holidayOpen":"00:00","holidayClose":"23:59","feeInfo":"기본 30분 800원","phone":"062-608-2914","updatedAt":"2025-07-10","sido":"광주광역시","sigungu":"동구","dong":"황금동"},{"name":"도원주차장","type":"민영","category":"노외","address":"광주광역시 동구 서석동 91","lat":35.14528635,"lng":126.9221741,"totalSpaces":16,"isFree":false,"operatingDays":"평일+토요일+공휴일","weekdayOpen":"00:00","weekdayClose":"23:59","weekendOpen":"00:00","weekendClose":"23:59","holidayOpen":"00:00","holidayClose":"23:59","feeInfo":"기본 30분 800원","phone":"062-608-2914","updatedAt":"2025-07-10","sido":"광주광역시","sigungu":"동구","dong":"서석동"},{"name":"계8주차장","type":"민영","category":"노외","address":"광주광역시 동구 계림동 489-15","lat":35.15763804,"lng":126.9168548,"totalSpaces":16,"isFree":false,"operatingDays":"평일+토요일+공휴일","weekdayOpen":"00:00","weekdayClose":"23:59","weekendOpen":"00:00","weekendClose":"23:59","holidayOpen":"00:00","holidayClose":"23:59","feeInfo":"기본 30분 800원","phone":"062-608-2914","updatedAt":"2025-07-10","sido":"광주광역시","sigungu":"동구","dong":"계림동"},{"name":"지산주차장","type":"민영","category":"노외","address":"광주광역시 동구 지산동 716-31,32,33,37","lat":35.149888944,"lng":126.9318117868,"totalSpaces":16,"isFree":false,"operatingDays":"평일+토요일+공휴일","weekdayOpen":"00:00","weekdayClose":"23:59","weekendOpen":"00:00","weekendClose":"23:59","holidayOpen":"00:00","holidayClose":"23:59","feeInfo":"기본 30분 800원","phone":"062-608-2914","updatedAt":"2025-07-10","sido":"광주광역시","sigungu":"동구","dong":"지산동"},{"name":"금오주차장","type":"민영","category":"노외","address":"광주광역시 동구 금남로 165","lat":35.15303487,"lng":126.912228,"totalSpaces":15,"isFree":false,"operatingDays":"평일+토요일+공휴일","weekdayOpen":"00:00","weekdayClose":"23:59","weekendOpen":"00:00","weekendClose":"23:59","holidayOpen":"00:00","holidayClose":"23:59","feeInfo":"기본 30분 800원","phone":"062-608-2914","updatedAt":"2025-07-10","sido":"광주광역시","sigungu":"동구","dong":"금남로5가"},{"name":"서석주차장","type":"민영","category":"노외","address":"광주광역시 동구 백서로175번길 15-1","lat":35.14482878,"lng":126.9226794,"totalSpaces":15,"isFree":false,"operatingDays":"평일+토요일+공휴일","weekdayOpen":"00:00","weekdayClose":"23:59","weekendOpen":"00:00","weekendClose":"23:59","holidayOpen":"00:00","holidayClose":"23:59","feeInfo":"기본 30분 800원","phone":"062-608-2914","updatedAt":"2025-07-10","sido":"광주광역시","sigungu":"동구","dong":"서석동"},{"name":"대동주차장","type":"민영","category":"노외","address":"광주광역시 동구 제봉로 191","lat":35.15309177,"lng":126.916214,"totalSpaces":15,"isFree":false,"operatingDays":"평일+토요일+공휴일","weekdayOpen":"00:00","weekdayClose":"23:59","weekendOpen":"00:00","weekendClose":"23:59","holidayOpen":"00:00","holidayClose":"23:59","feeInfo":"기본 30분 800원","phone":"062-608-2914","updatedAt":"2025-07-10","sido":"광주광역시","sigungu":"동구","dong":"대인동"},{"name":"영빈주차장","type":"민영","category":"노외","address":"광주광역시 동구 동명로 103","lat":35.15089864,"lng":126.9318308,"totalSpaces":15,"isFree":false,"operatingDays":"평일+토요일+공휴일","weekdayOpen":"00:00","weekdayClose":"23:59","weekendOpen":"00:00","weekendClose":"23:59","holidayOpen":"00:00","holidayClose":"23:59","feeInfo":"기본 30분 800원","phone":"062-608-2914","updatedAt":"2025-07-10","sido":"광주광역시","sigungu":"동구","dong":""},{"name":"성진주차장","type":"민영","category":"노외","address":"광주광역시 동구 서석로85번길 3","lat":35.14948904,"lng":126.9202387,"totalSpaces":15,"isFree":false,"operatingDays":"평일+토요일+공휴일","weekdayOpen":"00:00","weekdayClose":"23:59","weekendOpen":"00:00","weekendClose":"23:59","holidayOpen":"00:00","holidayClose":"23:59","feeInfo":"기본 30분 800원","phone":"062-608-2914","updatedAt":"2025-07-10","sido":"광주광역시","sigungu":"동구","dong":"대의동"},{"name":"자연생활주차장","type":"민영","category":"노외","address":"광주광역시 동구 서석로 85번길 16","lat":35.15034306,"lng":126.9195223,"totalSpaces":15,"isFree":false,"operatingDays":"평일+토요일+공휴일","weekdayOpen":"00:00","weekdayClose":"23:59","weekendOpen":"00:00","weekendClose":"23:59","holidayOpen":"00:00","holidayClose":"23:59","feeInfo":"기본 30분 800원","phone":"062-608-2914","updatedAt":"2025-07-10","sido":"광주광역시","sigungu":"동구","dong":"궁동"},{"name":"회관주차장","type":"민영","category":"노외","address":"광주광역시 동구 구성로204번길 8","lat":35.15304059,"lng":126.9152044,"totalSpaces":15,"isFree":false,"operatingDays":"평일+토요일+공휴일","weekdayOpen":"00:00","weekdayClose":"23:59","weekendOpen":"00:00","weekendClose":"23:59","holidayOpen":"00:00","holidayClose":"23:59","feeInfo":"기본 30분 800원","phone":"062-608-2914","updatedAt":"2025-07-10","sido":"광주광역시","sigungu":"동구","dong":""},{"name":"정암주차장","type":"민영","category":"노외","address":"광주광역시 동구 지산동 709-19","lat":35.1491474876,"lng":126.9339815242,"totalSpaces":15,"isFree":false,"operatingDays":"평일+토요일+공휴일","weekdayOpen":"00:00","weekdayClose":"23:59","weekendOpen":"00:00","weekendClose":"23:59","holidayOpen":"00:00","holidayClose":"23:59","feeInfo":"기본 30분 800원","phone":"062-608-2914","updatedAt":"2025-07-10","sido":"광주광역시","sigungu":"동구","dong":"지산동"},{"name":"동문주차장","type":"민영","category":"노외","address":"광주광역시 동구 동계천로 78","lat":35.15269027,"lng":126.919621,"totalSpaces":14,"isFree":false,"operatingDays":"평일+토요일+공휴일","weekdayOpen":"00:00","weekdayClose":"23:59","weekendOpen":"00:00","weekendClose":"23:59","holidayOpen":"00:00","holidayClose":"23:59","feeInfo":"기본 30분 800원","phone":"062-608-2914","updatedAt":"2025-07-10","sido":"광주광역시","sigungu":"동구","dong":"장동"},{"name":"금촌주차장","type":"민영","category":"노외","address":"광주광역시 동구 금남로4가 38,37-4","lat":35.1511355454,"lng":126.9152684564,"totalSpaces":14,"isFree":false,"operatingDays":"평일+토요일+공휴일","weekdayOpen":"00:00","weekdayClose":"23:59","weekendOpen":"00:00","weekendClose":"23:59","holidayOpen":"00:00","holidayClose":"23:59","feeInfo":"기본 30분 800원","phone":"062-608-2914","updatedAt":"2025-07-10","sido":"광주광역시","sigungu":"동구","dong":"금남로4가"},{"name":"창성주차장","type":"민영","category":"노외","address":"광주광역시 동구 지산동 714-67,69","lat":35.1512315308,"lng":126.9317251007,"totalSpaces":14,"isFree":false,"operatingDays":"평일+토요일+공휴일","weekdayOpen":"00:00","weekdayClose":"23:59","weekendOpen":"00:00","weekendClose":"23:59","holidayOpen":"00:00","holidayClose":"23:59","feeInfo":"기본 30분 800원","phone":"062-608-2914","updatedAt":"2025-07-10","sido":"광주광역시","sigungu":"동구","dong":"지산동"},{"name":"지산주차장","type":"민영","category":"노외","address":"광주광역시 동구 동명로67번길 12","lat":35.15196689,"lng":126.9274224,"totalSpaces":14,"isFree":false,"operatingDays":"평일+토요일+공휴일","weekdayOpen":"00:00","weekdayClose":"23:59","weekendOpen":"00:00","weekendClose":"23:59","holidayOpen":"00:00","holidayClose":"23:59","feeInfo":"기본 30분 800원","phone":"062-608-2914","updatedAt":"2025-07-10","sido":"광주광역시","sigungu":"동구","dong":"지산동"},{"name":"수련주차장","type":"민영","category":"노외","address":"광주광역시 동구 경양로 387","lat":35.15466239,"lng":126.9312525,"totalSpaces":14,"isFree":false,"operatingDays":"평일+토요일+공휴일","weekdayOpen":"00:00","weekdayClose":"23:59","weekendOpen":"00:00","weekendClose":"23:59","holidayOpen":"00:00","holidayClose":"23:59","feeInfo":"기본 30분 800원","phone":"062-608-2914","updatedAt":"2025-07-10","sido":"광주광역시","sigungu":"동구","dong":"산수동"},{"name":"경마주차장","type":"민영","category":"노외","address":"광주광역시 동구 계림동 296-7, 464-9","lat":35.1562738635,"lng":126.9188612264,"totalSpaces":14,"isFree":false,"operatingDays":"평일+토요일+공휴일","weekdayOpen":"00:00","weekdayClose":"23:59","weekendOpen":"00:00","weekendClose":"23:59","holidayOpen":"00:00","holidayClose":"23:59","feeInfo":"기본 30분 800원","phone":"062-608-2914","updatedAt":"2025-07-10","sido":"광주광역시","sigungu":"동구","dong":"계림동"},{"name":"뉴경마주차장","type":"민영","category":"노외","address":"광주광역시 동구 중흥로 229","lat":35.15951827,"lng":126.9185737,"totalSpaces":14,"isFree":false,"operatingDays":"평일+토요일+공휴일","weekdayOpen":"00:00","weekdayClose":"23:59","weekendOpen":"00:00","weekendClose":"23:59","holidayOpen":"00:00","holidayClose":"23:59","feeInfo":"기본 30분 800원","phone":"062-608-2914","updatedAt":"2025-07-10","sido":"광주광역시","sigungu":"동구","dong":"계림동"},{"name":"억만이주차장","type":"민영","category":"노외","address":"광주광역시 동구 중흥로 233","lat":35.15938508,"lng":126.9188812,"totalSpaces":14,"isFree":false,"operatingDays":"평일+토요일+공휴일","weekdayOpen":"00:00","weekdayClose":"23:59","weekendOpen":"00:00","weekendClose":"23:59","holidayOpen":"00:00","holidayClose":"23:59","feeInfo":"기본 30분 800원","phone":"062-608-2914","updatedAt":"2025-07-10","sido":"광주광역시","sigungu":"동구","dong":"계림동"},{"name":"미소주차장","type":"민영","category":"노외","address":"광주광역시 동구 광산동 79-3","lat":35.14618499,"lng":126.9180427,"totalSpaces":14,"isFree":false,"operatingDays":"평일+토요일+공휴일","weekdayOpen":"00:00","weekdayClose":"23:59","weekendOpen":"00:00","weekendClose":"23:59","holidayOpen":"00:00","holidayClose":"23:59","feeInfo":"기본 30분 800원","phone":"062-608-2914","updatedAt":"2025-07-10","sido":"광주광역시","sigungu":"동구","dong":"광산동"},{"name":"동산주차장","type":"민영","category":"노외","address":"광주광역시 동구 지산로52번길 15-29","lat":35.14922353,"lng":126.9344133,"totalSpaces":13,"isFree":false,"operatingDays":"평일+토요일+공휴일","weekdayOpen":"00:00","weekdayClose":"23:59","weekendOpen":"00:00","weekendClose":"23:59","holidayOpen":"00:00","holidayClose":"23:59","feeInfo":"기본 30분 800원","phone":"062-608-2914","updatedAt":"2025-07-10","sido":"광주광역시","sigungu":"동구","dong":"지산동"},{"name":"한국주차장","type":"민영","category":"노외","address":"광주광역시 동구 지산동 720-17,18","lat":35.1510648911,"lng":126.930086714,"totalSpaces":13,"isFree":false,"operatingDays":"평일+토요일+공휴일","weekdayOpen":"00:00","weekdayClose":"23:59","weekendOpen":"00:00","weekendClose":"23:59","holidayOpen":"00:00","holidayClose":"23:59","feeInfo":"기본 30분 800원 / 추가 15분당 350원","phone":"062-608-2914","updatedAt":"2025-07-10","sido":"광주광역시","sigungu":"동구","dong":"지산동"},{"name":"임시주차장","type":"민영","category":"노외","address":"광주광역시 동구 금남로5가 124-1","lat":35.1513800839,"lng":126.912573741,"totalSpaces":13,"isFree":false,"operatingDays":"평일+토요일+공휴일","weekdayOpen":"00:00","weekdayClose":"23:59","weekendOpen":"00:00","weekendClose":"23:59","holidayOpen":"00:00","holidayClose":"23:59","feeInfo":"기본 30분 800원","phone":"062-608-2914","updatedAt":"2025-07-10","sido":"광주광역시","sigungu":"동구","dong":"금남로5가"},{"name":"청해주차장","type":"민영","category":"노외","address":"광주광역시 동구 지산로63번길 4","lat":35.14951817,"lng":126.9325738,"totalSpaces":12,"isFree":false,"operatingDays":"평일+토요일+공휴일","weekdayOpen":"00:00","weekdayClose":"23:59","weekendOpen":"00:00","weekendClose":"23:59","holidayOpen":"00:00","holidayClose":"23:59","feeInfo":"기본 30분 800원","phone":"062-608-2914","updatedAt":"2025-07-10","sido":"광주광역시","sigungu":"동구","dong":"지산동"},{"name":"신광주차장","type":"민영","category":"노외","address":"광주광역시 동구 문화전당로 45","lat":35.14643406,"lng":126.9184858,"totalSpaces":12,"isFree":false,"operatingDays":"평일+토요일+공휴일","weekdayOpen":"00:00","weekdayClose":"23:59","weekendOpen":"00:00","weekendClose":"23:59","holidayOpen":"00:00","holidayClose":"23:59","feeInfo":"기본 30분 800원","phone":"062-608-2914","updatedAt":"2025-07-10","sido":"광주광역시","sigungu":"동구","dong":"광산동"},{"name":"중앙주차장","type":"민영","category":"노외","address":"광주광역시 동구 제봉로 155","lat":35.15097117,"lng":126.9191839,"totalSpaces":12,"isFree":false,"operatingDays":"평일+토요일+공휴일","weekdayOpen":"00:00","weekdayClose":"23:59","weekendOpen":"00:00","weekendClose":"23:59","holidayOpen":"00:00","holidayClose":"23:59","feeInfo":"기본 30분 800원","phone":"062-608-2914","updatedAt":"2025-07-10","sido":"광주광역시","sigungu":"동구","dong":"궁동"},{"name":"계림주차장","type":"민영","category":"노외","address":"광주광역시 동구 계림동 487-20","lat":35.1579839005,"lng":126.918022529,"totalSpaces":12,"isFree":false,"operatingDays":"평일+토요일+공휴일","weekdayOpen":"00:00","weekdayClose":"23:59","weekendOpen":"00:00","weekendClose":"23:59","holidayOpen":"00:00","holidayClose":"23:59","feeInfo":"기본 30분 800원","phone":"062-608-2914","updatedAt":"2025-07-10","sido":"광주광역시","sigungu":"동구","dong":"계림동"},{"name":"고려자동차공업사주차장","type":"민영","category":"노외","address":"광주광역시 동구 중흥로 217","lat":35.16004748,"lng":126.9174054,"totalSpaces":12,"isFree":false,"operatingDays":"평일+토요일+공휴일","weekdayOpen":"00:00","weekdayClose":"23:59","weekendOpen":"00:00","weekendClose":"23:59","holidayOpen":"00:00","holidayClose":"23:59","feeInfo":"기본 30분 800원","phone":"062-608-2914","updatedAt":"2025-07-10","sido":"광주광역시","sigungu":"동구","dong":"계림동"},{"name":"동천주차장","type":"민영","category":"노외","address":"광주광역시 동구 밤실로 11-32","lat":35.14905143,"lng":126.9362088,"totalSpaces":11,"isFree":false,"operatingDays":"평일+토요일+공휴일","weekdayOpen":"00:00","weekdayClose":"23:59","weekendOpen":"00:00","weekendClose":"23:59","holidayOpen":"00:00","holidayClose":"23:59","feeInfo":"기본 30분 800원","phone":"062-608-2914","updatedAt":"2025-07-10","sido":"광주광역시","sigungu":"동구","dong":"지산동"},{"name":"삼성생명주차장","type":"민영","category":"노외","address":"광주광역시 동구 금남로 5가 55-1","lat":35.1532748,"lng":126.9100064,"totalSpaces":11,"isFree":false,"operatingDays":"평일+토요일+공휴일","weekdayOpen":"00:00","weekdayClose":"23:59","weekendOpen":"00:00","weekendClose":"23:59","holidayOpen":"00:00","holidayClose":"23:59","feeInfo":"기본 30분 800원","phone":"062-608-2914","updatedAt":"2025-07-10","sido":"광주광역시","sigungu":"동구","dong":""},{"name":"선민주차장","type":"민영","category":"노외","address":"광주광역시 동구 구성로 168-1","lat":35.15127899,"lng":126.9121948,"totalSpaces":11,"isFree":false,"operatingDays":"평일+토요일+공휴일","weekdayOpen":"00:00","weekdayClose":"23:59","weekendOpen":"00:00","weekendClose":"23:59","holidayOpen":"00:00","holidayClose":"23:59","feeInfo":"기본 30분 800원","phone":"062-608-2914","updatedAt":"2025-07-10","sido":"광주광역시","sigungu":"동구","dong":"충장로5가"},{"name":"궁동주차장","type":"민영","category":"노외","address":"광주광역시 동구 궁동 52, 52-7","lat":35.1499650452,"lng":126.9184652264,"totalSpaces":11,"isFree":false,"operatingDays":"평일+토요일+공휴일","weekdayOpen":"00:00","weekdayClose":"23:59","weekendOpen":"00:00","weekendClose":"23:59","holidayOpen":"00:00","holidayClose":"23:59","feeInfo":"기본 30분 800원","phone":"062-608-2914","updatedAt":"2025-07-10","sido":"광주광역시","sigungu":"동구","dong":"궁동"},{"name":"대박주차장","type":"민영","category":"노외","address":"광주광역시 동구 경양로 268","lat":35.15554537,"lng":126.9190123,"totalSpaces":11,"isFree":false,"operatingDays":"평일+토요일+공휴일","weekdayOpen":"00:00","weekdayClose":"23:59","weekendOpen":"00:00","weekendClose":"23:59","holidayOpen":"00:00","holidayClose":"23:59","feeInfo":"기본 30분 800원","phone":"062-608-2914","updatedAt":"2025-07-10","sido":"광주광역시","sigungu":"동구","dong":"계림동"},{"name":"전대주차장","type":"민영","category":"노외","address":"광주광역시 동구 백서로 134-1","lat":35.14211952,"lng":126.9202459,"totalSpaces":11,"isFree":false,"operatingDays":"평일+토요일+공휴일","weekdayOpen":"00:00","weekdayClose":"23:59","weekendOpen":"00:00","weekendClose":"23:59","holidayOpen":"00:00","holidayClose":"23:59","feeInfo":"기본 30분 800원","phone":"062-608-2914","updatedAt":"2025-07-10","sido":"광주광역시","sigungu":"동구","dong":"학동"},{"name":"대각주차장","type":"민영","category":"노외","address":"광주광역시 동구 대인동 79","lat":35.1533362489,"lng":126.9146474399,"totalSpaces":11,"isFree":false,"operatingDays":"평일+토요일+공휴일","weekdayOpen":"00:00","weekdayClose":"23:59","weekendOpen":"00:00","weekendClose":"23:59","holidayOpen":"00:00","holidayClose":"23:59","feeInfo":"기본 30분 800원","phone":"062-608-2914","updatedAt":"2025-07-10","sido":"광주광역시","sigungu":"동구","dong":"대인동"},{"name":"태평주차장","type":"민영","category":"노외","address":"광주광역시 동구 호남동 42-3","lat":35.1471045347,"lng":126.9129688375,"totalSpaces":10,"isFree":false,"operatingDays":"평일+토요일+공휴일","weekdayOpen":"00:00","weekdayClose":"23:59","weekendOpen":"00:00","weekendClose":"23:59","holidayOpen":"00:00","holidayClose":"23:59","feeInfo":"기본 30분 800원 / 추가 15분당 350원","phone":"062-608-2914","updatedAt":"2025-07-10","sido":"광주광역시","sigungu":"동구","dong":"호남동"},{"name":"신동아주차장","type":"민영","category":"노외","address":"광주광역시 동구 서석로7번길 12-25","lat":35.14643601,"lng":126.9148098,"totalSpaces":10,"isFree":false,"operatingDays":"평일+토요일+공휴일","weekdayOpen":"00:00","weekdayClose":"23:59","weekendOpen":"00:00","weekendClose":"23:59","holidayOpen":"00:00","holidayClose":"23:59","feeInfo":"기본 30분 800원","phone":"062-608-2914","updatedAt":"2025-07-10","sido":"광주광역시","sigungu":"동구","dong":"불로동"},{"name":"성원주차장","type":"민영","category":"노외","address":"광주광역시 동구 백서로125번길 11-1","lat":35.14296202,"lng":126.9184893,"totalSpaces":10,"isFree":false,"operatingDays":"평일+토요일+공휴일","weekdayOpen":"00:00","weekdayClose":"23:59","weekendOpen":"00:00","weekendClose":"23:59","holidayOpen":"00:00","holidayClose":"23:59","feeInfo":"기본 30분 800원","phone":"062-608-2914","updatedAt":"2025-07-10","sido":"광주광역시","sigungu":"동구","dong":"금동"},{"name":"제이유료주차장","type":"민영","category":"노외","address":"광주광역시 동구 금남로5가 77-3","lat":35.1532742656,"lng":126.9126307971,"totalSpaces":10,"isFree":false,"operatingDays":"평일+토요일+공휴일","weekdayOpen":"00:00","weekdayClose":"23:59","weekendOpen":"00:00","weekendClose":"23:59","holidayOpen":"00:00","holidayClose":"23:59","feeInfo":"기본 30분 800원","phone":"062-608-2914","updatedAt":"2025-07-10","sido":"광주광역시","sigungu":"동구","dong":"금남로5가"},{"name":"방부주차장","type":"민영","category":"노외","address":"광주광역시 동구 구성로 262","lat":35.1574239,"lng":126.9191553,"totalSpaces":10,"isFree":false,"operatingDays":"평일+토요일+공휴일","weekdayOpen":"00:00","weekdayClose":"23:59","weekendOpen":"00:00","weekendClose":"23:59","holidayOpen":"00:00","holidayClose":"23:59","feeInfo":"기본 30분 800원","phone":"062-608-2914","updatedAt":"2025-07-10","sido":"광주광역시","sigungu":"동구","dong":"계림동"},{"name":"온누리주차장","type":"민영","category":"노외","address":"광주광역시 동구 지산동 717-36","lat":35.15017417,"lng":126.932244,"totalSpaces":10,"isFree":false,"operatingDays":"평일+토요일+공휴일","weekdayOpen":"00:00","weekdayClose":"23:59","weekendOpen":"00:00","weekendClose":"23:59","holidayOpen":"00:00","holidayClose":"23:59","feeInfo":"기본 30분 800원","phone":"062-608-2914","updatedAt":"2025-07-10","sido":"광주광역시","sigungu":"동구","dong":"지산동"},{"name":"홍림주차장","type":"민영","category":"노외","address":"광주광역시 동구 증심천로 73","lat":35.13222095,"lng":126.9357567,"totalSpaces":10,"isFree":false,"operatingDays":"평일+토요일+공휴일","weekdayOpen":"00:00","weekdayClose":"23:59","weekendOpen":"00:00","weekendClose":"23:59","holidayOpen":"00:00","holidayClose":"23:59","feeInfo":"기본 30분 800원","phone":"062-608-2914","updatedAt":"2025-07-10","sido":"광주광역시","sigungu":"동구","dong":"학동"},{"name":"대동주차장","type":"민영","category":"노외","address":"광주광역시 동구 금남로 170-9","lat":35.15191313,"lng":126.9116146,"totalSpaces":10,"isFree":false,"operatingDays":"평일+토요일+공휴일","weekdayOpen":"00:00","weekdayClose":"23:59","weekendOpen":"00:00","weekendClose":"23:59","holidayOpen":"00:00","holidayClose":"23:59","feeInfo":"기본 30분 800원","phone":"062-608-2914","updatedAt":"2025-07-10","sido":"광주광역시","sigungu":"동구","dong":"금남로5가"},{"name":"봉황주차장","type":"민영","category":"노외","address":"광주광역시 동구 무등로307번길 6-7","lat":35.1626759,"lng":126.9174949,"totalSpaces":10,"isFree":false,"operatingDays":"평일+토요일+공휴일","weekdayOpen":"00:00","weekdayClose":"23:59","weekendOpen":"00:00","weekendClose":"23:59","holidayOpen":"00:00","holidayClose":"23:59","feeInfo":"기본 30분 800원","phone":"062-608-2914","updatedAt":"2025-07-10","sido":"광주광역시","sigungu":"동구","dong":"계림동"},{"name":"월드주차장","type":"민영","category":"노외","address":"광주광역시 동구 동명로 48-1","lat":35.15121236,"lng":126.9257769,"totalSpaces":10,"isFree":false,"operatingDays":"평일+토요일+공휴일","weekdayOpen":"00:00","weekdayClose":"23:59","weekendOpen":"00:00","weekendClose":"23:59","holidayOpen":"00:00","holidayClose":"23:59","feeInfo":"기본 30분 800원","phone":"062-608-2914","updatedAt":"2025-07-10","sido":"광주광역시","sigungu":"동구","dong":"동명동"},{"name":"일성주차장","type":"민영","category":"노외","address":"광주광역시 동구 구성로152번길 17","lat":35.1491843,"lng":126.912298,"totalSpaces":10,"isFree":false,"operatingDays":"평일+토요일+공휴일","weekdayOpen":"00:00","weekdayClose":"23:59","weekendOpen":"00:00","weekendClose":"23:59","holidayOpen":"00:00","holidayClose":"23:59","feeInfo":"기본 30분 800원","phone":"062-608-2914","updatedAt":"2025-07-10","sido":"광주광역시","sigungu":"동구","dong":"충장로4가"},{"name":"현대주차장","type":"민영","category":"노외","address":"광주광역시 동구 동명로110번길 2","lat":35.15052391,"lng":126.9322525,"totalSpaces":10,"isFree":false,"operatingDays":"평일+토요일+공휴일","weekdayOpen":"00:00","weekdayClose":"23:59","weekendOpen":"00:00","weekendClose":"23:59","holidayOpen":"00:00","holidayClose":"23:59","feeInfo":"기본 30분 800원","phone":"062-608-2914","updatedAt":"2025-07-10","sido":"광주광역시","sigungu":"동구","dong":"지산동"},{"name":"금일주차장","type":"민영","category":"노외","address":"광주광역시 동구 동명로110번길 6","lat":35.15026431,"lng":126.9322395,"totalSpaces":10,"isFree":false,"operatingDays":"평일+토요일+공휴일","weekdayOpen":"00:00","weekdayClose":"23:59","weekendOpen":"00:00","weekendClose":"23:59","holidayOpen":"00:00","holidayClose":"23:59","feeInfo":"기본 30분 800원","phone":"062-608-2914","updatedAt":"2025-07-10","sido":"광주광역시","sigungu":"동구","dong":"지산동"},{"name":"호남주차장","type":"민영","category":"노외","address":"광주광역시 동구 서석로7번길 15","lat":35.1463839,"lng":126.9137276,"totalSpaces":9,"isFree":false,"operatingDays":"평일+토요일+공휴일","weekdayOpen":"00:00","weekdayClose":"23:59","weekendOpen":"00:00","weekendClose":"23:59","holidayOpen":"00:00","holidayClose":"23:59","feeInfo":"기본 30분 800원","phone":"062-608-2914","updatedAt":"2025-07-10","sido":"광주광역시","sigungu":"동구","dong":"불로동"},{"name":"예일주차장","type":"민영","category":"노외","address":"광주광역시 동구 금남로4가 33","lat":35.1509522757,"lng":126.9151397273,"totalSpaces":9,"isFree":false,"operatingDays":"평일+토요일+공휴일","weekdayOpen":"00:00","weekdayClose":"23:59","weekendOpen":"00:00","weekendClose":"23:59","holidayOpen":"00:00","holidayClose":"23:59","feeInfo":"기본 30분 800원 / 추가 15분당 350원","phone":"062-608-2914","updatedAt":"2025-07-10","sido":"광주광역시","sigungu":"동구","dong":"금남로4가"},{"name":"장원주차장","type":"민영","category":"노외","address":"광주광역시 동구 수기동 35-1","lat":35.1504947389,"lng":126.9103740179,"totalSpaces":9,"isFree":false,"operatingDays":"평일+토요일+공휴일","weekdayOpen":"00:00","weekdayClose":"23:59","weekendOpen":"00:00","weekendClose":"23:59","holidayOpen":"00:00","holidayClose":"23:59","feeInfo":"기본 30분 800원","phone":"062-608-2914","updatedAt":"2025-07-10","sido":"광주광역시","sigungu":"동구","dong":"수기동"},{"name":"한일주차장","type":"민영","category":"노외","address":"광주광역시 동구 구성로152번길 3","lat":35.15017501,"lng":126.9112083,"totalSpaces":9,"isFree":false,"operatingDays":"평일+토요일+공휴일","weekdayOpen":"00:00","weekdayClose":"23:59","weekendOpen":"00:00","weekendClose":"23:59","holidayOpen":"00:00","holidayClose":"23:59","feeInfo":"기본 30분 800원","phone":"062-608-2914","updatedAt":"2025-07-10","sido":"광주광역시","sigungu":"동구","dong":"수기동"},{"name":"삼호주차장","type":"민영","category":"노외","address":"광주광역시 동구 불로동 43","lat":35.14641627,"lng":126.9136178,"totalSpaces":9,"isFree":false,"operatingDays":"평일+토요일+공휴일","weekdayOpen":"00:00","weekdayClose":"23:59","weekendOpen":"00:00","weekendClose":"23:59","holidayOpen":"00:00","holidayClose":"23:59","feeInfo":"기본 30분 800원","phone":"062-608-2914","updatedAt":"2025-07-10","sido":"광주광역시","sigungu":"동구","dong":"불로동"},{"name":"모네주차장","type":"민영","category":"노외","address":"광주광역시 동구 금남로5가 170","lat":35.1517523391,"lng":126.9144938238,"totalSpaces":9,"isFree":false,"operatingDays":"평일+토요일+공휴일","weekdayOpen":"00:00","weekdayClose":"23:59","weekendOpen":"00:00","weekendClose":"23:59","holidayOpen":"00:00","holidayClose":"23:59","feeInfo":"기본 30분 800원","phone":"062-608-2914","updatedAt":"2025-07-10","sido":"광주광역시","sigungu":"동구","dong":"금남로5가"},{"name":"장흥주차장","type":"민영","category":"노외","address":"광주광역시 동구 동명로 113","lat":35.15094243,"lng":126.9327789,"totalSpaces":9,"isFree":false,"operatingDays":"평일+토요일+공휴일","weekdayOpen":"00:00","weekdayClose":"23:59","weekendOpen":"00:00","weekendClose":"23:59","holidayOpen":"00:00","holidayClose":"23:59","feeInfo":"기본 30분 800원","phone":"062-608-2914","updatedAt":"2025-07-10","sido":"광주광역시","sigungu":"동구","dong":"지산동"},{"name":"24시 유료주차장","type":"민영","category":"노외","address":"광주광역시 동구 문화전당로35번길 8-3","lat":35.14571625,"lng":126.9179905,"totalSpaces":9,"isFree":false,"operatingDays":"평일+토요일+공휴일","weekdayOpen":"00:00","weekdayClose":"23:59","weekendOpen":"00:00","weekendClose":"23:59","holidayOpen":"00:00","holidayClose":"23:59","feeInfo":"기본 30분 800원","phone":"062-608-2914","updatedAt":"2025-07-10","sido":"광주광역시","sigungu":"동구","dong":"광산동"},{"name":"프렌드주차장","type":"민영","category":"노외","address":"광주광역시 동구 지산동 709-38","lat":35.149000201,"lng":126.9367208634,"totalSpaces":9,"isFree":false,"operatingDays":"평일+토요일+공휴일","weekdayOpen":"00:00","weekdayClose":"23:59","weekendOpen":"00:00","weekendClose":"23:59","holidayOpen":"00:00","holidayClose":"23:59","feeInfo":"기본 30분 800원","phone":"062-608-2914","updatedAt":"2025-07-10","sido":"광주광역시","sigungu":"동구","dong":"지산동"},{"name":"열린산업주차장","type":"민영","category":"노외","address":"광주광역시 동구 동명동 209-42","lat":35.1537307157,"lng":126.9227681227,"totalSpaces":8,"isFree":false,"operatingDays":"평일+토요일+공휴일","weekdayOpen":"00:00","weekdayClose":"23:59","weekendOpen":"00:00","weekendClose":"23:59","holidayOpen":"00:00","holidayClose":"23:59","feeInfo":"기본 30분 800원","phone":"062-608-2914","updatedAt":"2025-07-10","sido":"광주광역시","sigungu":"동구","dong":"동명동"},{"name":"순창주차장","type":"민영","category":"노외","address":"광주광역시 동구 서석로7번길 4","lat":35.1454581,"lng":126.9148523,"totalSpaces":8,"isFree":false,"operatingDays":"평일+토요일+공휴일","weekdayOpen":"00:00","weekdayClose":"23:59","weekendOpen":"00:00","weekendClose":"23:59","holidayOpen":"00:00","holidayClose":"23:59","feeInfo":"기본 30분 800원","phone":"062-608-2914","updatedAt":"2025-07-10","sido":"광주광역시","sigungu":"동구","dong":"불로동"},{"name":"금정주차장","type":"민영","category":"노외","address":"광주광역시 동구 지산로78번길 11","lat":35.15106195,"lng":126.933749,"totalSpaces":8,"isFree":false,"operatingDays":"평일+토요일+공휴일","weekdayOpen":"00:00","weekdayClose":"23:59","weekendOpen":"00:00","weekendClose":"23:59","holidayOpen":"00:00","holidayClose":"23:59","feeInfo":"기본 30분 800원","phone":"062-608-2914","updatedAt":"2025-07-10","sido":"광주광역시","sigungu":"동구","dong":"지산동"},{"name":"무등주차장","type":"민영","category":"노외","address":"광주광역시 동구 필문대로205번길 19-4","lat":35.15212524,"lng":126.9331862,"totalSpaces":8,"isFree":false,"operatingDays":"평일+토요일+공휴일","weekdayOpen":"00:00","weekdayClose":"23:59","weekendOpen":"00:00","weekendClose":"23:59","holidayOpen":"00:00","holidayClose":"23:59","feeInfo":"기본 30분 800원","phone":"062-608-2914","updatedAt":"2025-07-10","sido":"광주광역시","sigungu":"동구","dong":"지산동"},{"name":"신평주차장","type":"민영","category":"노외","address":"광주광역시 동구 호남동 43-13,21","lat":35.1472484251,"lng":126.9124703498,"totalSpaces":8,"isFree":false,"operatingDays":"평일+토요일+공휴일","weekdayOpen":"00:00","weekdayClose":"23:59","weekendOpen":"00:00","weekendClose":"23:59","holidayOpen":"00:00","holidayClose":"23:59","feeInfo":"기본 30분 800원","phone":"062-608-2914","updatedAt":"2025-07-10","sido":"광주광역시","sigungu":"동구","dong":"호남동"},{"name":"중앙주차장","type":"민영","category":"노외","address":"광주광역시 동구 궁동 34-7","lat":35.15039207,"lng":126.9182783,"totalSpaces":7,"isFree":false,"operatingDays":"평일+토요일+공휴일","weekdayOpen":"00:00","weekdayClose":"23:59","weekendOpen":"00:00","weekendClose":"23:59","holidayOpen":"00:00","holidayClose":"23:59","feeInfo":"기본 30분 800원 / 추가 15분당 350원","phone":"062-608-2914","updatedAt":"2025-07-10","sido":"광주광역시","sigungu":"동구","dong":"궁동"},{"name":"지산주차장","type":"민영","category":"노외","address":"광주광역시 동구 지산로78번길 18","lat":35.15176873,"lng":126.9339723,"totalSpaces":7,"isFree":false,"operatingDays":"평일+토요일+공휴일","weekdayOpen":"00:00","weekdayClose":"23:59","weekendOpen":"00:00","weekendClose":"23:59","holidayOpen":"00:00","holidayClose":"23:59","feeInfo":"기본 30분 800원","phone":"062-608-2914","updatedAt":"2025-07-10","sido":"광주광역시","sigungu":"동구","dong":"지산동"},{"name":"만수주차장","type":"민영","category":"노외","address":"광주광역시 동구 구성로 220-1","lat":35.15461312,"lng":126.9160017,"totalSpaces":7,"isFree":false,"operatingDays":"평일+토요일+공휴일","weekdayOpen":"00:00","weekdayClose":"23:59","weekendOpen":"00:00","weekendClose":"23:59","holidayOpen":"00:00","holidayClose":"23:59","feeInfo":"기본 30분 800원","phone":"062-608-2914","updatedAt":"2025-07-10","sido":"광주광역시","sigungu":"동구","dong":"대인동"},{"name":"고려주차장","type":"민영","category":"노외","address":"광주광역시 동구 계림동 465-40","lat":35.1564947599,"lng":126.918494892,"totalSpaces":7,"isFree":false,"operatingDays":"평일+토요일+공휴일","weekdayOpen":"00:00","weekdayClose":"23:59","weekendOpen":"00:00","weekendClose":"23:59","holidayOpen":"00:00","holidayClose":"23:59","feeInfo":"기본 30분 800원","phone":"062-608-2914","updatedAt":"2025-07-10","sido":"광주광역시","sigungu":"동구","dong":"계림동"},{"name":"우진주차장","type":"민영","category":"노외","address":"광주광역시 동구 백서로125번길 8","lat":35.14256932,"lng":126.9189242,"totalSpaces":7,"isFree":false,"operatingDays":"평일+토요일+공휴일","weekdayOpen":"00:00","weekdayClose":"23:59","weekendOpen":"00:00","weekendClose":"23:59","holidayOpen":"00:00","holidayClose":"23:59","feeInfo":"기본 30분 800원","phone":"062-608-2914","updatedAt":"2025-07-10","sido":"광주광역시","sigungu":"동구","dong":"금동"},{"name":"광주투자금융주차장","type":"민영","category":"노외","address":"광주광역시 동구 충장로5가31","lat":35.1511365577,"lng":126.9127389363,"totalSpaces":6,"isFree":false,"operatingDays":"평일+토요일+공휴일","weekdayOpen":"00:00","weekdayClose":"23:59","weekendOpen":"00:00","weekendClose":"23:59","holidayOpen":"00:00","holidayClose":"23:59","feeInfo":"기본 30분 800원","phone":"062-608-2914","updatedAt":"2025-07-10","sido":"광주광역시","sigungu":"동구","dong":""},{"name":"동락주차장","type":"민영","category":"노외","address":"광주광역시 동구 문화전당로35번길 27","lat":35.14466964,"lng":126.916486,"totalSpaces":6,"isFree":false,"operatingDays":"평일+토요일+공휴일","weekdayOpen":"00:00","weekdayClose":"23:59","weekendOpen":"00:00","weekendClose":"23:59","holidayOpen":"00:00","holidayClose":"23:59","feeInfo":"기본 30분 800원","phone":"062-608-2914","updatedAt":"2025-07-10","sido":"광주광역시","sigungu":"동구","dong":"금동"},{"name":"불로주차장","type":"민영","category":"노외","address":"광주광역시 동구 불로동 51-2","lat":35.1456860661,"lng":126.913404213,"totalSpaces":6,"isFree":false,"operatingDays":"평일+토요일+공휴일","weekdayOpen":"00:00","weekdayClose":"23:59","weekendOpen":"00:00","weekendClose":"23:59","holidayOpen":"00:00","holidayClose":"23:59","feeInfo":"기본 30분 800원","phone":"062-608-2914","updatedAt":"2025-07-10","sido":"광주광역시","sigungu":"동구","dong":"불로동"},{"name":"금정주차장","type":"민영","category":"노외","address":"광주광역시 동구 지산로78번길 11","lat":35.15106195,"lng":126.933749,"totalSpaces":6,"isFree":false,"operatingDays":"평일+토요일+공휴일","weekdayOpen":"00:00","weekdayClose":"23:59","weekendOpen":"00:00","weekendClose":"23:59","holidayOpen":"00:00","holidayClose":"23:59","feeInfo":"기본 30분 800원","phone":"062-608-2914","updatedAt":"2025-07-10","sido":"광주광역시","sigungu":"동구","dong":"지산동"},{"name":"동진주차장","type":"민영","category":"노외","address":"광주광역시 동구 불로동 181-3","lat":35.1445090652,"lng":126.9150942569,"totalSpaces":6,"isFree":false,"operatingDays":"평일+토요일+공휴일","weekdayOpen":"00:00","weekdayClose":"23:59","weekendOpen":"00:00","weekendClose":"23:59","holidayOpen":"00:00","holidayClose":"23:59","feeInfo":"기본 30분 800원","phone":"062-608-2914","updatedAt":"2025-07-10","sido":"광주광역시","sigungu":"동구","dong":"불로동"},{"name":"두산주차장","type":"민영","category":"노외","address":"광주광역시 동구 남문로727번길 19-4","lat":35.13401021,"lng":126.9248665,"totalSpaces":6,"isFree":false,"operatingDays":"평일+토요일+공휴일","weekdayOpen":"00:00","weekdayClose":"23:59","weekendOpen":"00:00","weekendClose":"23:59","holidayOpen":"00:00","holidayClose":"23:59","feeInfo":"기본 30분 800원","phone":"062-608-2914","updatedAt":"2025-07-10","sido":"광주광역시","sigungu":"동구","dong":"학동"},{"name":"삼호주차장","type":"민영","category":"노외","address":"광주광역시 동구 양림로119번길 5","lat":35.14026276,"lng":126.9203179,"totalSpaces":5,"isFree":false,"operatingDays":"평일+토요일+공휴일","weekdayOpen":"00:00","weekdayClose":"23:59","weekendOpen":"00:00","weekendClose":"23:59","holidayOpen":"00:00","holidayClose":"23:59","feeInfo":"기본 30분 800원","phone":"062-608-2914","updatedAt":"2025-07-10","sido":"광주광역시","sigungu":"동구","dong":""},{"name":"군산앞바다주차장","type":"민영","category":"노외","address":"광주광역시 동구 필문대로191번길 15-13","lat":35.15377996,"lng":126.9328556,"totalSpaces":5,"isFree":false,"operatingDays":"평일+토요일+공휴일","weekdayOpen":"00:00","weekdayClose":"23:59","weekendOpen":"00:00","weekendClose":"23:59","holidayOpen":"00:00","holidayClose":"23:59","feeInfo":"기본 30분 800원","phone":"062-608-2914","updatedAt":"2025-07-10","sido":"광주광역시","sigungu":"동구","dong":"산수동"},{"name":"한마음주차장","type":"민영","category":"노외","address":"광주광역시 동구 백서로198번길 5-1","lat":35.14560583,"lng":126.9256811,"totalSpaces":5,"isFree":false,"operatingDays":"평일+토요일+공휴일","weekdayOpen":"00:00","weekdayClose":"23:59","weekendOpen":"00:00","weekendClose":"23:59","holidayOpen":"00:00","holidayClose":"23:59","feeInfo":"기본 30분 800원","phone":"062-608-2914","updatedAt":"2025-07-10","sido":"광주광역시","sigungu":"동구","dong":"서석동"},{"name":"광주토끼주차장","type":"민영","category":"노외","address":"광주광역시 동구 제봉로 207-1","lat":35.15391265,"lng":126.9145581,"totalSpaces":4,"isFree":false,"operatingDays":"평일+토요일+공휴일","weekdayOpen":"00:00","weekdayClose":"23:59","weekendOpen":"00:00","weekendClose":"23:59","holidayOpen":"00:00","holidayClose":"23:59","feeInfo":"기본 30분 800원","phone":"062-608-2914","updatedAt":"2025-07-10","sido":"광주광역시","sigungu":"동구","dong":"대인동"},{"name":"정민주차장","type":"민영","category":"노외","address":"광주광역시 동구 백서로 210","lat":35.1464497,"lng":126.9259991,"totalSpaces":4,"isFree":false,"operatingDays":"평일+토요일+공휴일","weekdayOpen":"00:00","weekdayClose":"23:59","weekendOpen":"00:00","weekendClose":"23:59","holidayOpen":"00:00","holidayClose":"23:59","feeInfo":"기본 30분 800원","phone":"062-608-2914","updatedAt":"2025-07-10","sido":"광주광역시","sigungu":"동구","dong":"서석동"},{"name":"KT 주차장","type":"민영","category":"노외","address":"광주광역시 동구 백서로197번길 6-1","lat":35.14603432,"lng":126.924772,"totalSpaces":4,"isFree":false,"operatingDays":"평일+토요일+공휴일","weekdayOpen":"00:00","weekdayClose":"23:59","weekendOpen":"00:00","weekendClose":"23:59","holidayOpen":"00:00","holidayClose":"23:59","feeInfo":"기본 30분 800원","phone":"062-608-2914","updatedAt":"2025-07-10","sido":"광주광역시","sigungu":"동구","dong":"서석동"},{"name":"새중앙주차장","type":"민영","category":"노외","address":"광주광역시 동구 서석로 30","lat":35.14593195,"lng":126.9170729,"totalSpaces":1,"isFree":false,"operatingDays":"평일+토요일+공휴일","weekdayOpen":"00:00","weekdayClose":"23:59","weekendOpen":"00:00","weekendClose":"23:59","holidayOpen":"00:00","holidayClose":"23:59","feeInfo":"기본 30분 800원","phone":"062-608-2914","updatedAt":"2025-07-10","sido":"광주광역시","sigungu":"동구","dong":"광산동"}]}