{"sido":"서울특별시","sigungu":"강서구","totalCount":41,"validCount":41,"items":[{"name":"가로공원로지하","type":"공영","category":"노외","address":"서울특별시 강서구 화곡동 662-15","lat":37.537235,"lng":126.837039,"totalSpaces":512,"isFree":false,"operatingDays":"평일+토요일+공휴일","weekdayOpen":"00:00","weekdayClose":"23:59","weekendOpen":"00:00","weekendClose":"23:59","holidayOpen":"00:00","holidayClose":"23:59","feeInfo":"기본 5분 100원 / 추가 5분당 100원","phone":"02-2065-1575","updatedAt":"2025-11-14","sido":"서울특별시","sigungu":"강서구","dong":"화곡동"},{"name":"개화역","type":"공영","category":"노외","address":"서울특별시 강서구 개화동로8길 19","lat":37.567267,"lng":126.8020324,"totalSpaces":483,"isFree":false,"operatingDays":"평일+토요일+공휴일","weekdayOpen":"00:00","weekdayClose":"00:00","weekendOpen":"00:00","weekendClose":"00:00","holidayOpen":"00:00","holidayClose":"00:00","feeInfo":"기본 5분 170원","phone":"02-2290-6312","updatedAt":"2021-07-30","sido":"서울특별시","sigungu":"강서구","dong":"개화동"},{"name":"개화산역","type":"공영","category":"노외","address":"서울특별시 강서구 방화동 845","lat":37.5721961,"lng":126.8029701,"totalSpaces":322,"isFree":false,"operatingDays":"평일+토요일+공휴일","weekdayOpen":"00:00","weekdayClose":"00:00","weekendOpen":"00:00","weekendClose":"00:00","holidayOpen":"00:00","holidayClose":"00:00","feeInfo":"기본 5분 170원","phone":"02-2290-6064","updatedAt":"2021-07-30","sido":"서울특별시","sigungu":"강서구","dong":"방화동"},{"name":"화곡2,4,8동 배다리동길","type":"공영","category":"노상","address":"서울특별시 강서구 국회대로7길 196","lat":37.529024,"lng":126.849947,"totalSpaces":308,"isFree":false,"operatingDays":"평일+토요일","weekdayOpen":"09:00","weekdayClose":"19:00","weekendOpen":"09:00","weekendClose":"15:00","holidayOpen":"00:00","holidayClose":"00:00","feeInfo":"기본 5분 200원 / 추가 5분당 200원","phone":"02-2607-9113","updatedAt":"2025-11-14","sido":"서울특별시","sigungu":"강서구","dong":"화곡동"},{"name":"화곡6-1","type":"공영","category":"노외","address":"서울특별시 강서구 우장산로 114","lat":37.553032,"lng":126.848514,"totalSpaces":293,"isFree":false,"operatingDays":"평일+토요일+공휴일","weekdayOpen":"00:00","weekdayClose":"23:59","weekendOpen":"00:00","weekendClose":"23:59","holidayOpen":"00:00","holidayClose":"23:59","feeInfo":"기본 5분 100원 / 추가 5분당 100원","phone":"02-2065-1575","updatedAt":"2025-11-14","sido":"서울특별시","sigungu":"강서구","dong":"화곡동"},{"name":"화곡1동 배다리서길","type":"공영","category":"노상","address":"서울특별시 강서구 강서로5나길 6","lat":37.528779,"lng":126.847886,"totalSpaces":255,"isFree":false,"operatingDays":"평일+토요일","weekdayOpen":"09:00","weekdayClose":"19:00","weekendOpen":"09:00","weekendClose":"15:00","holidayOpen":"00:00","holidayClose":"00:00","feeInfo":"기본 5분 200원 / 추가 5분당 200원","phone":"02-2607-9113","updatedAt":"2025-11-14","sido":"서울특별시","sigungu":"강서구","dong":"화곡동"},{"name":"곰달래문화복지센터","type":"공영","category":"부설","address":"서울특별시 강서구 강서로5길 50","lat":37.52906,"lng":126.848898,"totalSpaces":248,"isFree":false,"operatingDays":"평일+토요일+공휴일","weekdayOpen":"00:00","weekdayClose":"23:59","weekendOpen":"00:00","weekendClose":"23:59","holidayOpen":"00:00","holidayClose":"23:59","feeInfo":"기본 5분 100원 / 추가 5분당 100원","phone":"02-2065-1575","updatedAt":"2025-11-14","sido":"서울특별시","sigungu":"강서구","dong":"화곡동"},{"name":"볏골공원","type":"공영","category":"노외","address":"서울특별시 강서구 까치산로4길 22","lat":37.541816,"lng":126.844323,"totalSpaces":219,"isFree":false,"operatingDays":"평일+토요일+공휴일","weekdayOpen":"00:00","weekdayClose":"23:59","weekendOpen":"00:00","weekendClose":"23:59","holidayOpen":"00:00","holidayClose":"23:59","feeInfo":"기본 5분 100원 / 추가 5분당 100원","phone":"02-2065-1575","updatedAt":"2025-11-14","sido":"서울특별시","sigungu":"강서구","dong":"화곡동"},{"name":"화곡4-1","type":"공영","category":"부설","address":"서울특별시 강서구 곰달래로57가길 20","lat":37.534301,"lng":126.861044,"totalSpaces":202,"isFree":false,"operatingDays":"평일+토요일+공휴일","weekdayOpen":"00:00","weekdayClose":"23:59","weekendOpen":"00:00","weekendClose":"23:59","holidayOpen":"00:00","holidayClose":"23:59","feeInfo":"기본 5분 50원 / 추가 5분당 50원","phone":"02-2065-1575","updatedAt":"2025-11-14","sido":"서울특별시","sigungu":"강서구","dong":"화곡동"},{"name":"서울식물원 제2주차장","type":"공영","category":"노외","address":"서울특별시 강서구 마곡동 20-3","lat":37.572662,"lng":126.835236,"totalSpaces":202,"isFree":false,"operatingDays":"평일+토요일+공휴일","weekdayOpen":"00:00","weekdayClose":"23:59","weekendOpen":"00:00","weekendClose":"23:59","holidayOpen":"00:00","holidayClose":"23:59","feeInfo":"기본 5분 100원 / 추가 5분당 100원","phone":"02-2065-1575","updatedAt":"2025-11-14","sido":"서울특별시","sigungu":"강서구","dong":"마곡동"},{"name":"신방화역","type":"공영","category":"노외","address":"서울특별시 강서구 마곡서1로 111-12","lat":37.5745447,"lng":126.8231232,"totalSpaces":199,"isFree":false,"operatingDays":"평일+토요일+공휴일","weekdayOpen":"00:00","weekdayClose":"00:00","weekendOpen":"00:00","weekendClose":"00:00","holidayOpen":"00:00","holidayClose":"00:00","feeInfo":"기본 5분 170원","phone":"02-3405-4581","updatedAt":"2021-07-30","sido":"서울특별시","sigungu":"강서구","dong":"마곡동"},{"name":"등촌2-1","type":"공영","category":"노외","address":"서울특별시 강서구 등촌로55길 33-16","lat":37.549799,"lng":126.861316,"totalSpaces":110,"isFree":false,"operatingDays":"평일","weekdayOpen":"00:00","weekdayClose":"23:59","weekendOpen":"00:00","weekendClose":"00:00","holidayOpen":"00:00","holidayClose":"00:00","feeInfo":"기본 5분 50원 / 추가 5분당 50원","phone":"02-2065-1575","updatedAt":"2025-11-14","sido":"서울특별시","sigungu":"강서구","dong":"등촌동"},{"name":"화곡8-2","type":"공영","category":"노외","address":"서울특별시 강서구 초록마을로 126","lat":37.537679,"lng":126.850354,"totalSpaces":109,"isFree":false,"operatingDays":"평일","weekdayOpen":"00:00","weekdayClose":"23:59","weekendOpen":"00:00","weekendClose":"00:00","holidayOpen":"00:00","holidayClose":"00:00","feeInfo":"기본 5분 50원 / 추가 5분당 50원","phone":"02-2065-1575","updatedAt":"2025-11-14","sido":"서울특별시","sigungu":"강서구","dong":"화곡동"},{"name":"화곡본-2","type":"공영","category":"노외","address":"서울특별시 강서구 초록마을로5길 43","lat":37.5443203,"lng":126.848448,"totalSpaces":100,"isFree":false,"operatingDays":"평일","weekdayOpen":"00:00","weekdayClose":"23:59","weekendOpen":"00:00","weekendClose":"00:00","holidayOpen":"00:00","holidayClose":"00:00","feeInfo":"기본 5분 50원 / 추가 5분당 50원","phone":"02-2065-1575","updatedAt":"2025-11-14","sido":"서울특별시","sigungu":"강서구","dong":"화곡동"},{"name":"화곡3-1","type":"공영","category":"노외","address":"서울특별시 강서구 화곡로15길 40","lat":37.541769,"lng":126.834727,"totalSpaces":99,"isFree":false,"operatingDays":"평일","weekdayOpen":"00:00","weekdayClose":"23:59","weekendOpen":"00:00","weekendClose":"00:00","holidayOpen":"00:00","holidayClose":"00:00","feeInfo":"기본 5분 50원 / 추가 5분당 50원","phone":"02-2065-1575","updatedAt":"2025-11-14","sido":"서울특별시","sigungu":"강서구","dong":"화곡동"},{"name":"화곡1-1","type":"공영","category":"노외","address":"서울특별시 강서구 곰달래로15길 28","lat":37.5314204,"lng":126.839874,"totalSpaces":99,"isFree":false,"operatingDays":"평일","weekdayOpen":"00:00","weekdayClose":"23:59","weekendOpen":"00:00","weekendClose":"00:00","holidayOpen":"00:00","holidayClose":"00:00","feeInfo":"기본 5분 50원 / 추가 5분당 50원","phone":"02-2065-1575","updatedAt":"2025-11-14","sido":"서울특별시","sigungu":"강서구","dong":""},{"name":"화곡본-1","type":"공영","category":"노외","address":"서울특별시 강서구 초록마을로26길 48","lat":37.539744,"lng":126.849772,"totalSpaces":98,"isFree":false,"operatingDays":"평일","weekdayOpen":"00:00","weekdayClose":"23:59","weekendOpen":"00:00","weekendClose":"00:00","holidayOpen":"00:00","holidayClose":"00:00","feeInfo":"기본 5분 50원 / 추가 5분당 50원","phone":"02-2065-1575","updatedAt":"2025-11-14","sido":"서울특별시","sigungu":"강서구","dong":""},{"name":"화곡7-1","type":"공영","category":"노외","address":"서울특별시 강서구 월정로32길 68","lat":37.536016,"lng":126.839155,"totalSpaces":86,"isFree":false,"operatingDays":"평일","weekdayOpen":"00:00","weekdayClose":"23:59","weekendOpen":"00:00","weekendClose":"00:00","holidayOpen":"00:00","holidayClose":"00:00","feeInfo":"기본 5분 50원 / 추가 5분당 50원","phone":"02-2065-1575","updatedAt":"2025-11-14","sido":"서울특별시","sigungu":"강서구","dong":"화곡동"},{"name":"제물포로","type":"공영","category":"노상","address":"서울특별시 강서구 화곡동 947-3","lat":37.5279369,"lng":126.8431981,"totalSpaces":85,"isFree":false,"operatingDays":"평일+토요일+공휴일","weekdayOpen":"09:00","weekdayClose":"19:00","weekendOpen":"09:00","weekendClose":"15:00","holidayOpen":"00:00","holidayClose":"00:00","feeInfo":"기본 5분 120원","phone":"","updatedAt":"2021-07-30","sido":"서울특별시","sigungu":"강서구","dong":"화곡동"},{"name":"영보빌딩","type":"공영","category":"노외","address":"서울특별시 강서구 가양동 1480-10","lat":37.5632834,"lng":126.8508669,"totalSpaces":79,"isFree":false,"operatingDays":"평일+토요일+공휴일","weekdayOpen":"08:00","weekdayClose":"21:00","weekendOpen":"08:00","weekendClose":"21:00","holidayOpen":"08:00","holidayClose":"21:00","feeInfo":"기본 5분 260원","phone":"","updatedAt":"2021-07-30","sido":"서울특별시","sigungu":"강서구","dong":"가양동"},{"name":"방화역(서)","type":"공영","category":"노외","address":"서울특별시 강서구 방화동 829-1","lat":37.5775313,"lng":126.8099617,"totalSpaces":68,"isFree":false,"operatingDays":"평일+토요일+공휴일","weekdayOpen":"08:00","weekdayClose":"21:00","weekendOpen":"08:00","weekendClose":"21:00","holidayOpen":"08:00","holidayClose":"21:00","feeInfo":"기본 5분 170원","phone":"","updatedAt":"2021-07-30","sido":"서울특별시","sigungu":"강서구","dong":"방화동"},{"name":"방화역(동)","type":"공영","category":"노외","address":"서울특별시 강서구 방화동 830-4","lat":37.5772544,"lng":126.8111004,"totalSpaces":67,"isFree":false,"operatingDays":"평일+토요일+공휴일","weekdayOpen":"08:00","weekdayClose":"21:00","weekendOpen":"08:00","weekendClose":"21:00","holidayOpen":"08:00","holidayClose":"21:00","feeInfo":"기본 5분 170원","phone":"","updatedAt":"2021-07-30","sido":"서울특별시","sigungu":"강서구","dong":"방화동"},{"name":"등촌3동 꿈나무길","type":"공영","category":"노상","address":"서울특별시 강서구 공항대로 351-21","lat":37.560599,"lng":126.847619,"totalSpaces":61,"isFree":false,"operatingDays":"평일+토요일","weekdayOpen":"09:00","weekdayClose":"19:00","weekendOpen":"09:00","weekendClose":"15:00","holidayOpen":"00:00","holidayClose":"00:00","feeInfo":"기본 5분 250원 / 추가 5분당 250원","phone":"02-2607-9113","updatedAt":"2025-11-14","sido":"서울특별시","sigungu":"강서구","dong":"등촌동"},{"name":"화곡8-1","type":"공영","category":"노외","address":"서울특별시 강서구 초록마을로22길 57-11","lat":37.538511,"lng":126.84884,"totalSpaces":59,"isFree":false,"operatingDays":"평일","weekdayOpen":"00:00","weekdayClose":"23:59","weekendOpen":"00:00","weekendClose":"00:00","holidayOpen":"00:00","holidayClose":"00:00","feeInfo":"기본 5분 50원 / 추가 5분당 50원","phone":"02-2065-1575","updatedAt":"2025-11-14","sido":"서울특별시","sigungu":"강서구","dong":"화곡동"},{"name":"방화로","type":"공영","category":"노상","address":"서울특별시 강서구 방화동 796","lat":37.5543098,"lng":126.8142394,"totalSpaces":59,"isFree":false,"operatingDays":"평일+토요일+공휴일","weekdayOpen":"09:00","weekdayClose":"18:00","weekendOpen":"00:00","weekendClose":"00:00","holidayOpen":"00:00","holidayClose":"00:00","feeInfo":"기본 5분 120원","phone":"","updatedAt":"2021-07-30","sido":"서울특별시","sigungu":"강서구","dong":"공항동"},{"name":"화곡2-1","type":"공영","category":"노외","address":"서울특별시 강서구 강서로18아길 26-15","lat":37.536046,"lng":126.852432,"totalSpaces":58,"isFree":false,"operatingDays":"평일","weekdayOpen":"00:00","weekdayClose":"23:59","weekendOpen":"00:00","weekendClose":"00:00","holidayOpen":"00:00","holidayClose":"00:00","feeInfo":"기본 5분 50원 / 추가 5분당 50원","phone":"02-2065-1575","updatedAt":"2025-11-14","sido":"서울특별시","sigungu":"강서구","dong":"화곡동"},{"name":"봉제산근린공원","type":"공영","category":"부설","address":"서울특별시 강서구 화곡동 산41-6","lat":37.5421344,"lng":126.8510719,"totalSpaces":56,"isFree":false,"operatingDays":"평일+토요일+공휴일","weekdayOpen":"00:00","weekdayClose":"23:59","weekendOpen":"00:00","weekendClose":"23:59","holidayOpen":"00:00","holidayClose":"23:59","feeInfo":"기본 5분 50원 / 추가 5분당 50원","phone":"02-2065-1575","updatedAt":"2025-11-14","sido":"서울특별시","sigungu":"강서구","dong":"화곡동"},{"name":"가양3동","type":"공영","category":"노외","address":"서울특별시 강서구 가양동 1488-12","lat":37.560291,"lng":126.8575623,"totalSpaces":56,"isFree":false,"operatingDays":"평일+토요일+공휴일","weekdayOpen":"09:00","weekdayClose":"19:00","weekendOpen":"09:00","weekendClose":"15:00","holidayOpen":"00:00","holidayClose":"00:00","feeInfo":"기본 5분 200원","phone":"","updatedAt":"2021-07-30","sido":"서울특별시","sigungu":"강서구","dong":"가양동"},{"name":"화곡6동 방죽길","type":"공영","category":"노상","address":"서울특별시 강서구 공항대로46길 35","lat":37.554165,"lng":126.8524896,"totalSpaces":49,"isFree":false,"operatingDays":"평일+토요일","weekdayOpen":"09:00","weekdayClose":"19:00","weekendOpen":"09:00","weekendClose":"15:00","holidayOpen":"00:00","holidayClose":"00:00","feeInfo":"기본 5분 250원 / 추가 5분당 250원","phone":"02-2607-9113","updatedAt":"2025-11-14","sido":"서울특별시","sigungu":"강서구","dong":"화곡동"},{"name":"등촌3동 구암길","type":"공영","category":"노상","address":"서울특별시 강서구 공항대로39길 74","lat":37.561217,"lng":126.844636,"totalSpaces":49,"isFree":false,"operatingDays":"평일+토요일","weekdayOpen":"09:00","weekdayClose":"19:00","weekendOpen":"09:00","weekendClose":"15:00","holidayOpen":"00:00","holidayClose":"00:00","feeInfo":"기본 5분 250원 / 추가 5분당 250원","phone":"02-2607-9113","updatedAt":"2025-11-14","sido":"서울특별시","sigungu":"강서구","dong":"등촌동"},{"name":"가양라이품","type":"공영","category":"노외","address":"서울특별시 강서구 강서로 515","lat":37.5715089,"lng":126.8394353,"totalSpaces":38,"isFree":false,"operatingDays":"평일+토요일+공휴일","weekdayOpen":"00:00","weekdayClose":"00:00","weekendOpen":"00:00","weekendClose":"00:00","holidayOpen":"00:00","holidayClose":"00:00","feeInfo":"기본 5분 170원","phone":"02-2290-6449","updatedAt":"2021-07-30","sido":"서울특별시","sigungu":"강서구","dong":"가양동"},{"name":"마곡안전체험관","type":"공영","category":"부설","address":"서울특별시 강서구 마곡중앙로 13","lat":37.5545411,"lng":126.8258394,"totalSpaces":36,"isFree":false,"operatingDays":"평일+토요일+공휴일","weekdayOpen":"00:00","weekdayClose":"23:59","weekendOpen":"00:00","weekendClose":"23:59","holidayOpen":"00:00","holidayClose":"23:59","feeInfo":"기본 5분 100원 / 추가 5분당 100원","phone":"02-2065-1575","updatedAt":"2025-11-14","sido":"서울특별시","sigungu":"강서구","dong":"내발산동"},{"name":"등서초","type":"공영","category":"부설","address":"서울특별시 강서구 화곡로58길 86","lat":37.551884,"lng":126.855038,"totalSpaces":32,"isFree":false,"operatingDays":"평일","weekdayOpen":"00:00","weekdayClose":"23:59","weekendOpen":"00:00","weekendClose":"00:00","holidayOpen":"00:00","holidayClose":"00:00","feeInfo":"기본 5분 50원 / 추가 5분당 50원","phone":"02-2065-1575","updatedAt":"2025-11-14","sido":"서울특별시","sigungu":"강서구","dong":"화곡동"},{"name":"화곡6동 신학대길","type":"공영","category":"노상","address":"서울특별시 강서구 화곡로 302","lat":37.550966,"lng":126.849532,"totalSpaces":30,"isFree":false,"operatingDays":"평일+토요일","weekdayOpen":"09:00","weekdayClose":"19:00","weekendOpen":"09:00","weekendClose":"15:00","holidayOpen":"00:00","holidayClose":"00:00","feeInfo":"기본 5분 250원 / 추가 5분당 250원","phone":"02-2607-9113","updatedAt":"2025-11-14","sido":"서울특별시","sigungu":"강서구","dong":"화곡동"},{"name":"화곡1동 달구지길","type":"공영","category":"노상","address":"서울특별시 강서구 월정로28길 14","lat":37.532988,"lng":126.837414,"totalSpaces":29,"isFree":false,"operatingDays":"평일+토요일","weekdayOpen":"09:00","weekdayClose":"19:00","weekendOpen":"09:00","weekendClose":"15:00","holidayOpen":"00:00","holidayClose":"00:00","feeInfo":"기본 5분 250원 / 추가 5분당 250원","phone":"02-2607-9113","updatedAt":"2025-11-14","sido":"서울특별시","sigungu":"강서구","dong":"화곡동"},{"name":"화곡5-2","type":"공영","category":"노외","address":"서울특별시 강서구 강서로34길 41-21","lat":37.544352,"lng":126.840763,"totalSpaces":27,"isFree":false,"operatingDays":"평일","weekdayOpen":"00:00","weekdayClose":"23:59","weekendOpen":"00:00","weekendClose":"00:00","holidayOpen":"00:00","holidayClose":"00:00","feeInfo":"기본 5분 50원 / 추가 5분당 50원","phone":"02-2065-1575","updatedAt":"2025-11-14","sido":"서울특별시","sigungu":"강서구","dong":"화곡동"},{"name":"화곡5-1","type":"공영","category":"노외","address":"서울특별시 강서구 강서로36길 21","lat":37.5438705,"lng":126.839922,"totalSpaces":26,"isFree":false,"operatingDays":"평일","weekdayOpen":"00:00","weekdayClose":"23:59","weekendOpen":"00:00","weekendClose":"00:00","holidayOpen":"00:00","holidayClose":"00:00","feeInfo":"기본 5분 50원 / 추가 5분당 50원","phone":"02-2065-1575","updatedAt":"2025-11-14","sido":"서울특별시","sigungu":"강서구","dong":"화곡동"},{"name":"방화우체국","type":"공영","category":"노외","address":"서울특별시 강서구 금낭화로26길 22","lat":37.5797572,"lng":126.8127804,"totalSpaces":18,"isFree":false,"operatingDays":"평일+토요일+공휴일","weekdayOpen":"09:00","weekdayClose":"19:00","weekendOpen":"09:00","weekendClose":"15:00","holidayOpen":"00:00","holidayClose":"00:00","feeInfo":"기본 5분 0원","phone":"","updatedAt":"2021-07-30","sido":"서울특별시","sigungu":"강서구","dong":"방화동"},{"name":"화곡5-3","type":"공영","category":"노외","address":"서울특별시 강서구 화곡로27가길 38","lat":37.543454,"lng":126.842258,"totalSpaces":13,"isFree":false,"operatingDays":"평일","weekdayOpen":"00:00","weekdayClose":"23:59","weekendOpen":"00:00","weekendClose":"00:00","holidayOpen":"00:00","holidayClose":"00:00","feeInfo":"기본 5분 50원 / 추가 5분당 50원","phone":"02-2065-1575","updatedAt":"2025-11-14","sido":"서울특별시","sigungu":"강서구","dong":"화곡동"},{"name":"공항동(송정역)","type":"공영","category":"노외","address":"서울특별시 강서구 공항동 42-8","lat":37.5603002,"lng":126.808447,"totalSpaces":11,"isFree":false,"operatingDays":"평일+토요일+공휴일","weekdayOpen":"00:00","weekdayClose":"00:00","weekendOpen":"00:00","weekendClose":"00:00","holidayOpen":"00:00","holidayClose":"00:00","feeInfo":"기본 5분 0원","phone":"","updatedAt":"2021-07-30","sido":"서울특별시","sigungu":"강서구","dong":"공항동"},{"name":"화곡1-2","type":"공영","category":"노외","address":"서울특별시 강서구 화곡동 366-47","lat":37.5338224,"lng":126.8410246,"totalSpaces":9,"isFree":false,"operatingDays":"평일","weekdayOpen":"00:00","weekdayClose":"23:59","weekendOpen":"00:00","weekendClose":"00:00","holidayOpen":"00:00","holidayClose":"00:00","feeInfo":"기본 5분 50원 / 추가 5분당 50원","phone":"02-2065-1575","updatedAt":"2025-11-14","sido":"서울특별시","sigungu":"강서구","dong":"화곡동"}]}