{"sido":"서울특별시","sigungu":"동대문구","totalCount":24,"validCount":24,"items":[{"name":"서울약령시","type":"공영","category":"노외","address":"서울특별시 동대문구 약령중앙로 26","lat":37.58060041,"lng":127.0375862,"totalSpaces":196,"isFree":false,"operatingDays":"평일+토요일+공휴일","weekdayOpen":"00:00","weekdayClose":"23:59","weekendOpen":"00:00","weekendClose":"23:59","holidayOpen":"00:00","holidayClose":"23:59","feeInfo":"기본 10분 500원 / 추가 10분당 300원","phone":"02-6929-0895","updatedAt":"2025-05-01","sido":"서울특별시","sigungu":"동대문구","dong":"제기동"},{"name":"정릉천복개주차장","type":"공영","category":"노외","address":"서울특별시 동대문구 정릉천동로 83","lat":37.57978654,"lng":127.0349611,"totalSpaces":137,"isFree":false,"operatingDays":"평일+토요일+공휴일","weekdayOpen":"00:00","weekdayClose":"23:59","weekendOpen":"00:00","weekendClose":"23:59","holidayOpen":"00:00","holidayClose":"23:59","feeInfo":"기본 10분 500원 / 추가 10분당 500원","phone":"02-6929-0895","updatedAt":"2025-05-01","sido":"서울특별시","sigungu":"동대문구","dong":"제기동"},{"name":"청계8","type":"공영","category":"노상","address":"서울특별시 동대문구 신설동 109-2","lat":37.5713749,"lng":127.0229447,"totalSpaces":103,"isFree":false,"operatingDays":"평일+토요일+공휴일","weekdayOpen":"09:00","weekdayClose":"19:00","weekendOpen":"09:00","weekendClose":"15:00","holidayOpen":"00:00","holidayClose":"00:00","feeInfo":"기본 5분 450원","phone":"","updatedAt":"2021-07-30","sido":"서울특별시","sigungu":"동대문구","dong":"신설동"},{"name":"외대주차빌딩","type":"공영","category":"노외","address":"서울특별시 동대문구 휘경로 28","lat":37.59503764,"lng":127.0626233,"totalSpaces":84,"isFree":false,"operatingDays":"평일+토요일+공휴일","weekdayOpen":"00:00","weekdayClose":"23:59","weekendOpen":"00:00","weekendClose":"23:59","holidayOpen":"00:00","holidayClose":"23:59","feeInfo":"기본 10분 500원 / 추가 10분당 500원","phone":"02-6929-0895","updatedAt":"2025-05-01","sido":"서울특별시","sigungu":"동대문구","dong":"이문동"},{"name":"장안2동","type":"공영","category":"노외","address":"서울특별시 동대문구 답십리로65길 124-5","lat":37.5782299,"lng":127.0683977,"totalSpaces":80,"isFree":false,"operatingDays":"평일+토요일+공휴일","weekdayOpen":"00:00","weekdayClose":"00:00","weekendOpen":"00:00","weekendClose":"00:00","holidayOpen":"00:00","holidayClose":"00:00","feeInfo":"기본 5분 130원","phone":"02-2290-6417","updatedAt":"2021-07-30","sido":"서울특별시","sigungu":"동대문구","dong":"장안동"},{"name":"신설동","type":"공영","category":"노외","address":"서울특별시 동대문구 난계로28길 16","lat":37.5724784,"lng":127.0220394,"totalSpaces":79,"isFree":false,"operatingDays":"평일+토요일+공휴일","weekdayOpen":"09:00","weekdayClose":"19:00","weekendOpen":"09:00","weekendClose":"19:00","holidayOpen":"09:00","holidayClose":"19:00","feeInfo":"기본 5분 260원","phone":"02-2232-6096","updatedAt":"2021-07-30","sido":"서울특별시","sigungu":"동대문구","dong":"신설동"},{"name":"답십리부품상가","type":"공영","category":"노상","address":"서울특별시 동대문구 황물로17길 13","lat":37.56472665,"lng":127.0586628,"totalSpaces":79,"isFree":false,"operatingDays":"평일+토요일","weekdayOpen":"09:00","weekdayClose":"19:00","weekendOpen":"09:00","weekendClose":"15:00","holidayOpen":"00:00","holidayClose":"00:00","feeInfo":"기본 10분 500원 / 추가 10분당 500원","phone":"02-6929-0895","updatedAt":"2025-05-01","sido":"서울특별시","sigungu":"동대문구","dong":"답십리동"},{"name":"덕원공영주차장","type":"공영","category":"노외","address":"서울특별시 동대문구 장한로6길 54","lat":37.56226142,"lng":127.0687101,"totalSpaces":77,"isFree":false,"operatingDays":"평일+토요일+공휴일","weekdayOpen":"00:00","weekdayClose":"23:59","weekendOpen":"00:00","weekendClose":"23:59","holidayOpen":"00:00","holidayClose":"23:59","feeInfo":"기본 10분 500원 / 추가 10분당 500원","phone":"02-6929-0895","updatedAt":"2025-05-01","sido":"서울특별시","sigungu":"동대문구","dong":""},{"name":"장안1동","type":"공영","category":"노외","address":"서울특별시 동대문구 답십리로66길 75","lat":37.5694344,"lng":127.0648088,"totalSpaces":74,"isFree":false,"operatingDays":"평일+토요일+공휴일","weekdayOpen":"00:00","weekdayClose":"00:00","weekendOpen":"00:00","weekendClose":"00:00","holidayOpen":"00:00","holidayClose":"00:00","feeInfo":"기본 5분 130원","phone":"02-3405-4598","updatedAt":"2021-07-30","sido":"서울특별시","sigungu":"동대문구","dong":"장안동"},{"name":"회기역 주변","type":"공영","category":"노상","address":"서울특별시 동대문구 망우로 21","lat":37.58829448,"lng":127.055742,"totalSpaces":70,"isFree":false,"operatingDays":"평일+토요일","weekdayOpen":"09:00","weekdayClose":"19:00","weekendOpen":"09:00","weekendClose":"15:00","holidayOpen":"00:00","holidayClose":"00:00","feeInfo":"기본 10분 500원 / 추가 10분당 500원","phone":"02-6929-0895","updatedAt":"2025-05-01","sido":"서울특별시","sigungu":"동대문구","dong":"휘경동"},{"name":"청량리시장제3","type":"공영","category":"노상","address":"서울특별시 동대문구 경동시장로 40","lat":37.58242616,"lng":127.040656,"totalSpaces":67,"isFree":false,"operatingDays":"평일+토요일+공휴일","weekdayOpen":"09:00","weekdayClose":"19:00","weekendOpen":"09:00","weekendClose":"15:00","holidayOpen":"00:00","holidayClose":"23:59","feeInfo":"기본 10분 1,000원 / 추가 10분당 1,000원","phone":"02-6929-0895","updatedAt":"2025-05-01","sido":"서울특별시","sigungu":"동대문구","dong":"제기동"},{"name":"정릉천변","type":"공영","category":"노상","address":"서울특별시 동대문구 정릉천동로 107","lat":37.58191245,"lng":127.0355354,"totalSpaces":58,"isFree":false,"operatingDays":"평일+토요일","weekdayOpen":"09:00","weekdayClose":"19:00","weekendOpen":"09:00","weekendClose":"15:00","holidayOpen":"00:00","holidayClose":"00:00","feeInfo":"기본 10분 500원 / 추가 10분당 500원","phone":"02-6929-0895","updatedAt":"2025-05-01","sido":"서울특별시","sigungu":"동대문구","dong":"제기동"},{"name":"휘경유수지","type":"공영","category":"노외","address":"서울특별시 동대문구 한천로 326","lat":37.59003508,"lng":127.0695883,"totalSpaces":55,"isFree":false,"operatingDays":"평일+토요일+공휴일","weekdayOpen":"00:00","weekdayClose":"23:50","weekendOpen":"00:00","weekendClose":"23:59","holidayOpen":"00:00","holidayClose":"23:59","feeInfo":"기본 10분 500원 / 추가 10분당 500원","phone":"02-6929-0895","updatedAt":"2025-05-01","sido":"서울특별시","sigungu":"동대문구","dong":"휘경동"},{"name":"청량리시장제4","type":"공영","category":"노상","address":"서울특별시 동대문구 경동시장로 47","lat":37.58325164,"lng":127.0401598,"totalSpaces":49,"isFree":false,"operatingDays":"평일+토요일","weekdayOpen":"09:00","weekdayClose":"19:00","weekendOpen":"09:00","weekendClose":"15:00","holidayOpen":"00:00","holidayClose":"00:00","feeInfo":"기본 10분 500원 / 추가 10분당 500원","phone":"02-6929-0895","updatedAt":"2025-05-01","sido":"서울특별시","sigungu":"동대문구","dong":"제기동"},{"name":"청량리시장제1","type":"공영","category":"노상","address":"서울특별시 동대문구 경동시장로 1","lat":37.57913563,"lng":127.0409546,"totalSpaces":48,"isFree":false,"operatingDays":"평일+토요일+공휴일","weekdayOpen":"09:00","weekdayClose":"19:00","weekendOpen":"09:00","weekendClose":"15:00","holidayOpen":"00:00","holidayClose":"23:59","feeInfo":"기본 10분 1,000원 / 추가 10분당 1,000원","phone":"02-6929-0895","updatedAt":"2025-05-01","sido":"서울특별시","sigungu":"동대문구","dong":"제기동"},{"name":"청량리시장제2","type":"공영","category":"노상","address":"서울특별시 동대문구 경동시장로 19-1","lat":37.5807432,"lng":127.0403784,"totalSpaces":45,"isFree":false,"operatingDays":"평일+토요일+공휴일","weekdayOpen":"09:00","weekdayClose":"19:00","weekendOpen":"09:00","weekendClose":"15:00","holidayOpen":"00:00","holidayClose":"23:59","feeInfo":"기본 10분 1,000원 / 추가 10분당 1,000원","phone":"02-6929-0895","updatedAt":"2025-05-01","sido":"서울특별시","sigungu":"동대문구","dong":"제기동"},{"name":"견인보관소노외","type":"공영","category":"노외","address":"서울특별시 동대문구 한천로 326","lat":37.59003508,"lng":127.0695883,"totalSpaces":40,"isFree":false,"operatingDays":"평일+토요일+공휴일","weekdayOpen":"00:00","weekdayClose":"23:59","weekendOpen":"00:00","weekendClose":"23:59","holidayOpen":"00:00","holidayClose":"23:59","feeInfo":"기본 10분 500원 / 추가 10분당 500원","phone":"02-6929-0895","updatedAt":"2025-05-01","sido":"서울특별시","sigungu":"동대문구","dong":"휘경동"},{"name":"동부청과","type":"공영","category":"노상","address":"서울특별시 동대문구 용두동 8-1","lat":37.5773633,"lng":127.0423606,"totalSpaces":25,"isFree":false,"operatingDays":"평일+토요일+공휴일","weekdayOpen":"08:00","weekdayClose":"22:00","weekendOpen":"08:00","weekendClose":"22:00","holidayOpen":"08:00","holidayClose":"22:00","feeInfo":"기본 5분 430원","phone":"","updatedAt":"2021-07-30","sido":"서울특별시","sigungu":"동대문구","dong":"용두동"},{"name":"용두동청계주변","type":"공영","category":"노상","address":"서울특별시 동대문구 청계천로5길 47","lat":37.57303077,"lng":127.0275891,"totalSpaces":23,"isFree":false,"operatingDays":"평일+토요일","weekdayOpen":"09:00","weekdayClose":"19:00","weekendOpen":"09:00","weekendClose":"15:00","holidayOpen":"00:00","holidayClose":"00:00","feeInfo":"기본 10분 500원 / 추가 10분당 500원","phone":"02-6929-0895","updatedAt":"2025-05-01","sido":"서울특별시","sigungu":"동대문구","dong":"신설동"},{"name":"신답고가","type":"공영","category":"노상","address":"서울특별시 동대문구 고미술로 11","lat":37.5700305,"lng":127.0504071,"totalSpaces":22,"isFree":false,"operatingDays":"평일+토요일","weekdayOpen":"09:00","weekdayClose":"19:00","weekendOpen":"09:00","weekendClose":"15:00","holidayOpen":"00:00","holidayClose":"00:00","feeInfo":"기본 10분 500원 / 추가 10분당 500원","phone":"02-6929-0895","updatedAt":"2025-05-01","sido":"서울특별시","sigungu":"동대문구","dong":"답십리동"},{"name":"제기동공영주차장","type":"공영","category":"노상","address":"서울특별시 동대문구 경동시장로 50","lat":37.58347508,"lng":127.0406728,"totalSpaces":20,"isFree":false,"operatingDays":"평일+토요일","weekdayOpen":"09:00","weekdayClose":"19:00","weekendOpen":"09:00","weekendClose":"15:00","holidayOpen":"00:00","holidayClose":"00:00","feeInfo":"기본 10분 500원 / 추가 10분당 500원","phone":"02-6929-0895","updatedAt":"2025-05-01","sido":"서울특별시","sigungu":"동대문구","dong":"제기동"},{"name":"신일피혁주변","type":"공영","category":"노상","address":"서울특별시 동대문구 장한로12길 18","lat":37.56550691,"lng":127.0686919,"totalSpaces":17,"isFree":false,"operatingDays":"평일+토요일","weekdayOpen":"09:00","weekdayClose":"19:00","weekendOpen":"09:00","weekendClose":"15:00","holidayOpen":"00:00","holidayClose":"00:00","feeInfo":"기본 10분 500원 / 추가 10분당 500원","phone":"02-6929-0895","updatedAt":"2025-05-01","sido":"서울특별시","sigungu":"동대문구","dong":"장안동"},{"name":"삼희상가","type":"공영","category":"노상","address":"서울특별시 동대문구 황물로 149","lat":37.56666889,"lng":127.0550138,"totalSpaces":10,"isFree":false,"operatingDays":"평일+토요일","weekdayOpen":"09:00","weekdayClose":"19:00","weekendOpen":"09:00","weekendClose":"15:00","holidayOpen":"00:00","holidayClose":"00:00","feeInfo":"기본 10분 500원 / 추가 10분당 500원","phone":"02-6929-0895","updatedAt":"2025-05-01","sido":"서울특별시","sigungu":"동대문구","dong":"답십리동"},{"name":"동대문소방서","type":"공영","category":"노상","address":"서울특별시 동대문구 장한로 34","lat":37.5637529,"lng":127.0667254,"totalSpaces":9,"isFree":false,"operatingDays":"평일+토요일","weekdayOpen":"09:00","weekdayClose":"19:00","weekendOpen":"09:00","weekendClose":"15:00","holidayOpen":"00:00","holidayClose":"00:00","feeInfo":"기본 10분 500원 / 추가 10분당 500원","phone":"02-6929-0895","updatedAt":"2025-05-01","sido":"서울특별시","sigungu":"동대문구","dong":"장안동"}]}