{"sido":"서울특별시","sigungu":"동작구","totalCount":21,"validCount":21,"items":[{"name":"동작주차공원","type":"공영","category":"노외","address":"서울특별시 동작구 현충로 213","lat":37.503643,"lng":126.97869,"totalSpaces":147,"isFree":false,"operatingDays":"평일+토요일+공휴일","weekdayOpen":"00:00","weekdayClose":"23:59","weekendOpen":"00:00","weekendClose":"23:59","holidayOpen":"00:00","holidayClose":"23:59","feeInfo":"기본 5분 100원 / 추가 5분당 100원","phone":"02-811-0983","updatedAt":"2025-12-05","sido":"서울특별시","sigungu":"동작구","dong":"동작동"},{"name":"동작대교","type":"공영","category":"노외","address":"서울특별시 동작구 동작대로 335","lat":37.5059209,"lng":126.9780845,"totalSpaces":88,"isFree":false,"operatingDays":"평일+토요일+공휴일","weekdayOpen":"08:00","weekdayClose":"22:00","weekendOpen":"08:00","weekendClose":"22:00","holidayOpen":"08:00","holidayClose":"22:00","feeInfo":"기본 5분 120원","phone":"","updatedAt":"2021-07-30","sido":"서울특별시","sigungu":"동작구","dong":"동작동"},{"name":"노량진청사 공영주차장","type":"공영","category":"노외","address":"서울특별시 동작구 장승배기로 161","lat":37.512529,"lng":126.93994,"totalSpaces":86,"isFree":false,"operatingDays":"평일+토요일+공휴일","weekdayOpen":"00:00","weekdayClose":"23:59","weekendOpen":"00:00","weekendClose":"23:59","holidayOpen":"00:00","holidayClose":"23:59","feeInfo":"기본 5분 250원 / 추가 5분당 250원","phone":"02-820-1440","updatedAt":"2025-12-05","sido":"서울특별시","sigungu":"동작구","dong":"노량진동"},{"name":"남성역 공영주차장","type":"공영","category":"노외","address":"서울특별시 동작구 사당동 318-104","lat":37.4827943472,"lng":126.97424,"totalSpaces":80,"isFree":false,"operatingDays":"평일+토요일+공휴일","weekdayOpen":"00:00","weekdayClose":"23:59","weekendOpen":"00:00","weekendClose":"23:59","holidayOpen":"00:00","holidayClose":"23:59","feeInfo":"기본 5분 175원 / 추가 5분당 175원","phone":"02-811-0983","updatedAt":"2025-12-05","sido":"서울특별시","sigungu":"동작구","dong":"사당동"},{"name":"보라매상업","type":"공영","category":"노외","address":"서울특별시 동작구 신대방동 431-3","lat":37.4903768,"lng":126.9211905,"totalSpaces":65,"isFree":false,"operatingDays":"평일+토요일+공휴일","weekdayOpen":"09:00","weekdayClose":"21:00","weekendOpen":"09:00","weekendClose":"21:00","holidayOpen":"09:00","holidayClose":"21:00","feeInfo":"기본 5분 130원","phone":"","updatedAt":"2021-07-30","sido":"서울특별시","sigungu":"동작구","dong":"신대방동"},{"name":"빙수골장미","type":"공영","category":"노외","address":"서울특별시 동작구 국사봉16길 28","lat":37.493424,"lng":126.93355,"totalSpaces":64,"isFree":false,"operatingDays":"평일+토요일+공휴일","weekdayOpen":"00:00","weekdayClose":"23:59","weekendOpen":"00:00","weekendClose":"23:59","holidayOpen":"00:00","holidayClose":"23:59","feeInfo":"기본 5분 150원 / 추가 5분당 150원","phone":"02-811-0983","updatedAt":"2025-12-05","sido":"서울특별시","sigungu":"동작구","dong":"상도동"},{"name":"서광","type":"공영","category":"노외","address":"서울특별시 동작구 신대방11길 32","lat":37.488794,"lng":126.90784,"totalSpaces":63,"isFree":false,"operatingDays":"평일+토요일+공휴일","weekdayOpen":"00:00","weekdayClose":"23:59","weekendOpen":"00:00","weekendClose":"23:59","holidayOpen":"00:00","holidayClose":"23:59","feeInfo":"기본 5분 150원 / 추가 5분당 150원","phone":"02-811-0983","updatedAt":"2025-12-05","sido":"서울특별시","sigungu":"동작구","dong":"신대방동"},{"name":"도화","type":"공영","category":"노외","address":"서울특별시 동작구 성대로17길 지하 52","lat":37.499808,"lng":126.93525,"totalSpaces":61,"isFree":false,"operatingDays":"평일+토요일+공휴일","weekdayOpen":"00:00","weekdayClose":"23:59","weekendOpen":"00:00","weekendClose":"23:59","holidayOpen":"00:00","holidayClose":"23:59","feeInfo":"기본 5분 150원 / 추가 5분당 150원","phone":"02-811-0983","updatedAt":"2025-12-05","sido":"서울특별시","sigungu":"동작구","dong":"상도동"},{"name":"신대방역","type":"공영","category":"노외","address":"서울특별시 동작구 대림로 2","lat":37.4875146,"lng":126.9108027,"totalSpaces":60,"isFree":false,"operatingDays":"평일+토요일+공휴일","weekdayOpen":"00:00","weekdayClose":"00:00","weekendOpen":"00:00","weekendClose":"00:00","holidayOpen":"00:00","holidayClose":"00:00","feeInfo":"기본 5분 260원","phone":"02-2290-6144","updatedAt":"2021-07-30","sido":"서울특별시","sigungu":"동작구","dong":"신대방동"},{"name":"동작대교(위)","type":"공영","category":"노상","address":"서울특별시 동작구 동작대로 335","lat":37.5059209,"lng":126.9780845,"totalSpaces":50,"isFree":false,"operatingDays":"평일+토요일+공휴일","weekdayOpen":"12:00","weekdayClose":"21:00","weekendOpen":"12:00","weekendClose":"21:00","holidayOpen":"12:00","holidayClose":"21:00","feeInfo":"기본 5분 260원","phone":"","updatedAt":"2021-07-30","sido":"서울특별시","sigungu":"동작구","dong":"동작동"},{"name":"흑석빗물펌프장","type":"공영","category":"노외","address":"서울특별시 동작구 서달로15길 6","lat":37.508318,"lng":126.96281,"totalSpaces":46,"isFree":false,"operatingDays":"평일+토요일+공휴일","weekdayOpen":"00:00","weekdayClose":"23:59","weekendOpen":"00:00","weekendClose":"23:59","holidayOpen":"00:00","holidayClose":"23:59","feeInfo":"기본 5분 190원 / 추가 5분당 190원","phone":"02-811-0983","updatedAt":"2025-12-05","sido":"서울특별시","sigungu":"동작구","dong":"흑석동"},{"name":"사당1호 공영주차장","type":"공영","category":"노외","address":"서울특별시 동작구 사당동 1042-22","lat":37.47744293,"lng":126.98129,"totalSpaces":40,"isFree":false,"operatingDays":"평일+토요일+공휴일","weekdayOpen":"00:00","weekdayClose":"23:59","weekendOpen":"00:00","weekendClose":"23:59","holidayOpen":"00:00","holidayClose":"23:59","feeInfo":"기본 5분 300원 / 추가 5분당 300원","phone":"02-1899-5499","updatedAt":"2025-12-05","sido":"서울특별시","sigungu":"동작구","dong":"사당동"},{"name":"대방생태","type":"공영","category":"노외","address":"서울특별시 동작구 대방동1길 9","lat":37.500189,"lng":126.92658,"totalSpaces":39,"isFree":false,"operatingDays":"평일+토요일+공휴일","weekdayOpen":"00:00","weekdayClose":"23:59","weekendOpen":"00:00","weekendClose":"23:59","holidayOpen":"00:00","holidayClose":"23:59","feeInfo":"기본 5분 150원 / 추가 5분당 150원","phone":"02-811-0983","updatedAt":"2025-12-05","sido":"서울특별시","sigungu":"동작구","dong":"대방동"},{"name":"보라매병원앞","type":"공영","category":"노상","address":"서울특별시 동작구 보라매로5길 44","lat":37.491638,"lng":126.92282,"totalSpaces":29,"isFree":false,"operatingDays":"평일+토요일+공휴일","weekdayOpen":"09:00","weekdayClose":"21:00","weekendOpen":"09:00","weekendClose":"21:00","holidayOpen":"10:00","holidayClose":"20:00","feeInfo":"기본 5분 250원 / 추가 5분당 250원","phone":"02-832-2445","updatedAt":"2025-12-05","sido":"서울특별시","sigungu":"동작구","dong":"신대방동"},{"name":"한강대교(남)","type":"공영","category":"노상","address":"서울특별시 동작구 본동 5-5","lat":37.5129955,"lng":126.9549163,"totalSpaces":25,"isFree":false,"operatingDays":"평일+토요일+공휴일","weekdayOpen":"09:00","weekdayClose":"19:00","weekendOpen":"09:00","weekendClose":"15:00","holidayOpen":"00:00","holidayClose":"00:00","feeInfo":"기본 5분 200원","phone":"","updatedAt":"2021-07-30","sido":"서울특별시","sigungu":"동작구","dong":"본동"},{"name":"사당2호 공영주차장","type":"공영","category":"노외","address":"서울특별시 동작구 남부순환로 2071","lat":37.4769453657,"lng":126.979,"totalSpaces":25,"isFree":false,"operatingDays":"평일+토요일+공휴일","weekdayOpen":"00:00","weekdayClose":"23:59","weekendOpen":"00:00","weekendClose":"23:59","holidayOpen":"00:00","holidayClose":"23:59","feeInfo":"기본 5분 300원 / 추가 5분당 300원","phone":"02-1899-5500","updatedAt":"2025-12-05","sido":"서울특별시","sigungu":"동작구","dong":"사당동"},{"name":"구릉","type":"공영","category":"노외","address":"서울특별시 동작구 신대방동 351-14","lat":37.498725,"lng":126.92748,"totalSpaces":20,"isFree":false,"operatingDays":"평일+토요일+공휴일","weekdayOpen":"00:00","weekdayClose":"23:59","weekendOpen":"00:00","weekendClose":"23:59","holidayOpen":"00:00","holidayClose":"23:59","feeInfo":"기본 5분 150원 / 추가 5분당 150원","phone":"02-811-0983","updatedAt":"2025-12-05","sido":"서울특별시","sigungu":"동작구","dong":"신대방동"},{"name":"노들나루공원","type":"공영","category":"노외","address":"서울특별시 동작구 노량진로 247","lat":37.5145306283,"lng":126.95243015,"totalSpaces":20,"isFree":false,"operatingDays":"평일+토요일+공휴일","weekdayOpen":"00:00","weekdayClose":"23:59","weekendOpen":"00:00","weekendClose":"23:59","holidayOpen":"00:00","holidayClose":"23:59","feeInfo":"기본 5분 300원 / 추가 5분당 300원","phone":"02-1899-5498","updatedAt":"2025-12-05","sido":"서울특별시","sigungu":"동작구","dong":"본동"},{"name":"남성사계시장","type":"공영","category":"노외","address":"서울특별시 동작구 동작대로27길 28-5","lat":37.487701,"lng":126.98013,"totalSpaces":18,"isFree":false,"operatingDays":"평일+토요일+공휴일","weekdayOpen":"00:00","weekdayClose":"23:59","weekendOpen":"00:00","weekendClose":"23:59","holidayOpen":"00:00","holidayClose":"23:59","feeInfo":"기본 5분 300원 / 추가 5분당 300원","phone":"02-811-0983","updatedAt":"2025-12-05","sido":"서울특별시","sigungu":"동작구","dong":"사당동"},{"name":"노량진 공영주차장","type":"공영","category":"노외","address":"서울특별시 동작구 노량진동 60-12","lat":37.5138154771,"lng":126.94125,"totalSpaces":13,"isFree":false,"operatingDays":"평일+토요일+공휴일","weekdayOpen":"00:00","weekdayClose":"23:59","weekendOpen":"00:00","weekendClose":"23:59","holidayOpen":"00:00","holidayClose":"23:59","feeInfo":"기본 5분 100원 / 추가 5분당 100원","phone":"02-811-0983","updatedAt":"2025-12-05","sido":"서울특별시","sigungu":"동작구","dong":"노량진동"},{"name":"반려견공원앞","type":"공영","category":"노상","address":"서울특별시 동작구 노량진동 24-8","lat":37.5135223855,"lng":126.9362503185,"totalSpaces":8,"isFree":false,"operatingDays":"평일+토요일+공휴일","weekdayOpen":"09:00","weekdayClose":"19:00","weekendOpen":"09:00","weekendClose":"19:00","holidayOpen":"00:00","holidayClose":"23:59","feeInfo":"기본 5분 100원 / 추가 5분당 100원","phone":"02-832-2445","updatedAt":"2025-12-05","sido":"서울특별시","sigungu":"동작구","dong":"노량진동"}]}