{"sido":"서울특별시","sigungu":"중랑구","totalCount":27,"validCount":27,"items":[{"name":"면목유수지","type":"공영","category":"노외","address":"서울특별시 중랑구 사가정로 332","lat":37.580822,"lng":127.0776946,"totalSpaces":567,"isFree":false,"operatingDays":"평일+토요일+공휴일","weekdayOpen":"00:00","weekdayClose":"00:00","weekendOpen":"00:00","weekendClose":"00:00","holidayOpen":"00:00","holidayClose":"00:00","feeInfo":"기본 5분 100원","phone":"","updatedAt":"2021-07-30","sido":"서울특별시","sigungu":"중랑구","dong":"면목동"},{"name":"면목유수지","type":"공영","category":"노외","address":"서울특별시 중랑구 동일로 566","lat":37.58094415,"lng":127.0799363,"totalSpaces":567,"isFree":false,"operatingDays":"평일+토요일+공휴일","weekdayOpen":"00:00","weekdayClose":"23:59","weekendOpen":"00:00","weekendClose":"23:59","holidayOpen":"00:00","holidayClose":"23:59","feeInfo":"기본 5분 100원 / 추가 5분당 100원","phone":"02-438-9145","updatedAt":"2025-08-25","sido":"서울특별시","sigungu":"중랑구","dong":"면목동"},{"name":"중화2동1.2.3.4","type":"공영","category":"노외","address":"서울특별시 중랑구 중랑천로30길, 중랑천로14길","lat":37.59827687,"lng":127.0734828,"totalSpaces":372,"isFree":false,"operatingDays":"평일+토요일+공휴일","weekdayOpen":"00:00","weekdayClose":"23:59","weekendOpen":"00:00","weekendClose":"23:59","holidayOpen":"00:00","holidayClose":"23:59","feeInfo":"기본 5분 100원 / 추가 5분당 100원","phone":"02-491-4887","updatedAt":"2025-08-25","sido":"서울특별시","sigungu":"중랑구","dong":"중화동"},{"name":"화랑대역","type":"공영","category":"노외","address":"서울특별시 중랑구 묵동 28","lat":37.6199388,"lng":127.0850085,"totalSpaces":328,"isFree":false,"operatingDays":"평일+토요일+공휴일","weekdayOpen":"00:00","weekdayClose":"00:00","weekendOpen":"00:00","weekendClose":"00:00","holidayOpen":"00:00","holidayClose":"00:00","feeInfo":"기본 5분 80원","phone":"02-2290-6410","updatedAt":"2021-07-30","sido":"서울특별시","sigungu":"중랑구","dong":"묵동"},{"name":"중화1동","type":"공영","category":"노외","address":"서울특별시 중랑구 동일로136나길 14","lat":37.60272995,"lng":127.0816473,"totalSpaces":230,"isFree":false,"operatingDays":"평일+토요일+공휴일","weekdayOpen":"00:00","weekdayClose":"23:59","weekendOpen":"00:00","weekendClose":"23:59","holidayOpen":"00:00","holidayClose":"23:59","feeInfo":"기본 5분 100원 / 추가 5분당 100원","phone":"02-438-7210","updatedAt":"2025-08-25","sido":"서울특별시","sigungu":"중랑구","dong":"중화동"},{"name":"중랑역 제1, 2","type":"공영","category":"노외","address":"서울특별시 중랑구 중랑역로 9","lat":37.5948241,"lng":127.075729,"totalSpaces":217,"isFree":false,"operatingDays":"평일+토요일+공휴일","weekdayOpen":"00:00","weekdayClose":"23:59","weekendOpen":"00:00","weekendClose":"23:59","holidayOpen":"00:00","holidayClose":"23:59","feeInfo":"기본 5분 100원 / 추가 5분당 100원","phone":"02-438-9145","updatedAt":"2025-08-25","sido":"서울특별시","sigungu":"중랑구","dong":"중화동"},{"name":"면목2동","type":"공영","category":"노외","address":"서울특별시 중랑구 겸재로23길27","lat":37.58793511,"lng":127.0808933,"totalSpaces":199,"isFree":false,"operatingDays":"평일+토요일+공휴일","weekdayOpen":"00:00","weekdayClose":"23:59","weekendOpen":"00:00","weekendClose":"23:59","holidayOpen":"00:00","holidayClose":"23:59","feeInfo":"기본 5분 100원 / 추가 5분당 100원","phone":"02-438-7210","updatedAt":"2025-08-25","sido":"서울특별시","sigungu":"중랑구","dong":"면목동"},{"name":"중곡초교","type":"공영","category":"노외","address":"서울특별시 중랑구 면목로23길20","lat":37.57489173,"lng":127.083439,"totalSpaces":140,"isFree":false,"operatingDays":"평일+토요일+공휴일","weekdayOpen":"00:00","weekdayClose":"23:59","weekendOpen":"00:00","weekendClose":"23:59","holidayOpen":"00:00","holidayClose":"23:59","feeInfo":"기본 5분 100원 / 추가 5분당 100원","phone":"02-438-7210","updatedAt":"2025-08-25","sido":"서울특별시","sigungu":"중랑구","dong":"면목동"},{"name":"동부시장","type":"공영","category":"노외","address":"서울특별시 중랑구 동일로 109길 35","lat":37.59144962,"lng":127.078206,"totalSpaces":129,"isFree":false,"operatingDays":"평일+토요일+공휴일","weekdayOpen":"00:00","weekdayClose":"23:59","weekendOpen":"00:00","weekendClose":"23:59","holidayOpen":"00:00","holidayClose":"23:59","feeInfo":"기본 5분 100원 / 추가 5분당 100원","phone":"02-438-9145","updatedAt":"2025-08-25","sido":"서울특별시","sigungu":"중랑구","dong":"면목동"},{"name":"중랑캠핑숲 1,2,3","type":"공영","category":"노외","address":"서울특별시 중랑구 망우동 56, 71-3, 산30-63","lat":37.6068612805,"lng":127.1106971521,"totalSpaces":127,"isFree":false,"operatingDays":"평일+토요일+공휴일","weekdayOpen":"00:00","weekdayClose":"23:59","weekendOpen":"00:00","weekendClose":"23:59","holidayOpen":"00:00","holidayClose":"23:59","feeInfo":"기본 5분 100원 / 추가 5분당 100원","phone":"02-491-4888","updatedAt":"2025-08-25","sido":"서울특별시","sigungu":"중랑구","dong":"망우동"},{"name":"망우역사 1,2,3","type":"공영","category":"노외","address":"서울특별시 중랑구 망우로91길 2","lat":37.59835362,"lng":127.1148164,"totalSpaces":121,"isFree":false,"operatingDays":"평일+토요일+공휴일","weekdayOpen":"00:00","weekdayClose":"23:59","weekendOpen":"00:00","weekendClose":"23:59","holidayOpen":"00:00","holidayClose":"23:59","feeInfo":"기본 5분 100원 / 추가 5분당 100원","phone":"02-491-4887","updatedAt":"2025-08-25","sido":"서울특별시","sigungu":"중랑구","dong":"망우동"},{"name":"용마폭포","type":"공영","category":"노외","address":"서울특별시 중랑구 용마산로250-12","lat":37.57335201,"lng":127.0891221,"totalSpaces":119,"isFree":false,"operatingDays":"평일+토요일+공휴일","weekdayOpen":"00:00","weekdayClose":"23:59","weekendOpen":"00:00","weekendClose":"23:59","holidayOpen":"00:00","holidayClose":"23:59","feeInfo":"기본 5분 100원 / 추가 5분당 100원","phone":"02-438-7210","updatedAt":"2025-08-25","sido":"서울특별시","sigungu":"중랑구","dong":"면목동"},{"name":"봉화산역","type":"공영","category":"노외","address":"서울특별시 중랑구 신내로 208","lat":37.61700015,"lng":127.0931176,"totalSpaces":100,"isFree":false,"operatingDays":"평일+토요일+공휴일","weekdayOpen":"00:00","weekdayClose":"23:59","weekendOpen":"00:00","weekendClose":"23:59","holidayOpen":"00:00","holidayClose":"23:59","feeInfo":"기본 5분 50원 / 추가 5분당 50원","phone":"02-438-9145","updatedAt":"2025-08-25","sido":"서울특별시","sigungu":"중랑구","dong":"신내동"},{"name":"은행나무","type":"공영","category":"노외","address":"서울특별시 중랑구 겸재로54가길 4","lat":37.58705596,"lng":127.0915758,"totalSpaces":97,"isFree":false,"operatingDays":"평일+토요일+공휴일","weekdayOpen":"00:00","weekdayClose":"23:59","weekendOpen":"00:00","weekendClose":"23:59","holidayOpen":"00:00","holidayClose":"23:59","feeInfo":"기본 5분 100원 / 추가 5분당 100원","phone":"02-491-4887","updatedAt":"2025-08-25","sido":"서울특별시","sigungu":"중랑구","dong":"면목동"},{"name":"망우본동","type":"공영","category":"노외","address":"서울특별시 중랑구 망우로62길 52-4","lat":37.59677182,"lng":127.0982722,"totalSpaces":96,"isFree":false,"operatingDays":"평일+토요일+공휴일","weekdayOpen":"00:00","weekdayClose":"23:59","weekendOpen":"00:00","weekendClose":"23:59","holidayOpen":"00:00","holidayClose":"23:59","feeInfo":"기본 5분 100원 / 추가 5분당 100원","phone":"02-491-4887","updatedAt":"2025-08-25","sido":"서울특별시","sigungu":"중랑구","dong":"망우동"},{"name":"까치공원","type":"공영","category":"노외","address":"서울특별시 중랑구 사가정로49길56","lat":37.58350827,"lng":127.086969,"totalSpaces":90,"isFree":false,"operatingDays":"평일+토요일+공휴일","weekdayOpen":"00:00","weekdayClose":"23:59","weekendOpen":"00:00","weekendClose":"23:59","holidayOpen":"00:00","holidayClose":"23:59","feeInfo":"기본 5분 100원 / 추가 5분당 100원","phone":"02-438-7210","updatedAt":"2025-08-25","sido":"서울특별시","sigungu":"중랑구","dong":"면목동"},{"name":"봉화산역(남)","type":"공영","category":"노외","address":"서울특별시 중랑구 신내동 647","lat":37.6163884,"lng":127.0897504,"totalSpaces":88,"isFree":false,"operatingDays":"평일+토요일+공휴일","weekdayOpen":"09:00","weekdayClose":"22:00","weekendOpen":"09:00","weekendClose":"22:00","holidayOpen":"09:00","holidayClose":"22:00","feeInfo":"기본 5분 80원","phone":"","updatedAt":"2021-07-30","sido":"서울특별시","sigungu":"중랑구","dong":"신내동"},{"name":"봉화산역(남)","type":"공영","category":"노외","address":"서울특별시 중랑구 신내동 647","lat":37.61642416,"lng":127.0919550282,"totalSpaces":86,"isFree":false,"operatingDays":"평일+토요일+공휴일","weekdayOpen":"00:00","weekdayClose":"23:59","weekendOpen":"00:00","weekendClose":"23:59","holidayOpen":"00:00","holidayClose":"23:59","feeInfo":"기본 5분 80원 / 추가 5분당 80원","phone":"02-491-4887","updatedAt":"2025-08-25","sido":"서울특별시","sigungu":"중랑구","dong":"신내동"},{"name":"면일초교","type":"공영","category":"노외","address":"서울특별시 중랑구 용마산로100길13","lat":37.5920416,"lng":127.0997947,"totalSpaces":80,"isFree":false,"operatingDays":"평일+토요일+공휴일","weekdayOpen":"00:00","weekdayClose":"23:59","weekendOpen":"00:00","weekendClose":"23:59","holidayOpen":"00:00","holidayClose":"23:59","feeInfo":"기본 5분 100원 / 추가 5분당 100원","phone":"02-438-7210","updatedAt":"2025-08-25","sido":"서울특별시","sigungu":"중랑구","dong":"망우동"},{"name":"중랑초교","type":"공영","category":"노외","address":"서울특별시 중랑구 봉우재로6길26","lat":37.58966282,"lng":127.0755035,"totalSpaces":77,"isFree":false,"operatingDays":"평일+토요일+공휴일","weekdayOpen":"00:00","weekdayClose":"23:59","weekendOpen":"00:00","weekendClose":"23:59","holidayOpen":"00:00","holidayClose":"23:59","feeInfo":"기본 5분 100원 / 추가 5분당 100원","phone":"02-438-7210","updatedAt":"2025-08-25","sido":"서울특별시","sigungu":"중랑구","dong":"면목동"},{"name":"늘봄","type":"공영","category":"노외","address":"서울특별시 중랑구 겸재로64길9","lat":37.5898196,"lng":127.0964022,"totalSpaces":72,"isFree":false,"operatingDays":"평일+토요일+공휴일","weekdayOpen":"00:00","weekdayClose":"23:59","weekendOpen":"00:00","weekendClose":"23:59","holidayOpen":"00:00","holidayClose":"23:59","feeInfo":"기본 5분 100원 / 추가 5분당 100원","phone":"02-491-4887","updatedAt":"2025-08-25","sido":"서울특별시","sigungu":"중랑구","dong":"면목동"},{"name":"면목5동","type":"공영","category":"노외","address":"서울특별시 중랑구 면목동 162-22","lat":37.58298757,"lng":127.0800613,"totalSpaces":67,"isFree":false,"operatingDays":"평일+토요일+공휴일","weekdayOpen":"00:00","weekdayClose":"23:59","weekendOpen":"00:00","weekendClose":"23:59","holidayOpen":"00:00","holidayClose":"23:59","feeInfo":"기본 5분 100원 / 추가 5분당 100원","phone":"02-438-7210","updatedAt":"2025-08-25","sido":"서울특별시","sigungu":"중랑구","dong":"면목동"},{"name":"망우3동","type":"공영","category":"노외","address":"서울특별시 중랑구 겸재로61길 40","lat":37.59189966,"lng":127.0949182,"totalSpaces":55,"isFree":false,"operatingDays":"평일+토요일+공휴일","weekdayOpen":"00:00","weekdayClose":"23:59","weekendOpen":"00:00","weekendClose":"23:59","holidayOpen":"00:00","holidayClose":"23:59","feeInfo":"기본 5분 100원 / 추가 5분당 100원","phone":"02-438-9145","updatedAt":"2025-08-25","sido":"서울특별시","sigungu":"중랑구","dong":"망우동"},{"name":"우림시장","type":"공영","category":"노상","address":"서울특별시 중랑구 망우로62길","lat":37.59671524,"lng":127.0987493,"totalSpaces":44,"isFree":false,"operatingDays":"평일+토요일","weekdayOpen":"09:00","weekdayClose":"19:00","weekendOpen":"09:00","weekendClose":"15:00","holidayOpen":"00:00","holidayClose":"00:00","feeInfo":"기본 5분 250원 / 추가 5분당 250원","phone":"02-491-4887","updatedAt":"2025-08-25","sido":"서울특별시","sigungu":"중랑구","dong":"망우동"},{"name":"동원시장","type":"공영","category":"노외","address":"서울특별시 중랑구 상봉로11길","lat":37.5898756,"lng":127.0931343,"totalSpaces":31,"isFree":false,"operatingDays":"평일+토요일+공휴일","weekdayOpen":"00:00","weekdayClose":"23:59","weekendOpen":"00:00","weekendClose":"23:59","holidayOpen":"00:00","holidayClose":"23:59","feeInfo":"기본 5분 100원 / 추가 5분당 100원","phone":"02-491-4887","updatedAt":"2025-08-25","sido":"서울특별시","sigungu":"중랑구","dong":"면목동"},{"name":"봉수대","type":"공영","category":"노외","address":"서울특별시 중랑구 봉화산로45길 67","lat":37.60643693,"lng":127.0916532,"totalSpaces":31,"isFree":false,"operatingDays":"평일+토요일+공휴일","weekdayOpen":"00:00","weekdayClose":"23:59","weekendOpen":"00:00","weekendClose":"23:59","holidayOpen":"00:00","holidayClose":"23:59","feeInfo":"기본 5분 100원 / 추가 5분당 100원","phone":"02-438-9145","updatedAt":"2025-08-25","sido":"서울특별시","sigungu":"중랑구","dong":"상봉동"},{"name":"면목시장","type":"공영","category":"노외","address":"서울특별시 중랑구 사가정로50길","lat":37.57764604,"lng":127.0842468,"totalSpaces":25,"isFree":false,"operatingDays":"평일+토요일+공휴일","weekdayOpen":"00:00","weekdayClose":"23:59","weekendOpen":"00:00","weekendClose":"23:59","holidayOpen":"00:00","holidayClose":"23:59","feeInfo":"기본 5분 100원 / 추가 5분당 100원","phone":"02-491-4887","updatedAt":"2025-08-25","sido":"서울특별시","sigungu":"중랑구","dong":"면목동"}]}