{"sido":"강원특별자치도","sigungu":"삼척시","totalCount":12,"validCount":12,"items":[{"name":"중앙로 주차장","type":"공영","category":"노상","address":"강원특별자치도 삼척시 중앙로 226","lat":37.44326452,"lng":129.168215,"totalSpaces":64,"isFree":true,"operatingDays":"평일","weekdayOpen":"09:00","weekdayClose":"18:00","weekendOpen":"00:00","weekendClose":"00:00","holidayOpen":"00:00","holidayClose":"00:00","feeInfo":"무료","phone":"033-570-3478","updatedAt":"2025-11-13","sido":"강원특별자치도","sigungu":"삼척시","dong":"남양동"},{"name":"진주로/오십천로 주차장","type":"공영","category":"노상","address":"강원특별자치도 삼척시 진주로 50-1","lat":37.44526071,"lng":129.1640922,"totalSpaces":60,"isFree":true,"operatingDays":"평일","weekdayOpen":"09:00","weekdayClose":"18:00","weekendOpen":"00:00","weekendClose":"00:00","holidayOpen":"00:00","holidayClose":"00:00","feeInfo":"무료","phone":"033-570-3478","updatedAt":"2025-11-13","sido":"강원특별자치도","sigungu":"삼척시","dong":"당저동"},{"name":"척주로 주차장","type":"공영","category":"노상","address":"강원특별자치도 삼척시 척주로 6","lat":37.44373146,"lng":129.1645633,"totalSpaces":80,"isFree":false,"operatingDays":"평일","weekdayOpen":"09:00","weekdayClose":"18:00","weekendOpen":"00:00","weekendClose":"00:00","holidayOpen":"00:00","holidayClose":"00:00","feeInfo":"기본 30분 500원 / 추가 30분당 500원","phone":"033-570-3478","updatedAt":"2025-11-13","sido":"강원특별자치도","sigungu":"삼척시","dong":"남양동"},{"name":"성내지구 제2주차장","type":"공영","category":"노외","address":"강원특별자치도 삼척시 대학로 11","lat":37.44204661,"lng":129.1632991,"totalSpaces":69,"isFree":false,"operatingDays":"평일","weekdayOpen":"09:00","weekdayClose":"18:00","weekendOpen":"00:00","weekendClose":"00:00","holidayOpen":"00:00","holidayClose":"00:00","feeInfo":"기본 30분 500원 / 추가 30분당 500원","phone":"033-570-3478","updatedAt":"2025-11-13","sido":"강원특별자치도","sigungu":"삼척시","dong":"읍중동"},{"name":"중앙시장 주차타워","type":"공영","category":"노외","address":"강원특별자치도 삼척시 중앙시장길 71-18","lat":37.44307615,"lng":129.1653217,"totalSpaces":52,"isFree":false,"operatingDays":"평일","weekdayOpen":"09:00","weekdayClose":"18:00","weekendOpen":"00:00","weekendClose":"00:00","holidayOpen":"00:00","holidayClose":"00:00","feeInfo":"기본 30분 500원 / 추가 30분당 500원","phone":"033-570-3478","updatedAt":"2025-11-13","sido":"강원특별자치도","sigungu":"삼척시","dong":"남양동"},{"name":"대학로 지하 주차장","type":"공영","category":"노외","address":"강원특별자치도 삼척시 대학로 31","lat":37.44388787,"lng":129.1629087,"totalSpaces":49,"isFree":false,"operatingDays":"평일","weekdayOpen":"09:00","weekdayClose":"18:00","weekendOpen":"00:00","weekendClose":"00:00","holidayOpen":"00:00","holidayClose":"00:00","feeInfo":"기본 30분 500원 / 추가 30분당 500원","phone":"033-570-3478","updatedAt":"2025-11-13","sido":"강원특별자치도","sigungu":"삼척시","dong":"당저동"},{"name":"중앙시장(통배기)주차장","type":"공영","category":"노외","address":"강원특별자치도 삼척시 중앙시장길 15","lat":37.44080565,"lng":129.1657353,"totalSpaces":46,"isFree":false,"operatingDays":"평일","weekdayOpen":"09:00","weekdayClose":"18:00","weekendOpen":"00:00","weekendClose":"00:00","holidayOpen":"00:00","holidayClose":"00:00","feeInfo":"기본 30분 500원 / 추가 30분당 500원","phone":"033-570-3478","updatedAt":"2025-11-13","sido":"강원특별자치도","sigungu":"삼척시","dong":"남양동"},{"name":"가고파앞(진주로) 주차장","type":"공영","category":"노외","address":"강원특별자치도 삼척시 진주로 44","lat":37.44452908,"lng":129.1642971,"totalSpaces":40,"isFree":false,"operatingDays":"평일","weekdayOpen":"09:00","weekdayClose":"18:00","weekendOpen":"00:00","weekendClose":"00:00","holidayOpen":"00:00","holidayClose":"00:00","feeInfo":"기본 30분 500원 / 추가 30분당 500원","phone":"033-570-3478","updatedAt":"2025-11-13","sido":"강원특별자치도","sigungu":"삼척시","dong":"남양동"},{"name":"새마을떡집 주차장","type":"공영","category":"노외","address":"강원특별자치도 삼척시 중앙시장 1길 6","lat":37.44132393,"lng":129.1661615,"totalSpaces":27,"isFree":false,"operatingDays":"평일","weekdayOpen":"09:00","weekdayClose":"18:00","weekendOpen":"00:00","weekendClose":"00:00","holidayOpen":"00:00","holidayClose":"00:00","feeInfo":"기본 30분 500원 / 추가 30분당 500원","phone":"033-570-3478","updatedAt":"2025-11-13","sido":"강원특별자치도","sigungu":"삼척시","dong":"남양동"},{"name":"중앙시장 제2주차장","type":"공영","category":"노외","address":"강원특별자치도 삼척시 중앙시장길 4","lat":37.44032127,"lng":129.1660169,"totalSpaces":25,"isFree":false,"operatingDays":"평일","weekdayOpen":"09:00","weekdayClose":"18:00","weekendOpen":"00:00","weekendClose":"00:00","holidayOpen":"00:00","holidayClose":"00:00","feeInfo":"기본 30분 500원 / 추가 30분당 500원","phone":"033-570-3478","updatedAt":"2025-11-13","sido":"강원특별자치도","sigungu":"삼척시","dong":"남양동"},{"name":"삼척고등학교 주차장","type":"공영","category":"노외","address":"강원특별자치도 삼척시 사대안길 9","lat":37.44439243,"lng":129.1652648,"totalSpaces":23,"isFree":false,"operatingDays":"평일","weekdayOpen":"09:00","weekdayClose":"18:00","weekendOpen":"00:00","weekendClose":"00:00","holidayOpen":"00:00","holidayClose":"00:00","feeInfo":"기본 30분 500원 / 추가 30분당 500원","phone":"033-570-3478","updatedAt":"2025-11-13","sido":"강원특별자치도","sigungu":"삼척시","dong":"남양동"},{"name":"삼척고등학교 주차장","type":"공영","category":"노상","address":"강원특별자치도 삼척시 사대안길 16","lat":37.44474053,"lng":129.1657358,"totalSpaces":12,"isFree":false,"operatingDays":"평일","weekdayOpen":"09:00","weekdayClose":"18:00","weekendOpen":"00:00","weekendClose":"00:00","holidayOpen":"00:00","holidayClose":"00:00","feeInfo":"기본 30분 500원 / 추가 30분당 500원","phone":"033-570-3478","updatedAt":"2025-11-13","sido":"강원특별자치도","sigungu":"삼척시","dong":"남양동"}]}