{"sido":"강원특별자치도","sigungu":"원주시","totalCount":112,"validCount":112,"items":[{"name":"새벽시장 주차장","type":"공영","category":"노외","address":"강원특별자치도 원주시 평원동 54","lat":37.34967309,"lng":127.954326,"totalSpaces":370,"isFree":true,"operatingDays":"평일+토요일+공휴일","weekdayOpen":"00:00","weekdayClose":"23:59","weekendOpen":"00:00","weekendClose":"23:59","holidayOpen":"00:00","holidayClose":"23:59","feeInfo":"무료","phone":"033-737-2522","updatedAt":"2025-12-29","sido":"강원특별자치도","sigungu":"원주시","dong":"평원동"},{"name":"간현관광지 주차장","type":"공영","category":"노외","address":"강원특별자치도 원주시 지정면 간현리 1031","lat":37.36377278,"lng":127.8339687,"totalSpaces":344,"isFree":true,"operatingDays":"평일+토요일+공휴일","weekdayOpen":"00:00","weekdayClose":"23:59","weekendOpen":"00:00","weekendClose":"23:59","holidayOpen":"00:00","holidayClose":"23:59","feeInfo":"무료","phone":"033-737-5134","updatedAt":"2025-12-29","sido":"강원특별자치도","sigungu":"원주시","dong":"지정면"},{"name":"단계동 복개천 주차장","type":"공영","category":"노외","address":"강원특별자치도 원주시 단계동 87-4","lat":37.35908183,"lng":127.9379642,"totalSpaces":301,"isFree":true,"operatingDays":"평일+토요일+공휴일","weekdayOpen":"00:00","weekdayClose":"23:59","weekendOpen":"00:00","weekendClose":"23:59","holidayOpen":"00:00","holidayClose":"23:59","feeInfo":"무료","phone":"033-737-3543","updatedAt":"2025-12-29","sido":"강원특별자치도","sigungu":"원주시","dong":"단계동"},{"name":"문막공영주차장","type":"공영","category":"노외","address":"강원특별자치도 원주시 문막읍 원문로 1890","lat":37.30685609,"lng":127.8147406,"totalSpaces":229,"isFree":true,"operatingDays":"평일+토요일+공휴일","weekdayOpen":"00:00","weekdayClose":"23:59","weekendOpen":"00:00","weekendClose":"23:59","holidayOpen":"00:00","holidayClose":"23:59","feeInfo":"무료","phone":"033-737-3543","updatedAt":"2025-12-29","sido":"강원특별자치도","sigungu":"원주시","dong":"문막읍"},{"name":"단계동 복개천 주차장","type":"공영","category":"노외","address":"강원특별자치도 원주시 단계동 1075-3","lat":37.35412278,"lng":127.934968,"totalSpaces":197,"isFree":true,"operatingDays":"평일+토요일+공휴일","weekdayOpen":"00:00","weekdayClose":"23:59","weekendOpen":"00:00","weekendClose":"23:59","holidayOpen":"00:00","holidayClose":"23:59","feeInfo":"무료","phone":"033-737-3543","updatedAt":"2025-12-29","sido":"강원특별자치도","sigungu":"원주시","dong":"단계동"},{"name":"우산동 주민센터앞 주차장","type":"공영","category":"노외","address":"강원특별자치도 원주시 진광길 9","lat":37.3714956,"lng":127.9400885,"totalSpaces":124,"isFree":true,"operatingDays":"평일+토요일+공휴일","weekdayOpen":"00:00","weekdayClose":"23:59","weekendOpen":"00:00","weekendClose":"23:59","holidayOpen":"00:00","holidayClose":"23:59","feeInfo":"무료","phone":"033-737-3543","updatedAt":"2025-12-29","sido":"강원특별자치도","sigungu":"원주시","dong":"우산동"},{"name":"만종역 부근 공영주차장","type":"공영","category":"노외","address":"강원특별자치도 원주시 호저면 만종리 1162-1번지","lat":37.35477,"lng":127.8916,"totalSpaces":114,"isFree":true,"operatingDays":"평일+토요일+공휴일","weekdayOpen":"00:00","weekdayClose":"23:59","weekendOpen":"00:00","weekendClose":"23:59","holidayOpen":"00:00","holidayClose":"23:59","feeInfo":"무료","phone":"033-737-3543","updatedAt":"2025-12-29","sido":"강원특별자치도","sigungu":"원주시","dong":"호저면"},{"name":"전통시장 공영주차장","type":"공영","category":"노외","address":"강원특별자치도 원주시 자유시장길 52","lat":37.35250958,"lng":127.9512322,"totalSpaces":106,"isFree":true,"operatingDays":"평일+토요일+공휴일","weekdayOpen":"00:00","weekdayClose":"23:59","weekendOpen":"00:00","weekendClose":"23:59","holidayOpen":"00:00","holidayClose":"23:59","feeInfo":"무료","phone":"033-737-2923","updatedAt":"2025-12-29","sido":"강원특별자치도","sigungu":"원주시","dong":"평원동"},{"name":"기업도시 도원로 노상주차장","type":"공영","category":"노상","address":"강원특별자치도 원주시 지정면 가곡리 1339번지","lat":37.37157,"lng":127.8781,"totalSpaces":99,"isFree":true,"operatingDays":"평일+토요일+공휴일","weekdayOpen":"00:00","weekdayClose":"23:59","weekendOpen":"00:00","weekendClose":"23:59","holidayOpen":"00:00","holidayClose":"23:59","feeInfo":"무료","phone":"033-737-3543","updatedAt":"2025-12-29","sido":"강원특별자치도","sigungu":"원주시","dong":"지정면"},{"name":"건등택지 노외주차장","type":"공영","category":"노외","address":"강원특별자치도 원주시 문막읍 건등리 1710-8","lat":37.3116032,"lng":127.8188047,"totalSpaces":82,"isFree":true,"operatingDays":"평일+토요일+공휴일","weekdayOpen":"00:00","weekdayClose":"23:59","weekendOpen":"00:00","weekendClose":"23:59","holidayOpen":"00:00","holidayClose":"23:59","feeInfo":"무료","phone":"033-737-3543","updatedAt":"2025-12-29","sido":"강원특별자치도","sigungu":"원주시","dong":"문막읍"},{"name":"단구동 유휴지 주차장","type":"공영","category":"노외","address":"강원특별자치도 원주시 단구로 281","lat":37.33058116,"lng":127.9574134,"totalSpaces":62,"isFree":true,"operatingDays":"평일+토요일+공휴일","weekdayOpen":"00:00","weekdayClose":"23:59","weekendOpen":"00:00","weekendClose":"23:59","holidayOpen":"00:00","holidayClose":"23:59","feeInfo":"무료","phone":"033-737-3543","updatedAt":"2025-12-29","sido":"강원특별자치도","sigungu":"원주시","dong":"단구동"},{"name":"부론면 공영주차장","type":"공영","category":"노외","address":"강원특별자치도 원주시 부론면 법천시장길 51-2","lat":37.20817299,"lng":127.7508701,"totalSpaces":60,"isFree":true,"operatingDays":"평일+토요일+공휴일","weekdayOpen":"00:00","weekdayClose":"23:59","weekendOpen":"00:00","weekendClose":"23:59","holidayOpen":"00:00","holidayClose":"23:59","feeInfo":"무료","phone":"033-737-3543","updatedAt":"2025-12-29","sido":"강원특별자치도","sigungu":"원주시","dong":"부론면"},{"name":"귀래면 공영주차장","type":"공영","category":"노외","address":"강원특별자치도 원주시 귀래면 운남리 956","lat":37.16965456,"lng":127.8825885,"totalSpaces":60,"isFree":true,"operatingDays":"평일+토요일+공휴일","weekdayOpen":"00:00","weekdayClose":"23:59","weekendOpen":"00:00","weekendClose":"23:59","holidayOpen":"00:00","holidayClose":"23:59","feeInfo":"무료","phone":"033-737-3543","updatedAt":"2025-12-29","sido":"강원특별자치도","sigungu":"원주시","dong":"귀래면"},{"name":"무실동 교도소 옆 유휴지 주차장","type":"공영","category":"노외","address":"강원특별자치도 원주시 무실동 352","lat":37.33877795,"lng":127.9308996,"totalSpaces":57,"isFree":true,"operatingDays":"평일+토요일+공휴일","weekdayOpen":"00:00","weekdayClose":"23:59","weekendOpen":"00:00","weekendClose":"23:59","holidayOpen":"00:00","holidayClose":"23:59","feeInfo":"무료","phone":"033-737-3543","updatedAt":"2025-12-29","sido":"강원특별자치도","sigungu":"원주시","dong":"무실동"},{"name":"서곡8리 공영주차장","type":"공영","category":"노외","address":"강원특별자치도 원주시 판부면 서곡리 2026-6","lat":37.32052208,"lng":127.9412695,"totalSpaces":54,"isFree":true,"operatingDays":"평일+토요일+공휴일","weekdayOpen":"00:00","weekdayClose":"23:59","weekendOpen":"00:00","weekendClose":"23:59","holidayOpen":"00:00","holidayClose":"23:59","feeInfo":"무료","phone":"033-737-3543","updatedAt":"2025-12-29","sido":"강원특별자치도","sigungu":"원주시","dong":"판부면"},{"name":"남부시장 공영주차장","type":"공영","category":"노외","address":"강원특별자치도 원주시 치악로 1803","lat":37.34301479,"lng":127.9544876,"totalSpaces":52,"isFree":true,"operatingDays":"평일+토요일+공휴일","weekdayOpen":"00:00","weekdayClose":"23:59","weekendOpen":"00:00","weekendClose":"23:59","holidayOpen":"00:00","holidayClose":"23:59","feeInfo":"무료","phone":"033-737-2923","updatedAt":"2025-12-29","sido":"강원특별자치도","sigungu":"원주시","dong":"명륜동"},{"name":"무실동주차장","type":"민영","category":"노외","address":"강원특별자치도 원주시 능라동길 60","lat":37.33412332,"lng":127.9303015,"totalSpaces":50,"isFree":true,"operatingDays":"평일+토요일+공휴일","weekdayOpen":"00:00","weekdayClose":"23:59","weekendOpen":"00:00","weekendClose":"23:59","holidayOpen":"00:00","holidayClose":"23:59","feeInfo":"무료","phone":"033-737-3544","updatedAt":"2025-12-29","sido":"강원특별자치도","sigungu":"원주시","dong":"무실동"},{"name":"귀래면 간이주차장","type":"공영","category":"노외","address":"강원특별자치도 원주시 귀래면 미륵산길 406","lat":37.16631265,"lng":127.8696963,"totalSpaces":50,"isFree":true,"operatingDays":"평일+토요일+공휴일","weekdayOpen":"00:00","weekdayClose":"23:59","weekendOpen":"00:00","weekendClose":"23:59","holidayOpen":"00:00","holidayClose":"23:59","feeInfo":"무료","phone":"033-737-3543","updatedAt":"2025-12-29","sido":"강원특별자치도","sigungu":"원주시","dong":"귀래면"},{"name":"반곡동 쌈지주차장","type":"공영","category":"노외","address":"강원특별자치도 원주시 반곡동 1905-7","lat":37.32693581,"lng":127.9899242,"totalSpaces":50,"isFree":true,"operatingDays":"평일+토요일+공휴일","weekdayOpen":"00:00","weekdayClose":"23:59","weekendOpen":"00:00","weekendClose":"23:59","holidayOpen":"00:00","holidayClose":"23:59","feeInfo":"무료","phone":"033-737-3543","updatedAt":"2025-12-29","sido":"강원특별자치도","sigungu":"원주시","dong":"반곡동"},{"name":"태장2동 공영주차장","type":"공영","category":"노외","address":"강원특별자치도 원주시 흥양로18번길 35","lat":37.38032126,"lng":127.9503809,"totalSpaces":49,"isFree":true,"operatingDays":"평일+토요일+공휴일","weekdayOpen":"00:00","weekdayClose":"23:59","weekendOpen":"00:00","weekendClose":"23:59","holidayOpen":"00:00","holidayClose":"23:59","feeInfo":"무료","phone":"033-737-3543","updatedAt":"2025-12-29","sido":"강원특별자치도","sigungu":"원주시","dong":"태장동"},{"name":"무실동 이화마을 주차장","type":"공영","category":"노외","address":"강원특별자치도 원주시 단계동 917","lat":37.3399048,"lng":127.9329774,"totalSpaces":49,"isFree":true,"operatingDays":"평일+토요일+공휴일","weekdayOpen":"00:00","weekdayClose":"23:59","weekendOpen":"00:00","weekendClose":"23:59","holidayOpen":"00:00","holidayClose":"23:59","feeInfo":"무료","phone":"033-737-3543","updatedAt":"2025-12-29","sido":"강원특별자치도","sigungu":"원주시","dong":"단계동"},{"name":"태장동 쌈지주차장","type":"공영","category":"노외","address":"강원특별자치도 원주시 태장동 1052-1번지","lat":37.38264,"lng":127.9522,"totalSpaces":49,"isFree":true,"operatingDays":"평일+토요일+공휴일","weekdayOpen":"00:00","weekdayClose":"23:59","weekendOpen":"00:00","weekendClose":"23:59","holidayOpen":"00:00","holidayClose":"23:59","feeInfo":"무료","phone":"033-737-3543","updatedAt":"2025-12-29","sido":"강원특별자치도","sigungu":"원주시","dong":"태장동"},{"name":"단구시장 공영주차장","type":"공영","category":"노외","address":"강원특별자치도 원주시 단구동 1451-19","lat":37.33178359,"lng":127.9530926,"totalSpaces":48,"isFree":true,"operatingDays":"평일+토요일+공휴일","weekdayOpen":"00:00","weekdayClose":"23:59","weekendOpen":"00:00","weekendClose":"23:59","holidayOpen":"00:00","holidayClose":"23:59","feeInfo":"무료","phone":"033-737-3543","updatedAt":"2025-12-29","sido":"강원특별자치도","sigungu":"원주시","dong":"단구동"},{"name":"우산동 공영주차장","type":"공영","category":"노외","address":"강원특별자치도 원주시 우산동 572-2","lat":37.3795703,"lng":127.9367006,"totalSpaces":48,"isFree":true,"operatingDays":"평일+토요일+공휴일","weekdayOpen":"00:00","weekdayClose":"23:59","weekendOpen":"00:00","weekendClose":"23:59","holidayOpen":"00:00","holidayClose":"23:59","feeInfo":"무료","phone":"033-737-3543","updatedAt":"2025-12-29","sido":"강원특별자치도","sigungu":"원주시","dong":"우산동"},{"name":"개운동 물레방아거리 주차장","type":"공영","category":"노외","address":"강원특별자치도 원주시 개운동 384-10번지","lat":37.3428,"lng":127.9569,"totalSpaces":46,"isFree":true,"operatingDays":"평일+토요일+공휴일","weekdayOpen":"00:00","weekdayClose":"23:59","weekendOpen":"00:00","weekendClose":"23:59","holidayOpen":"00:00","holidayClose":"23:59","feeInfo":"무료","phone":"033-737-3543","updatedAt":"2025-12-29","sido":"강원특별자치도","sigungu":"원주시","dong":"개운동"},{"name":"무실동 이화마을2 주차장","type":"공영","category":"노외","address":"강원특별자치도 원주시 이화4길 28","lat":37.33994671,"lng":127.9324695,"totalSpaces":45,"isFree":true,"operatingDays":"평일+토요일+공휴일","weekdayOpen":"00:00","weekdayClose":"23:59","weekendOpen":"00:00","weekendClose":"23:59","holidayOpen":"00:00","holidayClose":"23:59","feeInfo":"무료","phone":"033-737-3543","updatedAt":"2025-12-29","sido":"강원특별자치도","sigungu":"원주시","dong":"단계동"},{"name":"소초 공영주차장","type":"공영","category":"노외","address":"강원특별자치도 원주시 소초면 장양리 782-1","lat":37.41069601,"lng":127.9554687,"totalSpaces":44,"isFree":true,"operatingDays":"평일+토요일+공휴일","weekdayOpen":"00:00","weekdayClose":"23:59","weekendOpen":"00:00","weekendClose":"23:59","holidayOpen":"00:00","holidayClose":"23:59","feeInfo":"무료","phone":"033-737-3543","updatedAt":"2025-12-29","sido":"강원특별자치도","sigungu":"원주시","dong":"소초면"},{"name":"행구동 공영주차장","type":"공영","category":"노상","address":"강원특별자치도 원주시 행구동 산 180-4","lat":37.34310612,"lng":127.9825393,"totalSpaces":43,"isFree":true,"operatingDays":"평일+토요일+공휴일","weekdayOpen":"00:00","weekdayClose":"23:59","weekendOpen":"00:00","weekendClose":"23:59","holidayOpen":"00:00","holidayClose":"23:59","feeInfo":"무료","phone":"033-737-3543","updatedAt":"2025-12-29","sido":"강원특별자치도","sigungu":"원주시","dong":"행구동"},{"name":"시장활성화 공영주차장","type":"공영","category":"노외","address":"강원특별자치도 원주시 중앙동 23","lat":37.35127695,"lng":127.9483647,"totalSpaces":42,"isFree":true,"operatingDays":"평일+토요일+공휴일","weekdayOpen":"00:00","weekdayClose":"23:59","weekendOpen":"00:00","weekendClose":"23:59","holidayOpen":"00:00","holidayClose":"23:59","feeInfo":"무료","phone":"033-737-2923","updatedAt":"2025-12-29","sido":"강원특별자치도","sigungu":"원주시","dong":"중앙동"},{"name":"학성동 청산2길 공영주차장","type":"공영","category":"노외","address":"강원특별자치도 원주시 학성동 1023-100","lat":37.35336054,"lng":127.9396712,"totalSpaces":38,"isFree":true,"operatingDays":"평일+토요일+공휴일","weekdayOpen":"00:00","weekdayClose":"23:59","weekendOpen":"00:00","weekendClose":"23:59","holidayOpen":"00:00","holidayClose":"23:59","feeInfo":"무료","phone":"033-737-3543","updatedAt":"2025-12-29","sido":"강원특별자치도","sigungu":"원주시","dong":"학성동"},{"name":"태장2동 간이주차장","type":"공영","category":"노외","address":"강원특별자치도 원주시 북원로2685번길 25-5","lat":37.38254182,"lng":127.944074,"totalSpaces":36,"isFree":true,"operatingDays":"평일+토요일+공휴일","weekdayOpen":"00:00","weekdayClose":"23:59","weekendOpen":"00:00","weekendClose":"23:59","holidayOpen":"00:00","holidayClose":"23:59","feeInfo":"무료","phone":"033-737-3543","updatedAt":"2025-12-29","sido":"강원특별자치도","sigungu":"원주시","dong":"태장동"},{"name":"관설동 공영주차장","type":"공영","category":"노외","address":"강원특별자치도 원주시 관설동 1745-4","lat":37.31884907,"lng":127.9620383,"totalSpaces":36,"isFree":true,"operatingDays":"평일+토요일+공휴일","weekdayOpen":"00:00","weekdayClose":"23:59","weekendOpen":"00:00","weekendClose":"23:59","holidayOpen":"00:00","holidayClose":"23:59","feeInfo":"무료","phone":"033-737-3543","updatedAt":"2025-12-29","sido":"강원특별자치도","sigungu":"원주시","dong":"관설동"},{"name":"원주역주차장","type":"민영","category":"노외","address":"강원특별자치도 원주시 평원로 158","lat":37.35706615,"lng":127.9448967,"totalSpaces":34,"isFree":true,"operatingDays":"평일+토요일+공휴일","weekdayOpen":"00:00","weekdayClose":"23:59","weekendOpen":"00:00","weekendClose":"23:59","holidayOpen":"00:00","holidayClose":"23:59","feeInfo":"무료","phone":"033-737-3544","updatedAt":"2025-12-29","sido":"강원특별자치도","sigungu":"원주시","dong":"학성동"},{"name":"관설동 간이주차장","type":"공영","category":"노외","address":"강원특별자치도 원주시 관설동 1745-4","lat":37.31884907,"lng":127.9620383,"totalSpaces":32,"isFree":true,"operatingDays":"평일+토요일+공휴일","weekdayOpen":"00:00","weekdayClose":"23:59","weekendOpen":"00:00","weekendClose":"23:59","holidayOpen":"00:00","holidayClose":"23:59","feeInfo":"무료","phone":"033-737-3543","updatedAt":"2025-12-29","sido":"강원특별자치도","sigungu":"원주시","dong":"관설동"},{"name":"북원상가 공영주차장","type":"공영","category":"노외","address":"강원특별자치도 원주시 태장둔치길 11","lat":37.38373578,"lng":127.948739,"totalSpaces":32,"isFree":true,"operatingDays":"평일+토요일+공휴일","weekdayOpen":"00:00","weekdayClose":"23:59","weekendOpen":"00:00","weekendClose":"23:59","holidayOpen":"00:00","holidayClose":"23:59","feeInfo":"무료","phone":"033-737-3543","updatedAt":"2025-12-29","sido":"강원특별자치도","sigungu":"원주시","dong":"태장동"},{"name":"흥업 간이주차장","type":"공영","category":"노외","address":"강원특별자치도 원주시 흥업면 흥업리 586-3","lat":37.30224146,"lng":127.9199636,"totalSpaces":31,"isFree":true,"operatingDays":"평일+토요일+공휴일","weekdayOpen":"00:00","weekdayClose":"23:59","weekendOpen":"00:00","weekendClose":"23:59","holidayOpen":"00:00","holidayClose":"23:59","feeInfo":"무료","phone":"033-737-3543","updatedAt":"2025-12-29","sido":"강원특별자치도","sigungu":"원주시","dong":"흥업면"},{"name":"흥업 공영주차장","type":"공영","category":"노외","address":"강원특별자치도 원주시 흥업면 남원로 60","lat":37.30129239,"lng":127.9196653,"totalSpaces":30,"isFree":true,"operatingDays":"평일+토요일+공휴일","weekdayOpen":"00:00","weekdayClose":"23:59","weekendOpen":"00:00","weekendClose":"23:59","holidayOpen":"00:00","holidayClose":"23:59","feeInfo":"무료","phone":"033-737-3543","updatedAt":"2025-12-29","sido":"강원특별자치도","sigungu":"원주시","dong":"흥업면"},{"name":"제8전투비행장 남문 옆 간이주차장","type":"공영","category":"노외","address":"강원특별자치도 원주시 소초면 장양리 1023-1","lat":37.42459282,"lng":127.9631646,"totalSpaces":29,"isFree":true,"operatingDays":"평일+토요일+공휴일","weekdayOpen":"00:00","weekdayClose":"23:59","weekendOpen":"00:00","weekendClose":"23:59","holidayOpen":"00:00","holidayClose":"23:59","feeInfo":"무료","phone":"033-737-3543","updatedAt":"2025-12-29","sido":"강원특별자치도","sigungu":"원주시","dong":"소초면"},{"name":"신림면 공영주차장","type":"공영","category":"노외","address":"강원특별자치도 원주시 신림면 신림리 698-12","lat":37.23010605,"lng":128.079484,"totalSpaces":29,"isFree":true,"operatingDays":"평일+토요일+공휴일","weekdayOpen":"00:00","weekdayClose":"23:59","weekendOpen":"00:00","weekendClose":"23:59","holidayOpen":"00:00","holidayClose":"23:59","feeInfo":"무료","phone":"033-737-3543","updatedAt":"2025-12-29","sido":"강원특별자치도","sigungu":"원주시","dong":"신림면"},{"name":"신림시장 공영주차장","type":"공영","category":"노외","address":"강원특별자치도 원주시 신림면 신림리 537-2","lat":37.23036406,"lng":128.0819261,"totalSpaces":28,"isFree":true,"operatingDays":"평일+토요일+공휴일","weekdayOpen":"00:00","weekdayClose":"23:59","weekendOpen":"00:00","weekendClose":"23:59","holidayOpen":"00:00","holidayClose":"23:59","feeInfo":"무료","phone":"033-737-3543","updatedAt":"2025-12-29","sido":"강원특별자치도","sigungu":"원주시","dong":"신림면"},{"name":"관설동 유휴지 주차장","type":"공영","category":"노외","address":"강원특별자치도 원주시 관설동 1452-5","lat":37.3180657,"lng":127.9664811,"totalSpaces":27,"isFree":true,"operatingDays":"평일+토요일+공휴일","weekdayOpen":"00:00","weekdayClose":"23:59","weekendOpen":"00:00","weekendClose":"23:59","holidayOpen":"00:00","holidayClose":"23:59","feeInfo":"무료","phone":"033-737-3543","updatedAt":"2025-12-29","sido":"강원특별자치도","sigungu":"원주시","dong":"관설동"},{"name":"동화리 공영주차장","type":"공영","category":"노외","address":"강원특별자치도 원주시 문막읍 동화택지길 3-7","lat":37.3238919,"lng":127.8302476,"totalSpaces":26,"isFree":true,"operatingDays":"평일+토요일+공휴일","weekdayOpen":"00:00","weekdayClose":"23:59","weekendOpen":"00:00","weekendClose":"23:59","holidayOpen":"00:00","holidayClose":"23:59","feeInfo":"무료","phone":"033-737-3543","updatedAt":"2025-12-29","sido":"강원특별자치도","sigungu":"원주시","dong":"문막읍"},{"name":"소초면 장양리 공영주차장","type":"공영","category":"노외","address":"강원특별자치도 원주시 소초면 장양리 806","lat":37.41102352,"lng":127.9595357,"totalSpaces":26,"isFree":true,"operatingDays":"평일+토요일+공휴일","weekdayOpen":"00:00","weekdayClose":"23:59","weekendOpen":"00:00","weekendClose":"23:59","holidayOpen":"00:00","holidayClose":"23:59","feeInfo":"무료","phone":"033-737-3543","updatedAt":"2025-12-29","sido":"강원특별자치도","sigungu":"원주시","dong":"소초면"},{"name":"봉산동 간이주차장","type":"공영","category":"노외","address":"강원특별자치도 원주시 임윤지당길 31","lat":37.34597176,"lng":127.9581992,"totalSpaces":25,"isFree":true,"operatingDays":"평일+토요일+공휴일","weekdayOpen":"00:00","weekdayClose":"23:59","weekendOpen":"00:00","weekendClose":"23:59","holidayOpen":"00:00","holidayClose":"23:59","feeInfo":"무료","phone":"033-737-3543","updatedAt":"2025-12-29","sido":"강원특별자치도","sigungu":"원주시","dong":"봉산동"},{"name":"봉화산2택지 임시주차장","type":"공영","category":"노외","address":"강원특별자치도 원주시 단계동 729-5번지","lat":37.35499,"lng":127.9166,"totalSpaces":25,"isFree":true,"operatingDays":"평일+토요일+공휴일","weekdayOpen":"00:00","weekdayClose":"23:59","weekendOpen":"00:00","weekendClose":"23:59","holidayOpen":"00:00","holidayClose":"23:59","feeInfo":"무료","phone":"033-737-3543","updatedAt":"2025-12-29","sido":"강원특별자치도","sigungu":"원주시","dong":"단계동"},{"name":"우산동 돌터5길 공영주차장","type":"공영","category":"노외","address":"강원특별자치도 원주시 우산초교길 28-3","lat":37.36785094,"lng":127.9381319,"totalSpaces":23,"isFree":true,"operatingDays":"평일+토요일+공휴일","weekdayOpen":"00:00","weekdayClose":"23:59","weekendOpen":"00:00","weekendClose":"23:59","holidayOpen":"00:00","holidayClose":"23:59","feeInfo":"무료","phone":"033-737-3543","updatedAt":"2025-12-29","sido":"강원특별자치도","sigungu":"원주시","dong":"우산동"},{"name":"개운동 공영주차장","type":"공영","category":"노외","address":"강원특별자치도 원주시 개운동 128-9","lat":37.33958833,"lng":127.955937,"totalSpaces":22,"isFree":true,"operatingDays":"평일+토요일+공휴일","weekdayOpen":"00:00","weekdayClose":"23:59","weekendOpen":"00:00","weekendClose":"23:59","holidayOpen":"00:00","holidayClose":"23:59","feeInfo":"무료","phone":"033-737-3543","updatedAt":"2025-12-29","sido":"강원특별자치도","sigungu":"원주시","dong":"개운동"},{"name":"단구동 간이 공영주차장","type":"공영","category":"노외","address":"강원특별자치도 원주시 단관길 110-1","lat":37.32026072,"lng":127.9584088,"totalSpaces":20,"isFree":true,"operatingDays":"평일+토요일+공휴일","weekdayOpen":"00:00","weekdayClose":"23:59","weekendOpen":"00:00","weekendClose":"23:59","holidayOpen":"00:00","holidayClose":"23:59","feeInfo":"무료","phone":"033-737-3543","updatedAt":"2025-12-29","sido":"강원특별자치도","sigungu":"원주시","dong":"단구동"},{"name":"무실동 쌈지주차장","type":"공영","category":"노외","address":"강원특별자치도 원주시 무실동 1721-8","lat":37.34082026,"lng":127.9225325,"totalSpaces":20,"isFree":true,"operatingDays":"평일+토요일+공휴일","weekdayOpen":"00:00","weekdayClose":"23:59","weekendOpen":"00:00","weekendClose":"23:59","holidayOpen":"00:00","holidayClose":"23:59","feeInfo":"무료","phone":"033-737-3543","updatedAt":"2025-12-29","sido":"강원특별자치도","sigungu":"원주시","dong":"무실동"},{"name":"문막읍 건등리 쌈지주차장","type":"공영","category":"노외","address":"강원특별자치도 원주시 문막읍 건등리 204-34번지","lat":37.3205,"lng":127.8304,"totalSpaces":20,"isFree":true,"operatingDays":"평일+토요일+공휴일","weekdayOpen":"00:00","weekdayClose":"23:59","weekendOpen":"00:00","weekendClose":"23:59","holidayOpen":"00:00","holidayClose":"23:59","feeInfo":"무료","phone":"033-737-3559","updatedAt":"2025-12-29","sido":"강원특별자치도","sigungu":"원주시","dong":"문막읍"},{"name":"신촌부락 공영주차장","type":"공영","category":"노외","address":"강원특별자치도 원주시 태장동 2288-1","lat":37.39698386,"lng":127.9492546,"totalSpaces":15,"isFree":true,"operatingDays":"평일+토요일+공휴일","weekdayOpen":"00:00","weekdayClose":"23:59","weekendOpen":"00:00","weekendClose":"23:59","holidayOpen":"00:00","holidayClose":"23:59","feeInfo":"무료","phone":"033-737-3543","updatedAt":"2025-12-29","sido":"강원특별자치도","sigungu":"원주시","dong":"태장동"},{"name":"봉산동 유휴지 주차장","type":"공영","category":"노외","address":"강원특별자치도 원주시 봉산동 1105-2","lat":37.34868041,"lng":127.9581784,"totalSpaces":12,"isFree":true,"operatingDays":"평일+토요일+공휴일","weekdayOpen":"00:00","weekdayClose":"23:59","weekendOpen":"00:00","weekendClose":"23:59","holidayOpen":"00:00","holidayClose":"23:59","feeInfo":"무료","phone":"033-737-3543","updatedAt":"2025-12-29","sido":"강원특별자치도","sigungu":"원주시","dong":"봉산동"},{"name":"태장동 우성아파트 인근 공영주차장","type":"공영","category":"노외","address":"강원특별자치도 원주시 태장동 2071-2","lat":37.39607882,"lng":127.9517871,"totalSpaces":11,"isFree":true,"operatingDays":"평일+토요일+공휴일","weekdayOpen":"00:00","weekdayClose":"23:59","weekendOpen":"00:00","weekendClose":"23:59","holidayOpen":"00:00","holidayClose":"23:59","feeInfo":"무료","phone":"033-737-3543","updatedAt":"2025-12-29","sido":"강원특별자치도","sigungu":"원주시","dong":"태장동"},{"name":"지정면 간이주차장","type":"공영","category":"노외","address":"강원특별자치도 원주시 지정면 간현리 857-4","lat":37.36232536,"lng":127.8393974,"totalSpaces":10,"isFree":true,"operatingDays":"평일+토요일+공휴일","weekdayOpen":"00:00","weekdayClose":"23:59","weekendOpen":"00:00","weekendClose":"23:59","holidayOpen":"00:00","holidayClose":"23:59","feeInfo":"무료","phone":"033-737-3543","updatedAt":"2025-12-29","sido":"강원특별자치도","sigungu":"원주시","dong":"지정면"},{"name":"태장1동 유휴지 주차장","type":"공영","category":"노외","address":"강원특별자치도 원주시 천사로 291","lat":37.35533837,"lng":127.9552877,"totalSpaces":10,"isFree":true,"operatingDays":"평일+토요일+공휴일","weekdayOpen":"00:00","weekdayClose":"23:59","weekendOpen":"00:00","weekendClose":"23:59","holidayOpen":"00:00","holidayClose":"23:59","feeInfo":"무료","phone":"033-737-3543","updatedAt":"2025-12-29","sido":"강원특별자치도","sigungu":"원주시","dong":"태장동"},{"name":"명륜동 쌈지주차장","type":"공영","category":"노외","address":"강원특별자치도 원주시 명륜동 819-12","lat":37.33004162,"lng":127.9445348,"totalSpaces":6,"isFree":true,"operatingDays":"평일+토요일+공휴일","weekdayOpen":"00:00","weekdayClose":"23:59","weekendOpen":"00:00","weekendClose":"23:59","holidayOpen":"00:00","holidayClose":"23:59","feeInfo":"무료","phone":"033-737-3543","updatedAt":"2025-12-29","sido":"강원특별자치도","sigungu":"원주시","dong":"명륜동"},{"name":"단구동 쌈지공영주차장","type":"공영","category":"노외","address":"강원특별자치도 원주시 단구동 1569-1","lat":37.32143746,"lng":127.9492926,"totalSpaces":6,"isFree":true,"operatingDays":"평일+토요일+공휴일","weekdayOpen":"00:00","weekdayClose":"23:59","weekendOpen":"00:00","weekendClose":"23:59","holidayOpen":"00:00","holidayClose":"23:59","feeInfo":"무료","phone":"033-737-3543","updatedAt":"2025-12-29","sido":"강원특별자치도","sigungu":"원주시","dong":"단구동"},{"name":"봉산2동 주차장","type":"공영","category":"노외","address":"강원특별자치도 원주시 봉산동 902-151","lat":37.34574795,"lng":127.9590469,"totalSpaces":6,"isFree":true,"operatingDays":"평일+토요일+공휴일","weekdayOpen":"00:00","weekdayClose":"23:59","weekendOpen":"00:00","weekendClose":"23:59","holidayOpen":"00:00","holidayClose":"23:59","feeInfo":"무료","phone":"033-737-3543","updatedAt":"2025-12-29","sido":"강원특별자치도","sigungu":"원주시","dong":"봉산동"},{"name":"원주기독병원주차장","type":"민영","category":"노외","address":"강원특별자치도 원주시 일산로 20","lat":37.34911764,"lng":127.9467233,"totalSpaces":905,"isFree":false,"operatingDays":"평일+토요일+공휴일","weekdayOpen":"00:00","weekdayClose":"23:59","weekendOpen":"00:00","weekendClose":"23:59","holidayOpen":"00:00","holidayClose":"23:59","feeInfo":"기본 30분 600원 / 추가 10분당 500원","phone":"033-737-3544","updatedAt":"2025-12-29","sido":"강원특별자치도","sigungu":"원주시","dong":"일산동"},{"name":"시외버스터미널주차장","type":"민영","category":"노외","address":"강원특별자치도 원주시 서원대로 171","lat":37.34481442,"lng":127.9308137,"totalSpaces":817,"isFree":false,"operatingDays":"평일+토요일+공휴일","weekdayOpen":"00:00","weekdayClose":"23:59","weekendOpen":"00:00","weekendClose":"23:59","holidayOpen":"00:00","holidayClose":"23:59","feeInfo":"기본 30분 600원 / 추가 10분당 500원","phone":"033-737-3544","updatedAt":"2025-12-29","sido":"강원특별자치도","sigungu":"원주시","dong":"단계동"},{"name":"아울렛 주차장","type":"민영","category":"노외","address":"강원특별자치도 원주시 단구로 354-17","lat":37.3254316,"lng":127.9564215,"totalSpaces":180,"isFree":false,"operatingDays":"평일+토요일+공휴일","weekdayOpen":"00:00","weekdayClose":"23:59","weekendOpen":"00:00","weekendClose":"23:59","holidayOpen":"00:00","holidayClose":"23:59","feeInfo":"기본 30분 600원 / 추가 10분당 500원","phone":"033-737-3544","updatedAt":"2025-12-29","sido":"강원특별자치도","sigungu":"원주시","dong":"단구동"},{"name":"무실동 공영주차장","type":"공영","category":"노상","address":"강원특별자치도 원주시 능라동길 70","lat":37.3337964,"lng":127.9302032,"totalSpaces":165,"isFree":false,"operatingDays":"평일","weekdayOpen":"08:00","weekdayClose":"20:00","weekendOpen":"00:00","weekendClose":"00:00","holidayOpen":"00:00","holidayClose":"00:00","feeInfo":"기본 30분 600원 / 추가 10분당 300원","phone":"033-737-3559","updatedAt":"2025-12-29","sido":"강원특별자치도","sigungu":"원주시","dong":"무실동"},{"name":"원주주차타워","type":"민영","category":"노외","address":"강원특별자치도 원주시 장미공원길 65","lat":37.34650792,"lng":127.9293723,"totalSpaces":159,"isFree":false,"operatingDays":"평일+토요일+공휴일","weekdayOpen":"00:00","weekdayClose":"23:59","weekendOpen":"00:00","weekendClose":"23:59","holidayOpen":"00:00","holidayClose":"23:59","feeInfo":"기본 30분 600원 / 추가 10분당 500원","phone":"033-737-3544","updatedAt":"2025-12-29","sido":"강원특별자치도","sigungu":"원주시","dong":"단계동"},{"name":"에스티에프주차타워","type":"민영","category":"노외","address":"강원특별자치도 원주시 만대공원길 50","lat":37.33928448,"lng":127.9257687,"totalSpaces":121,"isFree":false,"operatingDays":"평일+토요일+공휴일","weekdayOpen":"00:00","weekdayClose":"23:59","weekendOpen":"00:00","weekendClose":"23:59","holidayOpen":"00:00","holidayClose":"23:59","feeInfo":"기본 30분 600원 / 추가 10분당 500원","phone":"033-737-3544","updatedAt":"2025-12-29","sido":"강원특별자치도","sigungu":"원주시","dong":"무실동"},{"name":"학성공영주차장","type":"공영","category":"노외","address":"강원특별자치도 원주시 학성길 120","lat":37.35352271,"lng":127.9446832,"totalSpaces":115,"isFree":false,"operatingDays":"평일","weekdayOpen":"08:00","weekdayClose":"20:00","weekendOpen":"00:00","weekendClose":"00:00","holidayOpen":"00:00","holidayClose":"00:00","feeInfo":"기본 30분 600원 / 추가 10분당 300원","phone":"033-737-3559","updatedAt":"2025-12-29","sido":"강원특별자치도","sigungu":"원주시","dong":"학성동"},{"name":"해동주차장","type":"민영","category":"노외","address":"강원특별자치도 원주시 서원대로 181","lat":37.3443695,"lng":127.9319815,"totalSpaces":109,"isFree":false,"operatingDays":"평일+토요일+공휴일","weekdayOpen":"00:00","weekdayClose":"23:59","weekendOpen":"00:00","weekendClose":"23:59","holidayOpen":"00:00","holidayClose":"23:59","feeInfo":"기본 30분 600원 / 추가 10분당 500원","phone":"033-737-3544","updatedAt":"2025-12-29","sido":"강원특별자치도","sigungu":"원주시","dong":"단계동"},{"name":"단계택지공영주차장","type":"공영","category":"노상","address":"강원특별자치도 원주시 단계동 854","lat":37.34665495,"lng":127.931194,"totalSpaces":88,"isFree":false,"operatingDays":"평일","weekdayOpen":"08:00","weekdayClose":"20:00","weekendOpen":"00:00","weekendClose":"00:00","holidayOpen":"00:00","holidayClose":"00:00","feeInfo":"기본 30분 600원 / 추가 10분당 300원","phone":"033-737-3559","updatedAt":"2025-12-29","sido":"강원특별자치도","sigungu":"원주시","dong":"단계동"},{"name":"중앙로구간공영주차장","type":"공영","category":"노상","address":"강원특별자치도 원주시 학성동 329-5","lat":37.35468179,"lng":127.9468242,"totalSpaces":84,"isFree":false,"operatingDays":"평일","weekdayOpen":"08:00","weekdayClose":"20:00","weekendOpen":"00:00","weekendClose":"00:00","holidayOpen":"00:00","holidayClose":"00:00","feeInfo":"기본 30분 600원 / 추가 10분당 300원","phone":"033-737-3559","updatedAt":"2025-12-29","sido":"강원특별자치도","sigungu":"원주시","dong":"학성동"},{"name":"21세기유료주차장","type":"민영","category":"노외","address":"강원특별자치도 원주시 남원로534번길 28","lat":37.33005835,"lng":127.9492916,"totalSpaces":64,"isFree":false,"operatingDays":"평일+토요일+공휴일","weekdayOpen":"00:00","weekdayClose":"23:59","weekendOpen":"00:00","weekendClose":"23:59","holidayOpen":"00:00","holidayClose":"23:59","feeInfo":"기본 30분 600원 / 추가 10분당 500원","phone":"033-737-3544","updatedAt":"2025-12-29","sido":"강원특별자치도","sigungu":"원주시","dong":"단구동"},{"name":"무삼공원 공영주차장","type":"공영","category":"노외","address":"강원특별자치도 원주시 무실동 1826번지","lat":37.33309,"lng":127.9318,"totalSpaces":62,"isFree":false,"operatingDays":"평일+토요일+공휴일","weekdayOpen":"00:00","weekdayClose":"23:59","weekendOpen":"00:00","weekendClose":"23:59","holidayOpen":"00:00","holidayClose":"23:59","feeInfo":"기본 30분 600원 / 추가 10분당 300원","phone":"033-737-3559","updatedAt":"2025-12-29","sido":"강원특별자치도","sigungu":"원주시","dong":"무실동"},{"name":"지에스리테일주차장","type":"민영","category":"노외","address":"강원특별자치도 원주시 단구동 1516-4","lat":37.33093279,"lng":127.9476554,"totalSpaces":57,"isFree":false,"operatingDays":"평일+토요일+공휴일","weekdayOpen":"00:00","weekdayClose":"23:59","weekendOpen":"00:00","weekendClose":"23:59","holidayOpen":"00:00","holidayClose":"23:59","feeInfo":"기본 10분 600원 / 추가 10분당 500원","phone":"033-737-3544","updatedAt":"2025-12-29","sido":"강원특별자치도","sigungu":"원주시","dong":"단구동"},{"name":"학성동 노상주차장","type":"공영","category":"노상","address":"강원특별자치도 원주시 원일로 160","lat":37.35270033,"lng":127.9468741,"totalSpaces":51,"isFree":false,"operatingDays":"평일","weekdayOpen":"08:00","weekdayClose":"20:00","weekendOpen":"00:00","weekendClose":"00:00","holidayOpen":"00:00","holidayClose":"00:00","feeInfo":"기본 30분 600원 / 추가 10분당 300원","phone":"033-737-3559","updatedAt":"2025-12-29","sido":"강원특별자치도","sigungu":"원주시","dong":"학성동"},{"name":"제일주차장","type":"민영","category":"노외","address":"강원특별자치도 원주시 일산로 34","lat":37.34822006,"lng":127.9476701,"totalSpaces":50,"isFree":false,"operatingDays":"평일+토요일+공휴일","weekdayOpen":"00:00","weekdayClose":"23:59","weekendOpen":"00:00","weekendClose":"23:59","holidayOpen":"00:00","holidayClose":"23:59","feeInfo":"기본 30분 600원 / 추가 10분당 500원","phone":"033-737-3544","updatedAt":"2025-12-29","sido":"강원특별자치도","sigungu":"원주시","dong":"일산동"},{"name":"형제주차장","type":"민영","category":"노외","address":"강원특별자치도 원주시 평원로 22","lat":37.34886445,"lng":127.9532207,"totalSpaces":48,"isFree":false,"operatingDays":"평일+토요일+공휴일","weekdayOpen":"00:00","weekdayClose":"23:59","weekendOpen":"00:00","weekendClose":"23:59","holidayOpen":"00:00","holidayClose":"23:59","feeInfo":"기본 30분 600원 / 추가 10분당 500원","phone":"033-737-3544","updatedAt":"2025-12-29","sido":"강원특별자치도","sigungu":"원주시","dong":"평원동"},{"name":"성지병원주차장","type":"민영","category":"노외","address":"강원특별자치도 원주시 중앙로 38-2","lat":37.34710196,"lng":127.9539866,"totalSpaces":44,"isFree":false,"operatingDays":"평일+토요일+공휴일","weekdayOpen":"00:00","weekdayClose":"23:59","weekendOpen":"00:00","weekendClose":"23:59","holidayOpen":"00:00","holidayClose":"23:59","feeInfo":"기본 30분 600원 / 추가 10분당 500원","phone":"033-737-3544","updatedAt":"2025-12-29","sido":"강원특별자치도","sigungu":"원주시","dong":"인동"},{"name":"원흥주차장","type":"민영","category":"노외","address":"강원특별자치도 원주시 평원로 51","lat":37.35048531,"lng":127.9511091,"totalSpaces":44,"isFree":false,"operatingDays":"평일+토요일+공휴일","weekdayOpen":"00:00","weekdayClose":"23:59","weekendOpen":"00:00","weekendClose":"23:59","holidayOpen":"00:00","holidayClose":"23:59","feeInfo":"기본 30분 600원 / 추가 10분당 500원","phone":"033-737-3544","updatedAt":"2025-12-29","sido":"강원특별자치도","sigungu":"원주시","dong":"중앙동"},{"name":"잠보주차타워","type":"민영","category":"노외","address":"강원특별자치도 원주시 시청로 76","lat":37.33683174,"lng":127.9267174,"totalSpaces":42,"isFree":false,"operatingDays":"평일+토요일+공휴일","weekdayOpen":"00:00","weekdayClose":"23:59","weekendOpen":"00:00","weekendClose":"23:59","holidayOpen":"00:00","holidayClose":"23:59","feeInfo":"기본 30분 600원 / 추가 10분당 500원","phone":"033-737-3544","updatedAt":"2025-12-29","sido":"강원특별자치도","sigungu":"원주시","dong":"무실동"},{"name":"원주주차장","type":"민영","category":"노외","address":"강원특별자치도 원주시 무실로12번길 39","lat":37.35021397,"lng":127.9476576,"totalSpaces":40,"isFree":false,"operatingDays":"평일+토요일+공휴일","weekdayOpen":"00:00","weekdayClose":"23:59","weekendOpen":"00:00","weekendClose":"23:59","holidayOpen":"00:00","holidayClose":"23:59","feeInfo":"기본 30분 600원 / 추가 10분당 500원","phone":"033-737-3544","updatedAt":"2025-12-29","sido":"강원특별자치도","sigungu":"원주시","dong":"일산동"},{"name":"휴먼주차타워","type":"민영","category":"노외","address":"강원특별자치도 원주시 만대공원길 8-10","lat":37.33714674,"lng":127.9288536,"totalSpaces":38,"isFree":false,"operatingDays":"평일+토요일+공휴일","weekdayOpen":"00:00","weekdayClose":"23:59","weekendOpen":"00:00","weekendClose":"23:59","holidayOpen":"00:00","holidayClose":"23:59","feeInfo":"기본 30분 600원 / 추가 10분당 500원","phone":"033-737-3544","updatedAt":"2025-12-29","sido":"강원특별자치도","sigungu":"원주시","dong":"무실동"},{"name":"B도로 주차장","type":"민영","category":"노외","address":"강원특별자치도 원주시 중앙로 68","lat":37.34812716,"lng":127.9522593,"totalSpaces":37,"isFree":false,"operatingDays":"평일+토요일+공휴일","weekdayOpen":"00:00","weekdayClose":"23:59","weekendOpen":"00:00","weekendClose":"23:59","holidayOpen":"00:00","holidayClose":"23:59","feeInfo":"기본 30분 600원 / 추가 10분당 500원","phone":"033-737-3544","updatedAt":"2025-12-29","sido":"강원특별자치도","sigungu":"원주시","dong":"중앙동"},{"name":"행복주차장","type":"민영","category":"노외","address":"강원특별자치도 원주시 무실동 1642-8","lat":37.33559485,"lng":127.9286019,"totalSpaces":36,"isFree":false,"operatingDays":"평일+토요일+공휴일","weekdayOpen":"00:00","weekdayClose":"23:59","weekendOpen":"00:00","weekendClose":"23:59","holidayOpen":"00:00","holidayClose":"23:59","feeInfo":"기본 30분 600원 / 추가 10분당 500원","phone":"033-737-3544","updatedAt":"2025-12-29","sido":"강원특별자치도","sigungu":"원주시","dong":"무실동"},{"name":"롯데주차장","type":"민영","category":"노외","address":"강원특별자치도 원주시 무실로12번길 45","lat":37.35046998,"lng":127.9474616,"totalSpaces":35,"isFree":false,"operatingDays":"평일+토요일+공휴일","weekdayOpen":"00:00","weekdayClose":"23:59","weekendOpen":"00:00","weekendClose":"23:59","holidayOpen":"00:00","holidayClose":"23:59","feeInfo":"기본 30분 600원 / 추가 10분당 500원","phone":"033-737-3544","updatedAt":"2025-12-29","sido":"강원특별자치도","sigungu":"원주시","dong":"일산동"},{"name":"친절주차장","type":"민영","category":"노외","address":"강원특별자치도 원주시 일산동 162-22","lat":37.34963844,"lng":127.9473767,"totalSpaces":35,"isFree":false,"operatingDays":"평일+토요일+공휴일","weekdayOpen":"00:00","weekdayClose":"23:59","weekendOpen":"00:00","weekendClose":"23:59","holidayOpen":"00:00","holidayClose":"23:59","feeInfo":"기본 30분 600원 / 추가 10분당 500원","phone":"033-737-3544","updatedAt":"2025-12-29","sido":"강원특별자치도","sigungu":"원주시","dong":"일산동"},{"name":"정지뜰주차장","type":"민영","category":"노외","address":"강원특별자치도 원주시 평원로 90","lat":37.35306745,"lng":127.949227,"totalSpaces":34,"isFree":false,"operatingDays":"평일+토요일+공휴일","weekdayOpen":"00:00","weekdayClose":"23:59","weekendOpen":"00:00","weekendClose":"23:59","holidayOpen":"00:00","holidayClose":"23:59","feeInfo":"기본 30분 600원 / 추가 10분당 500원","phone":"033-737-3544","updatedAt":"2025-12-29","sido":"강원특별자치도","sigungu":"원주시","dong":"학성동"},{"name":"영은이네주차장","type":"민영","category":"노외","address":"강원특별자치도 원주시 명륜동 44-2","lat":37.34335612,"lng":127.9531299,"totalSpaces":34,"isFree":false,"operatingDays":"평일+토요일+공휴일","weekdayOpen":"00:00","weekdayClose":"23:59","weekendOpen":"00:00","weekendClose":"23:59","holidayOpen":"00:00","holidayClose":"23:59","feeInfo":"기본 30분 600원 / 추가 10분당 500원","phone":"033-737-3544","updatedAt":"2025-12-29","sido":"강원특별자치도","sigungu":"원주시","dong":"명륜동"},{"name":"일산주차장","type":"민영","category":"노외","address":"강원특별자치도 원주시 일산동 9","lat":37.34753108,"lng":127.9497636,"totalSpaces":33,"isFree":false,"operatingDays":"평일+토요일+공휴일","weekdayOpen":"00:00","weekdayClose":"23:59","weekendOpen":"00:00","weekendClose":"23:59","holidayOpen":"00:00","holidayClose":"23:59","feeInfo":"기본 30분 600원 / 추가 10분당 500원","phone":"033-737-3544","updatedAt":"2025-12-29","sido":"강원특별자치도","sigungu":"원주시","dong":"일산동"},{"name":"매일주차장","type":"민영","category":"노외","address":"강원특별자치도 원주시 중앙동 91-3","lat":37.34962856,"lng":127.9516648,"totalSpaces":32,"isFree":false,"operatingDays":"평일+토요일+공휴일","weekdayOpen":"00:00","weekdayClose":"23:59","weekendOpen":"00:00","weekendClose":"23:59","holidayOpen":"00:00","holidayClose":"23:59","feeInfo":"기본 30분 600원 / 추가 10분당 500원","phone":"033-737-3544","updatedAt":"2025-12-29","sido":"강원특별자치도","sigungu":"원주시","dong":"중앙동"},{"name":"강원주차장","type":"민영","category":"노외","address":"강원특별자치도 원주시 학성동 202-2","lat":37.35321999,"lng":127.949098,"totalSpaces":31,"isFree":false,"operatingDays":"평일+토요일+공휴일","weekdayOpen":"00:00","weekdayClose":"23:59","weekendOpen":"00:00","weekendClose":"23:59","holidayOpen":"00:00","holidayClose":"23:59","feeInfo":"기본 30분 600원 / 추가 10분당 500원","phone":"033-737-3544","updatedAt":"2025-12-29","sido":"강원특별자치도","sigungu":"원주시","dong":"학성동"},{"name":"에이스주차타워","type":"민영","category":"노외","address":"강원특별자치도 원주시 시청로 78","lat":37.33648868,"lng":127.9272642,"totalSpaces":31,"isFree":false,"operatingDays":"평일+토요일+공휴일","weekdayOpen":"00:00","weekdayClose":"23:59","weekendOpen":"00:00","weekendClose":"23:59","holidayOpen":"00:00","holidayClose":"23:59","feeInfo":"기본 30분 600원 / 추가 10분당 500원","phone":"033-737-3544","updatedAt":"2025-12-29","sido":"강원특별자치도","sigungu":"원주시","dong":"무실동"},{"name":"삼광유료주차장","type":"민영","category":"노외","address":"강원특별자치도 원주시 삼광2길 16","lat":37.34210787,"lng":127.9658294,"totalSpaces":30,"isFree":false,"operatingDays":"평일+토요일+공휴일","weekdayOpen":"00:00","weekdayClose":"23:59","weekendOpen":"00:00","weekendClose":"23:59","holidayOpen":"00:00","holidayClose":"23:59","feeInfo":"기본 30분 600원 / 추가 10분당 500원","phone":"033-737-3544","updatedAt":"2025-12-29","sido":"강원특별자치도","sigungu":"원주시","dong":"봉산동"},{"name":"종일주차장","type":"민영","category":"노외","address":"강원특별자치도 원주시 일산동 167","lat":37.35031257,"lng":127.9461383,"totalSpaces":28,"isFree":false,"operatingDays":"평일+토요일+공휴일","weekdayOpen":"00:00","weekdayClose":"23:59","weekendOpen":"00:00","weekendClose":"23:59","holidayOpen":"00:00","holidayClose":"23:59","feeInfo":"기본 30분 800원 / 추가 10분당 500원","phone":"033-737-3544","updatedAt":"2025-12-29","sido":"강원특별자치도","sigungu":"원주시","dong":"일산동"},{"name":"하나주차장","type":"민영","category":"노외","address":"강원특별자치도 원주시 학성동 207-2","lat":37.35254934,"lng":127.9471767,"totalSpaces":27,"isFree":false,"operatingDays":"평일+토요일+공휴일","weekdayOpen":"00:00","weekdayClose":"23:59","weekendOpen":"00:00","weekendClose":"23:59","holidayOpen":"00:00","holidayClose":"23:59","feeInfo":"기본 30분 600원 / 추가 10분당 500원","phone":"033-737-3544","updatedAt":"2025-12-29","sido":"강원특별자치도","sigungu":"원주시","dong":"학성동"},{"name":"남산주차장","type":"민영","category":"노외","address":"강원특별자치도 원주시 원일로 53-1","lat":37.34682326,"lng":127.9520437,"totalSpaces":27,"isFree":false,"operatingDays":"평일+토요일+공휴일","weekdayOpen":"00:00","weekdayClose":"23:59","weekendOpen":"00:00","weekendClose":"23:59","holidayOpen":"00:00","holidayClose":"23:59","feeInfo":"기본 30분 600원 / 추가 10분당 500원","phone":"033-737-3544","updatedAt":"2025-12-29","sido":"강원특별자치도","sigungu":"원주시","dong":"원동"},{"name":"원일로3차 노상주차장","type":"공영","category":"노상","address":"강원특별자치도 원주시 학성동 329-6번지","lat":37.35193,"lng":127.9471,"totalSpaces":26,"isFree":false,"operatingDays":"평일+토요일+공휴일","weekdayOpen":"00:00","weekdayClose":"23:59","weekendOpen":"00:00","weekendClose":"23:59","holidayOpen":"00:00","holidayClose":"23:59","feeInfo":"기본 0분 0원","phone":"033-737-3543","updatedAt":"2025-12-29","sido":"강원특별자치도","sigungu":"원주시","dong":"학성동"},{"name":"명일주차장","type":"민영","category":"노외","address":"강원특별자치도 원주시 평원동 190-1","lat":37.35211221,"lng":127.9504739,"totalSpaces":25,"isFree":false,"operatingDays":"평일+토요일+공휴일","weekdayOpen":"00:00","weekdayClose":"23:59","weekendOpen":"00:00","weekendClose":"23:59","holidayOpen":"00:00","holidayClose":"23:59","feeInfo":"기본 30분 600원 / 추가 10분당 500원","phone":"033-737-3544","updatedAt":"2025-12-29","sido":"강원특별자치도","sigungu":"원주시","dong":"평원동"},{"name":"개운현대주차장","type":"민영","category":"노외","address":"강원특별자치도 원주시 치악로 1771","lat":37.34066389,"lng":127.95575,"totalSpaces":25,"isFree":false,"operatingDays":"평일+토요일+공휴일","weekdayOpen":"00:00","weekdayClose":"23:59","weekendOpen":"00:00","weekendClose":"23:59","holidayOpen":"00:00","holidayClose":"23:59","feeInfo":"기본 30분 600원 / 추가 10분당 500원","phone":"033-737-3544","updatedAt":"2025-12-29","sido":"강원특별자치도","sigungu":"원주시","dong":"개운동"},{"name":"AJ파크원주단계점주차장","type":"민영","category":"노외","address":"강원특별자치도 원주시 서원대로 156-1","lat":37.34392983,"lng":127.9288868,"totalSpaces":24,"isFree":false,"operatingDays":"평일+토요일+공휴일","weekdayOpen":"00:00","weekdayClose":"23:59","weekendOpen":"00:00","weekendClose":"23:59","holidayOpen":"00:00","holidayClose":"23:59","feeInfo":"기본 30분 600원 / 추가 10분당 500원","phone":"033-737-3544","updatedAt":"2025-12-29","sido":"강원특별자치도","sigungu":"원주시","dong":"단계동"},{"name":"으뜸주차장","type":"민영","category":"노외","address":"강원특별자치도 원주시 중앙동 90","lat":37.34954688,"lng":127.951712,"totalSpaces":24,"isFree":false,"operatingDays":"평일+토요일+공휴일","weekdayOpen":"00:00","weekdayClose":"23:59","weekendOpen":"00:00","weekendClose":"23:59","holidayOpen":"00:00","holidayClose":"23:59","feeInfo":"기본 30분 600원 / 추가 10분당 500원","phone":"033-737-3544","updatedAt":"2025-12-29","sido":"강원특별자치도","sigungu":"원주시","dong":"중앙동"},{"name":"세창주차장","type":"민영","category":"노외","address":"강원특별자치도 원주시 개봉길 12","lat":37.34227568,"lng":127.9563752,"totalSpaces":23,"isFree":false,"operatingDays":"평일+토요일+공휴일","weekdayOpen":"00:00","weekdayClose":"23:59","weekendOpen":"00:00","weekendClose":"23:59","holidayOpen":"00:00","holidayClose":"23:59","feeInfo":"기본 30분 600원 / 추가 10분당 500원","phone":"033-737-3544","updatedAt":"2025-12-29","sido":"강원특별자치도","sigungu":"원주시","dong":"개운동"},{"name":"원주 중앙동 주차장","type":"민영","category":"노외","address":"강원특별자치도 원주시 평원로 55","lat":37.35057002,"lng":127.9506026,"totalSpaces":21,"isFree":false,"operatingDays":"평일+토요일+공휴일","weekdayOpen":"00:00","weekdayClose":"23:59","weekendOpen":"00:00","weekendClose":"23:59","holidayOpen":"00:00","holidayClose":"23:59","feeInfo":"기본 30분 600원 / 추가 10분당 500원","phone":"033-737-3544","updatedAt":"2025-12-29","sido":"강원특별자치도","sigungu":"원주시","dong":"중앙동"},{"name":"제일신협주차장","type":"민영","category":"노외","address":"강원특별자치도 원주시 무실로 16-1","lat":37.34843602,"lng":127.948379,"totalSpaces":19,"isFree":false,"operatingDays":"평일+토요일+공휴일","weekdayOpen":"00:00","weekdayClose":"23:59","weekendOpen":"00:00","weekendClose":"23:59","holidayOpen":"00:00","holidayClose":"23:59","feeInfo":"기본 30분 600원 / 추가 10분당 500원","phone":"033-737-3544","updatedAt":"2025-12-29","sido":"강원특별자치도","sigungu":"원주시","dong":"일산동"},{"name":"원일주차장","type":"민영","category":"노외","address":"강원특별자치도 원주시 학성동 207-20","lat":37.35214593,"lng":127.9473445,"totalSpaces":18,"isFree":false,"operatingDays":"평일+토요일+공휴일","weekdayOpen":"00:00","weekdayClose":"23:59","weekendOpen":"00:00","weekendClose":"23:59","holidayOpen":"00:00","holidayClose":"23:59","feeInfo":"기본 30분 600원 / 추가 10분당 500원","phone":"033-737-3544","updatedAt":"2025-12-29","sido":"강원특별자치도","sigungu":"원주시","dong":"학성동"},{"name":"광진주차장","type":"민영","category":"노외","address":"강원특별자치도 원주시 치악로 1817","lat":37.34473233,"lng":127.9549821,"totalSpaces":17,"isFree":false,"operatingDays":"평일+토요일+공휴일","weekdayOpen":"00:00","weekdayClose":"23:59","weekendOpen":"00:00","weekendClose":"23:59","holidayOpen":"00:00","holidayClose":"23:59","feeInfo":"기본 30분 600원 / 추가 10분당 500원","phone":"033-737-3544","updatedAt":"2025-12-29","sido":"강원특별자치도","sigungu":"원주시","dong":"인동"},{"name":"현대주차장","type":"민영","category":"노외","address":"강원특별자치도 원주시 천사로 198","lat":37.35064117,"lng":127.9461104,"totalSpaces":17,"isFree":false,"operatingDays":"평일+토요일+공휴일","weekdayOpen":"00:00","weekdayClose":"23:59","weekendOpen":"00:00","weekendClose":"23:59","holidayOpen":"00:00","holidayClose":"23:59","feeInfo":"기본 30분 600원 / 추가 10분당 500원","phone":"033-737-3544","updatedAt":"2025-12-29","sido":"강원특별자치도","sigungu":"원주시","dong":"일산동"},{"name":"양지주차장","type":"민영","category":"노외","address":"강원특별자치도 원주시 무실로 25-1","lat":37.34762205,"lng":127.9492677,"totalSpaces":16,"isFree":false,"operatingDays":"평일+토요일+공휴일","weekdayOpen":"00:00","weekdayClose":"23:59","weekendOpen":"00:00","weekendClose":"23:59","holidayOpen":"00:00","holidayClose":"23:59","feeInfo":"기본 30분 600원 / 추가 10분당 500원","phone":"033-737-3544","updatedAt":"2025-12-29","sido":"강원특별자치도","sigungu":"원주시","dong":"일산동"},{"name":"대교(신세계)주차장","type":"민영","category":"노외","address":"강원특별자치도 원주시 천사로 202","lat":37.35075254,"lng":127.9464252,"totalSpaces":16,"isFree":false,"operatingDays":"평일+토요일+공휴일","weekdayOpen":"00:00","weekdayClose":"23:59","weekendOpen":"00:00","weekendClose":"23:59","holidayOpen":"00:00","holidayClose":"23:59","feeInfo":"기본 30분 600원 / 추가 10분당 500원","phone":"033-737-3544","updatedAt":"2025-12-29","sido":"강원특별자치도","sigungu":"원주시","dong":"일산동"},{"name":"동화주차장","type":"민영","category":"노외","address":"강원특별자치도 원주시 원일로 148-12","lat":37.35217946,"lng":127.9480211,"totalSpaces":15,"isFree":false,"operatingDays":"평일+토요일+공휴일","weekdayOpen":"00:00","weekdayClose":"23:59","weekendOpen":"00:00","weekendClose":"23:59","holidayOpen":"00:00","holidayClose":"23:59","feeInfo":"기본 30분 600원 / 추가 10분당 500원","phone":"033-737-3544","updatedAt":"2025-12-29","sido":"강원특별자치도","sigungu":"원주시","dong":"중앙동"},{"name":"평원주차장","type":"민영","category":"노외","address":"강원특별자치도 원주시 중앙시장길 57","lat":37.3518516,"lng":127.9512052,"totalSpaces":14,"isFree":false,"operatingDays":"평일+토요일+공휴일","weekdayOpen":"00:00","weekdayClose":"23:59","weekendOpen":"00:00","weekendClose":"23:59","holidayOpen":"00:00","holidayClose":"23:59","feeInfo":"기본 30분 600원 / 추가 10분당 500원","phone":"033-737-3544","updatedAt":"2025-12-29","sido":"강원특별자치도","sigungu":"원주시","dong":"평원동"},{"name":"태호주차장","type":"민영","category":"노외","address":"강원특별자치도 원주시 중앙시장길 51","lat":37.35152477,"lng":127.9509659,"totalSpaces":14,"isFree":false,"operatingDays":"평일+토요일+공휴일","weekdayOpen":"00:00","weekdayClose":"23:59","weekendOpen":"00:00","weekendClose":"23:59","holidayOpen":"00:00","holidayClose":"23:59","feeInfo":"기본 30분 600원 / 추가 10분당 500원","phone":"033-737-3544","updatedAt":"2025-12-29","sido":"강원특별자치도","sigungu":"원주시","dong":"평원동"},{"name":"전원주차장","type":"민영","category":"노외","address":"강원특별자치도 원주시 중앙시장길 54","lat":37.35144676,"lng":127.9511318,"totalSpaces":13,"isFree":false,"operatingDays":"평일+토요일+공휴일","weekdayOpen":"00:00","weekdayClose":"23:59","weekendOpen":"00:00","weekendClose":"23:59","holidayOpen":"00:00","holidayClose":"23:59","feeInfo":"기본 30분 600원 / 추가 10분당 500원","phone":"033-737-3544","updatedAt":"2025-12-29","sido":"강원특별자치도","sigungu":"원주시","dong":"평원동"},{"name":"금성주차장","type":"민영","category":"노외","address":"강원특별자치도 원주시 평원로 44","lat":37.35005806,"lng":127.9520836,"totalSpaces":11,"isFree":false,"operatingDays":"평일+토요일+공휴일","weekdayOpen":"00:00","weekdayClose":"23:59","weekendOpen":"00:00","weekendClose":"23:59","holidayOpen":"00:00","holidayClose":"23:59","feeInfo":"기본 30분 600원 / 추가 10분당 500원","phone":"033-737-3544","updatedAt":"2025-12-29","sido":"강원특별자치도","sigungu":"원주시","dong":"평원동"},{"name":"수정유료주차장","type":"민영","category":"노외","address":"강원특별자치도 원주시 감영길 20","lat":37.34733392,"lng":127.9508259,"totalSpaces":9,"isFree":false,"operatingDays":"평일+토요일+공휴일","weekdayOpen":"00:00","weekdayClose":"23:59","weekendOpen":"00:00","weekendClose":"23:59","holidayOpen":"00:00","holidayClose":"23:59","feeInfo":"기본 30분 600원 / 추가 10분당 500원","phone":"033-737-3544","updatedAt":"2025-12-29","sido":"강원특별자치도","sigungu":"원주시","dong":"원동"}]}