{"sido":"대구광역시","sigungu":"달성군","totalCount":223,"validCount":223,"items":[{"name":"비슬산 자연휴양림 공영주차장","type":"공영","category":"노외","address":"대구광역시 달성군 유가읍 휴양림길 236","lat":35.693342,"lng":128.505801,"totalSpaces":385,"isFree":true,"operatingDays":"평일+토요일+공휴일","weekdayOpen":"00:00","weekdayClose":"23:59","weekendOpen":"00:00","weekendClose":"23:59","holidayOpen":"00:00","holidayClose":"23:59","feeInfo":"무료","phone":"053-668-3815","updatedAt":"2025-11-26","sido":"대구광역시","sigungu":"달성군","dong":"유가읍"},{"name":"상리공단로","type":"공영","category":"노상","address":"대구광역시 달성군 논공읍 상리 369","lat":35.746392,"lng":128.412043,"totalSpaces":184,"isFree":true,"operatingDays":"평일+토요일+공휴일","weekdayOpen":"00:00","weekdayClose":"23:59","weekendOpen":"00:00","weekendClose":"23:59","holidayOpen":"00:00","holidayClose":"23:59","feeInfo":"무료","phone":"053-668-3815","updatedAt":"2025-11-26","sido":"대구광역시","sigungu":"달성군","dong":"논공읍"},{"name":"디아크주차장","type":"공영","category":"노외","address":"대구광역시 달성군 다사읍 죽곡리 806","lat":35.841164,"lng":128.465056,"totalSpaces":184,"isFree":true,"operatingDays":"평일+토요일+공휴일","weekdayOpen":"00:00","weekdayClose":"23:59","weekendOpen":"00:00","weekendClose":"23:59","holidayOpen":"00:00","holidayClose":"23:59","feeInfo":"무료","phone":"053-668-3815","updatedAt":"2025-11-26","sido":"대구광역시","sigungu":"달성군","dong":"다사읍"},{"name":"현충백년도깨비시장공영주차장","type":"공영","category":"노외","address":"대구광역시 달성군 현풍읍 원교리 12-1","lat":35.694364,"lng":128.441638,"totalSpaces":168,"isFree":true,"operatingDays":"평일+토요일+공휴일","weekdayOpen":"00:00","weekdayClose":"23:59","weekendOpen":"00:00","weekendClose":"23:59","holidayOpen":"00:00","holidayClose":"23:59","feeInfo":"무료","phone":"053-668-3815","updatedAt":"2025-11-26","sido":"대구광역시","sigungu":"달성군","dong":"현풍읍"},{"name":"달성군청제2공영주차장","type":"공영","category":"노외","address":"대구광역시 달성군 논공읍 금포리 1307","lat":35.773486,"lng":128.432778,"totalSpaces":165,"isFree":true,"operatingDays":"평일+토요일+공휴일","weekdayOpen":"00:00","weekdayClose":"23:59","weekendOpen":"00:00","weekendClose":"23:59","holidayOpen":"00:00","holidayClose":"23:59","feeInfo":"무료","phone":"053-668-3815","updatedAt":"2025-11-26","sido":"대구광역시","sigungu":"달성군","dong":"논공읍"},{"name":"부강정주차장","type":"공영","category":"노외","address":"대구광역시 달성군 다사읍 죽곡리 753","lat":35.841788,"lng":128.46719,"totalSpaces":161,"isFree":true,"operatingDays":"평일+토요일+공휴일","weekdayOpen":"00:00","weekdayClose":"23:59","weekendOpen":"00:00","weekendClose":"23:59","holidayOpen":"00:00","holidayClose":"23:59","feeInfo":"무료","phone":"053-668-3815","updatedAt":"2025-11-26","sido":"대구광역시","sigungu":"달성군","dong":"다사읍"},{"name":"박근혜전대통령사저임시주차장","type":"공영","category":"노외","address":"대구광역시 달성군 유가읍 쌍계리 636","lat":35.698745,"lng":128.472985,"totalSpaces":154,"isFree":true,"operatingDays":"평일+토요일+공휴일","weekdayOpen":"00:00","weekdayClose":"23:59","weekendOpen":"00:00","weekendClose":"23:59","holidayOpen":"00:00","holidayClose":"23:59","feeInfo":"무료","phone":"053-668-3815","updatedAt":"2025-11-26","sido":"대구광역시","sigungu":"달성군","dong":"유가읍"},{"name":"논공로53길 B","type":"공영","category":"노상","address":"대구광역시 달성군 논공읍 본리리 29-54","lat":35.738997,"lng":128.45226,"totalSpaces":114,"isFree":true,"operatingDays":"평일+토요일+공휴일","weekdayOpen":"00:00","weekdayClose":"23:59","weekendOpen":"00:00","weekendClose":"23:59","holidayOpen":"00:00","holidayClose":"23:59","feeInfo":"무료","phone":"053-668-3815","updatedAt":"2025-11-26","sido":"대구광역시","sigungu":"달성군","dong":"논공읍"},{"name":"세천로1길 F","type":"공영","category":"노상","address":"대구광역시 달성군 다사읍 세천리 1684-4","lat":35.870399,"lng":128.467707,"totalSpaces":113,"isFree":true,"operatingDays":"평일+토요일+공휴일","weekdayOpen":"00:00","weekdayClose":"23:59","weekendOpen":"00:00","weekendClose":"23:59","holidayOpen":"00:00","holidayClose":"23:59","feeInfo":"무료","phone":"053-668-3815","updatedAt":"2025-11-26","sido":"대구광역시","sigungu":"달성군","dong":"다사읍"},{"name":"논공로 F","type":"공영","category":"노상","address":"대구광역시 달성군 논공읍 북리 213-17","lat":35.736497,"lng":128.456514,"totalSpaces":111,"isFree":true,"operatingDays":"평일+토요일+공휴일","weekdayOpen":"00:00","weekdayClose":"23:59","weekendOpen":"00:00","weekendClose":"23:59","holidayOpen":"00:00","holidayClose":"23:59","feeInfo":"무료","phone":"053-668-3815","updatedAt":"2025-11-26","sido":"대구광역시","sigungu":"달성군","dong":"논공읍"},{"name":"논공로 H","type":"공영","category":"노상","address":"대구광역시 달성군 논공읍 본리리 29-108","lat":35.740726,"lng":128.466528,"totalSpaces":108,"isFree":true,"operatingDays":"평일+토요일+공휴일","weekdayOpen":"00:00","weekdayClose":"23:59","weekendOpen":"00:00","weekendClose":"23:59","holidayOpen":"00:00","holidayClose":"23:59","feeInfo":"무료","phone":"053-668-3815","updatedAt":"2025-11-26","sido":"대구광역시","sigungu":"달성군","dong":"논공읍"},{"name":"다사임시공영주차장","type":"공영","category":"노외","address":"대구광역시 달성군 다사읍 매곡리 1553","lat":35.856149,"lng":128.46948,"totalSpaces":108,"isFree":true,"operatingDays":"평일+토요일+공휴일","weekdayOpen":"00:00","weekdayClose":"23:59","weekendOpen":"00:00","weekendClose":"23:59","holidayOpen":"00:00","holidayClose":"23:59","feeInfo":"무료","phone":"053-668-3815","updatedAt":"2025-11-26","sido":"대구광역시","sigungu":"달성군","dong":"다사읍"},{"name":"논공중앙로54길 C","type":"공영","category":"노상","address":"대구광역시 달성군 논공읍 북리 1-8","lat":35.733695,"lng":128.462895,"totalSpaces":106,"isFree":true,"operatingDays":"평일+토요일+공휴일","weekdayOpen":"00:00","weekdayClose":"23:59","weekendOpen":"00:00","weekendClose":"23:59","holidayOpen":"00:00","holidayClose":"23:59","feeInfo":"무료","phone":"053-668-3815","updatedAt":"2025-11-26","sido":"대구광역시","sigungu":"달성군","dong":"논공읍"},{"name":"달성군청제3공영주차장","type":"공영","category":"노외","address":"대구광역시 달성군 논공읍 금포리 1425-3","lat":35.773229,"lng":128.43118,"totalSpaces":103,"isFree":true,"operatingDays":"평일+토요일+공휴일","weekdayOpen":"00:00","weekdayClose":"23:59","weekendOpen":"00:00","weekendClose":"23:59","holidayOpen":"00:00","holidayClose":"23:59","feeInfo":"무료","phone":"053-668-3815","updatedAt":"2025-11-26","sido":"대구광역시","sigungu":"달성군","dong":"논공읍"},{"name":"강정주차장","type":"공영","category":"노외","address":"대구광역시 달성군 다사읍 죽곡리 806","lat":35.841164,"lng":128.465056,"totalSpaces":102,"isFree":true,"operatingDays":"평일+토요일+공휴일","weekdayOpen":"00:00","weekdayClose":"23:59","weekendOpen":"00:00","weekendClose":"23:59","holidayOpen":"00:00","holidayClose":"23:59","feeInfo":"무료","phone":"053-668-3815","updatedAt":"2025-11-26","sido":"대구광역시","sigungu":"달성군","dong":"다사읍"},{"name":"국가산단주차장","type":"공영","category":"노외","address":"대구광역시 달성군 구지면 응암리 1266-19","lat":35.652987,"lng":128.421983,"totalSpaces":100,"isFree":true,"operatingDays":"평일+토요일+공휴일","weekdayOpen":"00:00","weekdayClose":"23:59","weekendOpen":"00:00","weekendClose":"23:59","holidayOpen":"00:00","holidayClose":"23:59","feeInfo":"무료","phone":"053-668-3815","updatedAt":"2025-11-26","sido":"대구광역시","sigungu":"달성군","dong":"구지면"},{"name":"가창용계리천변1주차장","type":"공영","category":"노외","address":"대구광역시 달성군 가창면 용계리 121-1","lat":35.800438,"lng":128.622278,"totalSpaces":100,"isFree":true,"operatingDays":"평일+토요일+공휴일","weekdayOpen":"00:00","weekdayClose":"23:59","weekendOpen":"00:00","weekendClose":"23:59","holidayOpen":"00:00","holidayClose":"23:59","feeInfo":"무료","phone":"053-668-3815","updatedAt":"2025-11-26","sido":"대구광역시","sigungu":"달성군","dong":"가창면"},{"name":"마비정벽화마을 공영주차장","type":"공영","category":"노외","address":"대구광역시 달성군 화원읍 본리리 1155","lat":35.778497,"lng":128.534421,"totalSpaces":95,"isFree":true,"operatingDays":"평일+토요일+공휴일","weekdayOpen":"00:00","weekdayClose":"23:59","weekendOpen":"00:00","weekendClose":"23:59","holidayOpen":"00:00","holidayClose":"23:59","feeInfo":"무료","phone":"053-668-3815","updatedAt":"2025-11-26","sido":"대구광역시","sigungu":"달성군","dong":"화원읍"},{"name":"유가사주차장2","type":"공영","category":"노외","address":"대구광역시 달성군 유가읍 양리 153-4","lat":35.714094,"lng":128.501912,"totalSpaces":93,"isFree":true,"operatingDays":"평일+토요일+공휴일","weekdayOpen":"00:00","weekdayClose":"23:59","weekendOpen":"00:00","weekendClose":"23:59","holidayOpen":"00:00","holidayClose":"23:59","feeInfo":"무료","phone":"053-668-3815","updatedAt":"2025-11-26","sido":"대구광역시","sigungu":"달성군","dong":"유가읍"},{"name":"논공로 E","type":"공영","category":"노상","address":"대구광역시 달성군 논공읍 북리 580-30","lat":35.732408,"lng":128.451428,"totalSpaces":92,"isFree":true,"operatingDays":"평일+토요일+공휴일","weekdayOpen":"00:00","weekdayClose":"23:59","weekendOpen":"00:00","weekendClose":"23:59","holidayOpen":"00:00","holidayClose":"23:59","feeInfo":"무료","phone":"053-668-3815","updatedAt":"2025-11-26","sido":"대구광역시","sigungu":"달성군","dong":"논공읍"},{"name":"세천로1길 B","type":"공영","category":"노상","address":"대구광역시 달성군 다사읍 세천리 1710-1","lat":35.880088,"lng":128.465425,"totalSpaces":92,"isFree":true,"operatingDays":"평일+토요일+공휴일","weekdayOpen":"00:00","weekdayClose":"23:59","weekendOpen":"00:00","weekendClose":"23:59","holidayOpen":"00:00","holidayClose":"23:59","feeInfo":"무료","phone":"053-668-3815","updatedAt":"2025-11-26","sido":"대구광역시","sigungu":"달성군","dong":"다사읍"},{"name":"논공로117길","type":"공영","category":"노상","address":"대구광역시 달성군 논공읍 북리 1-121","lat":35.725898,"lng":128.457897,"totalSpaces":87,"isFree":true,"operatingDays":"평일+토요일+공휴일","weekdayOpen":"00:00","weekdayClose":"23:59","weekendOpen":"00:00","weekendClose":"23:59","holidayOpen":"00:00","holidayClose":"23:59","feeInfo":"무료","phone":"053-668-3815","updatedAt":"2025-11-26","sido":"대구광역시","sigungu":"달성군","dong":"논공읍"},{"name":"비슬산자연휴양림주차장","type":"공영","category":"노외","address":"대구광역시 달성군 유가읍 용리 산 17-14","lat":35.692311,"lng":128.504978,"totalSpaces":87,"isFree":true,"operatingDays":"평일+토요일+공휴일","weekdayOpen":"00:00","weekdayClose":"23:59","weekendOpen":"00:00","weekendClose":"23:59","holidayOpen":"00:00","holidayClose":"23:59","feeInfo":"무료","phone":"053-668-3815","updatedAt":"2025-11-26","sido":"대구광역시","sigungu":"달성군","dong":"유가읍"},{"name":"다사 문양리 마을공동주차장","type":"공영","category":"노외","address":"대구광역시 달성군 다사읍 문양리 산 18-2","lat":35.867612,"lng":128.438149,"totalSpaces":87,"isFree":true,"operatingDays":"평일+토요일+공휴일","weekdayOpen":"00:00","weekdayClose":"23:59","weekendOpen":"00:00","weekendClose":"23:59","holidayOpen":"00:00","holidayClose":"23:59","feeInfo":"무료","phone":"053-668-3815","updatedAt":"2025-11-26","sido":"대구광역시","sigungu":"달성군","dong":"다사읍"},{"name":"논공 복개천 주차장","type":"공영","category":"노외","address":"대구광역시 달성군 논공읍 북리 1-26","lat":35.731035,"lng":128.454865,"totalSpaces":87,"isFree":true,"operatingDays":"평일+토요일+공휴일","weekdayOpen":"00:00","weekdayClose":"23:59","weekendOpen":"00:00","weekendClose":"23:59","holidayOpen":"00:00","holidayClose":"23:59","feeInfo":"무료","phone":"053-668-3815","updatedAt":"2025-11-26","sido":"대구광역시","sigungu":"달성군","dong":"논공읍"},{"name":"논공중앙로 E","type":"공영","category":"노상","address":"대구광역시 달성군 논공읍 북리 1-26","lat":35.731035,"lng":128.454865,"totalSpaces":84,"isFree":true,"operatingDays":"평일+토요일+공휴일","weekdayOpen":"00:00","weekdayClose":"23:59","weekendOpen":"00:00","weekendClose":"23:59","holidayOpen":"00:00","holidayClose":"23:59","feeInfo":"무료","phone":"053-668-3815","updatedAt":"2025-11-26","sido":"대구광역시","sigungu":"달성군","dong":"논공읍"},{"name":"국가산단주차장","type":"공영","category":"노외","address":"대구광역시 달성군 구지면 응암리 1282-17","lat":35.649489,"lng":128.422549,"totalSpaces":81,"isFree":true,"operatingDays":"평일+토요일+공휴일","weekdayOpen":"00:00","weekdayClose":"23:59","weekendOpen":"00:00","weekendClose":"23:59","holidayOpen":"00:00","holidayClose":"23:59","feeInfo":"무료","phone":"053-668-3815","updatedAt":"2025-11-26","sido":"대구광역시","sigungu":"달성군","dong":"구지면"},{"name":"논공로 K","type":"공영","category":"노상","address":"대구광역시 달성군 논공읍 북리 1-40","lat":35.730671,"lng":128.457094,"totalSpaces":74,"isFree":true,"operatingDays":"평일+토요일+공휴일","weekdayOpen":"00:00","weekdayClose":"23:59","weekendOpen":"00:00","weekendClose":"23:59","holidayOpen":"00:00","holidayClose":"23:59","feeInfo":"무료","phone":"053-668-3815","updatedAt":"2025-11-26","sido":"대구광역시","sigungu":"달성군","dong":"논공읍"},{"name":"세천로3길 A","type":"공영","category":"노상","address":"대구광역시 달성군 다사읍 세천리 1722","lat":35.877422,"lng":128.46844,"totalSpaces":73,"isFree":true,"operatingDays":"평일+토요일+공휴일","weekdayOpen":"00:00","weekdayClose":"23:59","weekendOpen":"00:00","weekendClose":"23:59","holidayOpen":"00:00","holidayClose":"23:59","feeInfo":"무료","phone":"053-668-3815","updatedAt":"2025-11-26","sido":"대구광역시","sigungu":"달성군","dong":"다사읍"},{"name":"금강로16길주차장","type":"공영","category":"노외","address":"대구광역시 달성군 논공읍 금포리 1328-1","lat":35.776669,"lng":128.431963,"totalSpaces":72,"isFree":true,"operatingDays":"평일+토요일+공휴일","weekdayOpen":"00:00","weekdayClose":"23:59","weekendOpen":"00:00","weekendClose":"23:59","holidayOpen":"00:00","holidayClose":"23:59","feeInfo":"무료","phone":"053-668-3815","updatedAt":"2025-11-26","sido":"대구광역시","sigungu":"달성군","dong":"논공읍"},{"name":"다사 문양마을 공동주차장","type":"공영","category":"노외","address":"대구광역시 달성군 다사읍 문양리 470","lat":35.86392,"lng":128.438471,"totalSpaces":72,"isFree":true,"operatingDays":"평일+토요일+공휴일","weekdayOpen":"00:00","weekdayClose":"23:59","weekendOpen":"00:00","weekendClose":"23:59","holidayOpen":"00:00","holidayClose":"23:59","feeInfo":"무료","phone":"053-668-3815","updatedAt":"2025-11-26","sido":"대구광역시","sigungu":"달성군","dong":"다사읍"},{"name":"마천산 산림욕장 주차장","type":"공영","category":"노외","address":"대구광역시 달성군 다사읍 이천리 605번지","lat":35.888929,"lng":128.450283,"totalSpaces":69,"isFree":true,"operatingDays":"평일+토요일+공휴일","weekdayOpen":"00:00","weekdayClose":"23:59","weekendOpen":"00:00","weekendClose":"23:59","holidayOpen":"00:00","holidayClose":"23:59","feeInfo":"무료","phone":"053-668-3815","updatedAt":"2025-11-26","sido":"대구광역시","sigungu":"달성군","dong":"다사읍"},{"name":"인흥길 B","type":"공영","category":"노상","address":"대구광역시 달성군 화원읍 천내리 896-69","lat":35.799181,"lng":128.50471,"totalSpaces":66,"isFree":true,"operatingDays":"평일+토요일+공휴일","weekdayOpen":"00:00","weekdayClose":"23:59","weekendOpen":"00:00","weekendClose":"23:59","holidayOpen":"00:00","holidayClose":"23:59","feeInfo":"무료","phone":"053-668-3815","updatedAt":"2025-11-26","sido":"대구광역시","sigungu":"달성군","dong":"화원읍"},{"name":"유가사 노외주차장","type":"공영","category":"노외","address":"대구광역시 달성군 유가읍 양리 산3-16","lat":35.713177,"lng":128.500105,"totalSpaces":65,"isFree":true,"operatingDays":"평일+토요일+공휴일","weekdayOpen":"00:00","weekdayClose":"23:59","weekendOpen":"00:00","weekendClose":"23:59","holidayOpen":"00:00","holidayClose":"23:59","feeInfo":"무료","phone":"053-668-3815","updatedAt":"2025-11-26","sido":"대구광역시","sigungu":"달성군","dong":"유가읍"},{"name":"세천로2길 A","type":"공영","category":"노상","address":"대구광역시 달성군 다사읍 세천리 1687-1","lat":35.868444,"lng":128.471854,"totalSpaces":65,"isFree":true,"operatingDays":"평일+토요일+공휴일","weekdayOpen":"00:00","weekdayClose":"23:59","weekendOpen":"00:00","weekendClose":"23:59","holidayOpen":"00:00","holidayClose":"23:59","feeInfo":"무료","phone":"053-668-3815","updatedAt":"2025-11-26","sido":"대구광역시","sigungu":"달성군","dong":"다사읍"},{"name":"옥녀공원","type":"공영","category":"노외","address":"대구광역시 달성군 유가읍 금리 1158","lat":35.67735,"lng":128.46279,"totalSpaces":64,"isFree":true,"operatingDays":"평일+토요일+공휴일","weekdayOpen":"00:00","weekdayClose":"23:59","weekendOpen":"00:00","weekendClose":"23:59","holidayOpen":"00:00","holidayClose":"23:59","feeInfo":"무료","phone":"053-668-3815","updatedAt":"2025-11-26","sido":"대구광역시","sigungu":"달성군","dong":"유가읍"},{"name":"비슬로495길 A","type":"공영","category":"노상","address":"대구광역시 달성군 화원읍 성산리 534","lat":35.802409,"lng":128.489351,"totalSpaces":64,"isFree":true,"operatingDays":"평일+토요일+공휴일","weekdayOpen":"00:00","weekdayClose":"23:59","weekendOpen":"00:00","weekendClose":"23:59","holidayOpen":"00:00","holidayClose":"23:59","feeInfo":"무료","phone":"053-668-3815","updatedAt":"2025-11-26","sido":"대구광역시","sigungu":"달성군","dong":"화원읍"},{"name":"세천로1길 D","type":"공영","category":"노상","address":"대구광역시 달성군 다사읍 세천리 1671-9","lat":35.875552,"lng":128.462766,"totalSpaces":61,"isFree":true,"operatingDays":"평일+토요일+공휴일","weekdayOpen":"00:00","weekdayClose":"23:59","weekendOpen":"00:00","weekendClose":"23:59","holidayOpen":"00:00","holidayClose":"23:59","feeInfo":"무료","phone":"053-668-3815","updatedAt":"2025-11-26","sido":"대구광역시","sigungu":"달성군","dong":"다사읍"},{"name":"논공로 G","type":"공영","category":"노상","address":"대구광역시 달성군 논공읍 본리리 29-18","lat":35.738131,"lng":128.457543,"totalSpaces":60,"isFree":true,"operatingDays":"평일+토요일+공휴일","weekdayOpen":"00:00","weekdayClose":"23:59","weekendOpen":"00:00","weekendClose":"23:59","holidayOpen":"00:00","holidayClose":"23:59","feeInfo":"무료","phone":"053-668-3815","updatedAt":"2025-11-26","sido":"대구광역시","sigungu":"달성군","dong":"논공읍"},{"name":"가창아트홀인근주차장","type":"공영","category":"노외","address":"대구광역시 달성군 가창면 냉천리 2-22","lat":35.789262,"lng":128.636627,"totalSpaces":58,"isFree":true,"operatingDays":"평일+토요일+공휴일","weekdayOpen":"00:00","weekdayClose":"23:59","weekendOpen":"00:00","weekendClose":"23:59","holidayOpen":"00:00","holidayClose":"23:59","feeInfo":"무료","phone":"053-668-3815","updatedAt":"2025-11-26","sido":"대구광역시","sigungu":"달성군","dong":"가창면"},{"name":"논공중앙로 D","type":"공영","category":"노상","address":"대구광역시 달성군 논공읍 북리 1-39","lat":35.729477,"lng":128.455089,"totalSpaces":57,"isFree":true,"operatingDays":"평일+토요일+공휴일","weekdayOpen":"00:00","weekdayClose":"23:59","weekendOpen":"00:00","weekendClose":"23:59","holidayOpen":"00:00","holidayClose":"23:59","feeInfo":"무료","phone":"053-668-3815","updatedAt":"2025-11-26","sido":"대구광역시","sigungu":"달성군","dong":"논공읍"},{"name":"논공중앙로45길 B","type":"공영","category":"노상","address":"대구광역시 달성군 논공읍 북리 213","lat":35.736158,"lng":128.458466,"totalSpaces":56,"isFree":true,"operatingDays":"평일+토요일+공휴일","weekdayOpen":"00:00","weekdayClose":"23:59","weekendOpen":"00:00","weekendClose":"23:59","holidayOpen":"00:00","holidayClose":"23:59","feeInfo":"무료","phone":"053-668-3815","updatedAt":"2025-11-26","sido":"대구광역시","sigungu":"달성군","dong":"논공읍"},{"name":"테크노남로3길","type":"공영","category":"노상","address":"대구광역시 달성군 유가읍 금리 1161","lat":35.683417,"lng":128.452507,"totalSpaces":55,"isFree":true,"operatingDays":"평일+토요일+공휴일","weekdayOpen":"00:00","weekdayClose":"23:59","weekendOpen":"00:00","weekendClose":"23:59","holidayOpen":"00:00","holidayClose":"23:59","feeInfo":"무료","phone":"053-668-3815","updatedAt":"2025-11-26","sido":"대구광역시","sigungu":"달성군","dong":"유가읍"},{"name":"다사역로 A","type":"공영","category":"노상","address":"대구광역시 달성군 다사읍 매곡리 487-3","lat":35.865323,"lng":128.458579,"totalSpaces":54,"isFree":true,"operatingDays":"평일+토요일+공휴일","weekdayOpen":"00:00","weekdayClose":"23:59","weekendOpen":"00:00","weekendClose":"23:59","holidayOpen":"00:00","holidayClose":"23:59","feeInfo":"무료","phone":"053-668-3815","updatedAt":"2025-11-26","sido":"대구광역시","sigungu":"달성군","dong":"다사읍"},{"name":"국가산단동로42길 B","type":"공영","category":"노상","address":"대구광역시 달성군 구지면 고봉리 234","lat":35.646341,"lng":128.435784,"totalSpaces":53,"isFree":true,"operatingDays":"평일+토요일+공휴일","weekdayOpen":"00:00","weekdayClose":"23:59","weekendOpen":"00:00","weekendClose":"23:59","holidayOpen":"00:00","holidayClose":"23:59","feeInfo":"무료","phone":"053-668-3815","updatedAt":"2025-11-26","sido":"대구광역시","sigungu":"달성군","dong":"구지면"},{"name":"현풍 하리 공영주차장","type":"공영","category":"노외","address":"대구광역시 달성군 현풍읍 하리 51","lat":35.695159,"lng":128.444416,"totalSpaces":53,"isFree":true,"operatingDays":"평일+토요일+공휴일","weekdayOpen":"00:00","weekdayClose":"23:59","weekendOpen":"00:00","weekendClose":"23:59","holidayOpen":"00:00","holidayClose":"23:59","feeInfo":"무료","phone":"053-668-3815","updatedAt":"2025-11-26","sido":"대구광역시","sigungu":"달성군","dong":"현풍읍"},{"name":"비슬로96길 B","type":"공영","category":"노상","address":"대구광역시 달성군 유가읍 금리 136","lat":35.683965,"lng":128.451602,"totalSpaces":53,"isFree":true,"operatingDays":"평일+토요일+공휴일","weekdayOpen":"00:00","weekdayClose":"23:59","weekendOpen":"00:00","weekendClose":"23:59","holidayOpen":"00:00","holidayClose":"23:59","feeInfo":"무료","phone":"053-668-3815","updatedAt":"2025-11-26","sido":"대구광역시","sigungu":"달성군","dong":"유가읍"},{"name":"논공로 B","type":"공영","category":"노상","address":"대구광역시 달성군 논공읍 북리 904","lat":35.728781,"lng":128.443325,"totalSpaces":52,"isFree":true,"operatingDays":"평일+토요일+공휴일","weekdayOpen":"00:00","weekdayClose":"23:59","weekendOpen":"00:00","weekendClose":"23:59","holidayOpen":"00:00","holidayClose":"23:59","feeInfo":"무료","phone":"053-668-3815","updatedAt":"2025-11-26","sido":"대구광역시","sigungu":"달성군","dong":"논공읍"},{"name":"용연사 노외주차장","type":"공영","category":"노외","address":"대구광역시 달성군 옥포읍 반송리 359-2","lat":35.754004,"lng":128.504486,"totalSpaces":50,"isFree":true,"operatingDays":"평일+토요일+공휴일","weekdayOpen":"00:00","weekdayClose":"23:59","weekendOpen":"00:00","weekendClose":"23:59","holidayOpen":"00:00","holidayClose":"23:59","feeInfo":"무료","phone":"053-668-3815","updatedAt":"2025-11-26","sido":"대구광역시","sigungu":"달성군","dong":"옥포읍"},{"name":"현풍면 임시 공영주차장","type":"공영","category":"노외","address":"대구광역시 달성군 현풍읍 현풍중앙로 130","lat":35.700471,"lng":128.441321,"totalSpaces":50,"isFree":true,"operatingDays":"평일+토요일+공휴일","weekdayOpen":"00:00","weekdayClose":"23:59","weekendOpen":"00:00","weekendClose":"23:59","holidayOpen":"00:00","holidayClose":"23:59","feeInfo":"무료","phone":"053-668-3815","updatedAt":"2025-11-26","sido":"대구광역시","sigungu":"달성군","dong":"현풍읍"},{"name":"논공로 A","type":"공영","category":"노상","address":"대구광역시 달성군 논공읍 남리 224-94","lat":35.727229,"lng":128.437348,"totalSpaces":49,"isFree":true,"operatingDays":"평일+토요일+공휴일","weekdayOpen":"00:00","weekdayClose":"23:59","weekendOpen":"00:00","weekendClose":"23:59","holidayOpen":"00:00","holidayClose":"23:59","feeInfo":"무료","phone":"053-668-3815","updatedAt":"2025-11-26","sido":"대구광역시","sigungu":"달성군","dong":"논공읍"},{"name":"인흥길 A","type":"공영","category":"노상","address":"대구광역시 달성군 화원읍 천내리 901-105","lat":35.799602,"lng":128.501449,"totalSpaces":49,"isFree":true,"operatingDays":"평일+토요일+공휴일","weekdayOpen":"00:00","weekdayClose":"23:59","weekendOpen":"00:00","weekendClose":"23:59","holidayOpen":"00:00","holidayClose":"23:59","feeInfo":"무료","phone":"053-668-3815","updatedAt":"2025-11-26","sido":"대구광역시","sigungu":"달성군","dong":"화원읍"},{"name":"강창교하부1주차장","type":"공영","category":"노외","address":"대구광역시 달성군 다사읍 매곡리 124-2","lat":35.855504,"lng":128.471247,"totalSpaces":48,"isFree":true,"operatingDays":"평일+토요일+공휴일","weekdayOpen":"00:00","weekdayClose":"23:59","weekendOpen":"00:00","weekendClose":"23:59","holidayOpen":"00:00","holidayClose":"23:59","feeInfo":"무료","phone":"053-668-3815","updatedAt":"2025-11-26","sido":"대구광역시","sigungu":"달성군","dong":"다사읍"},{"name":"논공중앙로54길 B","type":"공영","category":"노상","address":"대구광역시 달성군 논공읍 북리 1-7","lat":35.734714,"lng":128.465583,"totalSpaces":47,"isFree":true,"operatingDays":"평일+토요일+공휴일","weekdayOpen":"00:00","weekdayClose":"23:59","weekendOpen":"00:00","weekendClose":"23:59","holidayOpen":"00:00","holidayClose":"23:59","feeInfo":"무료","phone":"053-668-3815","updatedAt":"2025-11-26","sido":"대구광역시","sigungu":"달성군","dong":"논공읍"},{"name":"국가산단 1호 근린공원","type":"공영","category":"노외","address":"대구광역시 달성군 구지면 창리 1356","lat":35.659056,"lng":128.403258,"totalSpaces":47,"isFree":true,"operatingDays":"평일+토요일+공휴일","weekdayOpen":"00:00","weekdayClose":"23:59","weekendOpen":"00:00","weekendClose":"23:59","holidayOpen":"00:00","holidayClose":"23:59","feeInfo":"무료","phone":"053-668-3815","updatedAt":"2025-11-26","sido":"대구광역시","sigungu":"달성군","dong":"구지면"},{"name":"대실역북로2길 A","type":"공영","category":"노상","address":"대구광역시 달성군 다사읍 매곡리 1522-2","lat":35.865423,"lng":128.465302,"totalSpaces":46,"isFree":true,"operatingDays":"평일+토요일+공휴일","weekdayOpen":"00:00","weekdayClose":"23:59","weekendOpen":"00:00","weekendClose":"23:59","holidayOpen":"00:00","holidayClose":"23:59","feeInfo":"무료","phone":"053-668-3815","updatedAt":"2025-11-26","sido":"대구광역시","sigungu":"달성군","dong":"다사읍"},{"name":"세천로3길 B","type":"공영","category":"노상","address":"대구광역시 달성군 다사읍 세천리 1727","lat":35.875368,"lng":128.469043,"totalSpaces":46,"isFree":true,"operatingDays":"평일+토요일+공휴일","weekdayOpen":"00:00","weekdayClose":"23:59","weekendOpen":"00:00","weekendClose":"23:59","holidayOpen":"00:00","holidayClose":"23:59","feeInfo":"무료","phone":"053-668-3815","updatedAt":"2025-11-26","sido":"대구광역시","sigungu":"달성군","dong":"다사읍"},{"name":"논공중앙로45길 A","type":"공영","category":"노상","address":"대구광역시 달성군 논공읍 북리 1-5","lat":35.732187,"lng":128.455616,"totalSpaces":44,"isFree":true,"operatingDays":"평일+토요일+공휴일","weekdayOpen":"00:00","weekdayClose":"23:59","weekendOpen":"00:00","weekendClose":"23:59","holidayOpen":"00:00","holidayClose":"23:59","feeInfo":"무료","phone":"053-668-3815","updatedAt":"2025-11-26","sido":"대구광역시","sigungu":"달성군","dong":"논공읍"},{"name":"논공중앙로34길 B","type":"공영","category":"노상","address":"대구광역시 달성군 논공읍 북리 448","lat":35.726018,"lng":128.455522,"totalSpaces":43,"isFree":true,"operatingDays":"평일+토요일+공휴일","weekdayOpen":"00:00","weekdayClose":"23:59","weekendOpen":"00:00","weekendClose":"23:59","holidayOpen":"00:00","holidayClose":"23:59","feeInfo":"무료","phone":"053-668-3815","updatedAt":"2025-11-26","sido":"대구광역시","sigungu":"달성군","dong":"논공읍"},{"name":"다사읍행정복지센터 서측","type":"공영","category":"노상","address":"대구광역시 달성군 다사읍 매곡리 925-1","lat":35.860556,"lng":128.453294,"totalSpaces":42,"isFree":true,"operatingDays":"평일+토요일+공휴일","weekdayOpen":"00:00","weekdayClose":"23:59","weekendOpen":"00:00","weekendClose":"23:59","holidayOpen":"00:00","holidayClose":"23:59","feeInfo":"무료","phone":"053-668-3815","updatedAt":"2025-11-26","sido":"대구광역시","sigungu":"달성군","dong":"다사읍"},{"name":"논공로 I","type":"공영","category":"노상","address":"대구광역시 달성군 논공읍 본리리 103-11","lat":35.733539,"lng":128.46754,"totalSpaces":42,"isFree":true,"operatingDays":"평일+토요일+공휴일","weekdayOpen":"00:00","weekdayClose":"23:59","weekendOpen":"00:00","weekendClose":"23:59","holidayOpen":"00:00","holidayClose":"23:59","feeInfo":"무료","phone":"053-668-3815","updatedAt":"2025-11-26","sido":"대구광역시","sigungu":"달성군","dong":"논공읍"},{"name":"창리체육공원주차장","type":"공영","category":"노외","address":"대구광역시 달성군 구지면 창리 1356","lat":35.659056,"lng":128.403258,"totalSpaces":42,"isFree":true,"operatingDays":"평일+토요일+공휴일","weekdayOpen":"00:00","weekdayClose":"23:59","weekendOpen":"00:00","weekendClose":"23:59","holidayOpen":"00:00","holidayClose":"23:59","feeInfo":"무료","phone":"053-668-3815","updatedAt":"2025-11-26","sido":"대구광역시","sigungu":"달성군","dong":"구지면"},{"name":"다사 부곡 마을공동주차장","type":"공영","category":"노외","address":"대구광역시 달성군 다사읍 부곡리 175번지","lat":35.866541,"lng":128.445042,"totalSpaces":41,"isFree":true,"operatingDays":"평일+토요일+공휴일","weekdayOpen":"00:00","weekdayClose":"23:59","weekendOpen":"00:00","weekendClose":"23:59","holidayOpen":"00:00","holidayClose":"23:59","feeInfo":"무료","phone":"053-668-3815","updatedAt":"2025-11-26","sido":"대구광역시","sigungu":"달성군","dong":"다사읍"},{"name":"비슬로96길 C","type":"공영","category":"노상","address":"대구광역시 달성군 유가읍 상리 915-3","lat":35.685645,"lng":128.455637,"totalSpaces":41,"isFree":true,"operatingDays":"평일+토요일+공휴일","weekdayOpen":"00:00","weekdayClose":"23:59","weekendOpen":"00:00","weekendClose":"23:59","holidayOpen":"00:00","holidayClose":"23:59","feeInfo":"무료","phone":"053-668-3815","updatedAt":"2025-11-26","sido":"대구광역시","sigungu":"달성군","dong":"유가읍"},{"name":"논공로 J","type":"공영","category":"노상","address":"대구광역시 달성군 논공읍 본리리 29-240","lat":35.737759,"lng":128.469269,"totalSpaces":40,"isFree":true,"operatingDays":"평일+토요일+공휴일","weekdayOpen":"00:00","weekdayClose":"23:59","weekendOpen":"00:00","weekendClose":"23:59","holidayOpen":"00:00","holidayClose":"23:59","feeInfo":"무료","phone":"053-668-3815","updatedAt":"2025-11-26","sido":"대구광역시","sigungu":"달성군","dong":"논공읍"},{"name":"논공로71길","type":"공영","category":"노상","address":"대구광역시 달성군 논공읍 본리리 29-35","lat":35.740722,"lng":128.470782,"totalSpaces":40,"isFree":true,"operatingDays":"평일+토요일+공휴일","weekdayOpen":"00:00","weekdayClose":"23:59","weekendOpen":"00:00","weekendClose":"23:59","holidayOpen":"00:00","holidayClose":"23:59","feeInfo":"무료","phone":"053-668-3815","updatedAt":"2025-11-26","sido":"대구광역시","sigungu":"달성군","dong":"논공읍"},{"name":"현풍충혼탑1주차장","type":"공영","category":"노외","address":"대구광역시 달성군 현풍읍 성하리 428","lat":35.697241,"lng":128.442348,"totalSpaces":40,"isFree":true,"operatingDays":"평일+토요일+공휴일","weekdayOpen":"00:00","weekdayClose":"23:59","weekendOpen":"00:00","weekendClose":"23:59","holidayOpen":"00:00","holidayClose":"23:59","feeInfo":"무료","phone":"053-668-3815","updatedAt":"2025-11-26","sido":"대구광역시","sigungu":"달성군","dong":"현풍읍"},{"name":"영남APT북측","type":"공영","category":"노상","address":"대구광역시 달성군 화원읍 천내리 42","lat":35.805848,"lng":128.501213,"totalSpaces":40,"isFree":true,"operatingDays":"평일+토요일+공휴일","weekdayOpen":"00:00","weekdayClose":"23:59","weekendOpen":"00:00","weekendClose":"23:59","holidayOpen":"00:00","holidayClose":"23:59","feeInfo":"무료","phone":"053-668-3815","updatedAt":"2025-11-26","sido":"대구광역시","sigungu":"달성군","dong":"화원읍"},{"name":"테크노대로2길B","type":"공영","category":"노상","address":"대구광역시 달성군 현풍읍 중리 509-4","lat":35.688861,"lng":128.449862,"totalSpaces":38,"isFree":true,"operatingDays":"평일+토요일+공휴일","weekdayOpen":"00:00","weekdayClose":"23:59","weekendOpen":"00:00","weekendClose":"23:59","holidayOpen":"00:00","holidayClose":"23:59","feeInfo":"무료","phone":"053-668-3815","updatedAt":"2025-11-26","sido":"대구광역시","sigungu":"달성군","dong":"현풍읍"},{"name":"비슬로134길 A","type":"공영","category":"노상","address":"대구광역시 달성군 현풍읍 성하리 725-38","lat":35.696132,"lng":128.439484,"totalSpaces":38,"isFree":true,"operatingDays":"평일+토요일+공휴일","weekdayOpen":"00:00","weekdayClose":"23:59","weekendOpen":"00:00","weekendClose":"23:59","holidayOpen":"00:00","holidayClose":"23:59","feeInfo":"무료","phone":"053-668-3815","updatedAt":"2025-11-26","sido":"대구광역시","sigungu":"달성군","dong":"현풍읍"},{"name":"논공로 L","type":"공영","category":"노상","address":"대구광역시 달성군 논공읍 북리 1-124","lat":35.729134,"lng":128.460995,"totalSpaces":37,"isFree":true,"operatingDays":"평일+토요일+공휴일","weekdayOpen":"00:00","weekdayClose":"23:59","weekendOpen":"00:00","weekendClose":"23:59","holidayOpen":"00:00","holidayClose":"23:59","feeInfo":"무료","phone":"053-668-3815","updatedAt":"2025-11-26","sido":"대구광역시","sigungu":"달성군","dong":"논공읍"},{"name":"테크노대로2길A","type":"공영","category":"노상","address":"대구광역시 달성군 현풍읍 중리 509","lat":35.688718,"lng":128.44959,"totalSpaces":37,"isFree":true,"operatingDays":"평일+토요일+공휴일","weekdayOpen":"00:00","weekdayClose":"23:59","weekendOpen":"00:00","weekendClose":"23:59","holidayOpen":"00:00","holidayClose":"23:59","feeInfo":"무료","phone":"053-668-3815","updatedAt":"2025-11-26","sido":"대구광역시","sigungu":"달성군","dong":"현풍읍"},{"name":"논공로 M","type":"공영","category":"노상","address":"대구광역시 달성군 논공읍 북리 1-61","lat":35.732906,"lng":128.466932,"totalSpaces":36,"isFree":true,"operatingDays":"평일+토요일+공휴일","weekdayOpen":"00:00","weekdayClose":"23:59","weekendOpen":"00:00","weekendClose":"23:59","holidayOpen":"00:00","holidayClose":"23:59","feeInfo":"무료","phone":"053-668-3815","updatedAt":"2025-11-26","sido":"대구광역시","sigungu":"달성군","dong":"논공읍"},{"name":"논공중앙로52길 B","type":"공영","category":"노상","address":"대구광역시 달성군 논공읍 북리 1-63","lat":35.731766,"lng":128.462025,"totalSpaces":36,"isFree":true,"operatingDays":"평일+토요일+공휴일","weekdayOpen":"00:00","weekdayClose":"23:59","weekendOpen":"00:00","weekendClose":"23:59","holidayOpen":"00:00","holidayClose":"23:59","feeInfo":"무료","phone":"053-668-3815","updatedAt":"2025-11-26","sido":"대구광역시","sigungu":"달성군","dong":"논공읍"},{"name":"논공중앙로51길","type":"공영","category":"노상","address":"대구광역시 달성군 논공읍 본리리 29-88","lat":35.736044,"lng":128.458826,"totalSpaces":36,"isFree":true,"operatingDays":"평일+토요일+공휴일","weekdayOpen":"00:00","weekdayClose":"23:59","weekendOpen":"00:00","weekendClose":"23:59","holidayOpen":"00:00","holidayClose":"23:59","feeInfo":"무료","phone":"053-668-3815","updatedAt":"2025-11-26","sido":"대구광역시","sigungu":"달성군","dong":"논공읍"},{"name":"논공로91길 A","type":"공영","category":"노상","address":"대구광역시 달성군 논공읍 본리리 103-22","lat":35.732685,"lng":128.469626,"totalSpaces":36,"isFree":true,"operatingDays":"평일+토요일+공휴일","weekdayOpen":"00:00","weekdayClose":"23:59","weekendOpen":"00:00","weekendClose":"23:59","holidayOpen":"00:00","holidayClose":"23:59","feeInfo":"무료","phone":"053-668-3815","updatedAt":"2025-11-26","sido":"대구광역시","sigungu":"달성군","dong":"논공읍"},{"name":"강창교하부2주차장","type":"공영","category":"노외","address":"대구광역시 달성군 다사읍 죽곡리 566-4","lat":35.853325,"lng":128.470874,"totalSpaces":36,"isFree":true,"operatingDays":"평일+토요일+공휴일","weekdayOpen":"00:00","weekdayClose":"23:59","weekendOpen":"00:00","weekendClose":"23:59","holidayOpen":"00:00","holidayClose":"23:59","feeInfo":"무료","phone":"053-668-3815","updatedAt":"2025-11-26","sido":"대구광역시","sigungu":"달성군","dong":"다사읍"},{"name":"천내보성타운인근","type":"공영","category":"노상","address":"대구광역시 달성군 화원읍 천내리 117","lat":35.807374,"lng":128.498782,"totalSpaces":36,"isFree":true,"operatingDays":"평일+토요일+공휴일","weekdayOpen":"00:00","weekdayClose":"23:59","weekendOpen":"00:00","weekendClose":"23:59","holidayOpen":"00:00","holidayClose":"23:59","feeInfo":"무료","phone":"053-668-3815","updatedAt":"2025-11-26","sido":"대구광역시","sigungu":"달성군","dong":"화원읍"},{"name":"비슬로96길 A","type":"공영","category":"노상","address":"대구광역시 달성군 유가읍 금리 168","lat":35.683539,"lng":128.449523,"totalSpaces":36,"isFree":true,"operatingDays":"평일+토요일+공휴일","weekdayOpen":"00:00","weekdayClose":"23:59","weekendOpen":"00:00","weekendClose":"23:59","holidayOpen":"00:00","holidayClose":"23:59","feeInfo":"무료","phone":"053-668-3815","updatedAt":"2025-11-26","sido":"대구광역시","sigungu":"달성군","dong":"유가읍"},{"name":"논공중앙로45길 D","type":"공영","category":"노상","address":"대구광역시 달성군 논공읍 북리 1-6","lat":35.733862,"lng":128.460053,"totalSpaces":35,"isFree":true,"operatingDays":"평일+토요일+공휴일","weekdayOpen":"00:00","weekdayClose":"23:59","weekendOpen":"00:00","weekendClose":"23:59","holidayOpen":"00:00","holidayClose":"23:59","feeInfo":"무료","phone":"053-668-3815","updatedAt":"2025-11-26","sido":"대구광역시","sigungu":"달성군","dong":"논공읍"},{"name":"논공중앙로33길","type":"공영","category":"노상","address":"대구광역시 달성군 논공읍 북리 1-100","lat":35.731198,"lng":128.452158,"totalSpaces":35,"isFree":true,"operatingDays":"평일+토요일+공휴일","weekdayOpen":"00:00","weekdayClose":"23:59","weekendOpen":"00:00","weekendClose":"23:59","holidayOpen":"00:00","holidayClose":"23:59","feeInfo":"무료","phone":"053-668-3815","updatedAt":"2025-11-26","sido":"대구광역시","sigungu":"달성군","dong":"논공읍"},{"name":"현풍향교주차장","type":"공영","category":"노외","address":"대구광역시 달성군 현풍읍 상리 312-2","lat":35.701223,"lng":128.450723,"totalSpaces":35,"isFree":true,"operatingDays":"평일+토요일+공휴일","weekdayOpen":"00:00","weekdayClose":"23:59","weekendOpen":"00:00","weekendClose":"23:59","holidayOpen":"00:00","holidayClose":"23:59","feeInfo":"무료","phone":"053-668-3815","updatedAt":"2025-11-26","sido":"대구광역시","sigungu":"달성군","dong":"현풍읍"},{"name":"현풍 상리 마을공동주차장","type":"공영","category":"노외","address":"대구광역시 달성군 현풍읍 상리 312","lat":35.701044,"lng":128.451998,"totalSpaces":35,"isFree":true,"operatingDays":"평일+토요일+공휴일","weekdayOpen":"00:00","weekdayClose":"23:59","weekendOpen":"00:00","weekendClose":"23:59","holidayOpen":"00:00","holidayClose":"23:59","feeInfo":"무료","phone":"053-668-3815","updatedAt":"2025-11-26","sido":"대구광역시","sigungu":"달성군","dong":"현풍읍"},{"name":"세천로7길 B","type":"공영","category":"노상","address":"대구광역시 달성군 다사읍 세천리 1728","lat":35.873771,"lng":128.46951,"totalSpaces":35,"isFree":true,"operatingDays":"평일+토요일+공휴일","weekdayOpen":"00:00","weekdayClose":"23:59","weekendOpen":"00:00","weekendClose":"23:59","holidayOpen":"00:00","holidayClose":"23:59","feeInfo":"무료","phone":"053-668-3815","updatedAt":"2025-11-26","sido":"대구광역시","sigungu":"달성군","dong":"다사읍"},{"name":"논공로87길 D","type":"공영","category":"노상","address":"대구광역시 달성군 논공읍 북리 1-113","lat":35.730042,"lng":128.465757,"totalSpaces":34,"isFree":true,"operatingDays":"평일+토요일+공휴일","weekdayOpen":"00:00","weekdayClose":"23:59","weekendOpen":"00:00","weekendClose":"23:59","holidayOpen":"00:00","holidayClose":"23:59","feeInfo":"무료","phone":"053-668-3815","updatedAt":"2025-11-26","sido":"대구광역시","sigungu":"달성군","dong":"논공읍"},{"name":"논공로91길 B","type":"공영","category":"노상","address":"대구광역시 달성군 논공읍 본리리 103-4","lat":35.732454,"lng":128.468152,"totalSpaces":34,"isFree":true,"operatingDays":"평일+토요일+공휴일","weekdayOpen":"00:00","weekdayClose":"23:59","weekendOpen":"00:00","weekendClose":"23:59","holidayOpen":"00:00","holidayClose":"23:59","feeInfo":"무료","phone":"053-668-3815","updatedAt":"2025-11-26","sido":"대구광역시","sigungu":"달성군","dong":"논공읍"},{"name":"공영주차장(낙동강금호강자전거만남의길)","type":"공영","category":"노외","address":"대구광역시 달성군 다사읍 죽곡리 869","lat":35.848827,"lng":128.468569,"totalSpaces":34,"isFree":true,"operatingDays":"평일+토요일+공휴일","weekdayOpen":"00:00","weekdayClose":"23:59","weekendOpen":"00:00","weekendClose":"23:59","holidayOpen":"00:00","holidayClose":"23:59","feeInfo":"무료","phone":"053-668-3815","updatedAt":"2025-11-26","sido":"대구광역시","sigungu":"달성군","dong":"다사읍"},{"name":"비슬로525길","type":"공영","category":"노상","address":"대구광역시 달성군 화원읍 천내리 55","lat":35.806525,"lng":128.504526,"totalSpaces":34,"isFree":true,"operatingDays":"평일+토요일+공휴일","weekdayOpen":"00:00","weekdayClose":"23:59","weekendOpen":"00:00","weekendClose":"23:59","holidayOpen":"00:00","holidayClose":"23:59","feeInfo":"무료","phone":"053-668-3815","updatedAt":"2025-11-26","sido":"대구광역시","sigungu":"달성군","dong":"화원읍"},{"name":"비슬로208길 A","type":"공영","category":"노상","address":"대구광역시 달성군 논공읍 남리 137-1","lat":35.727796,"lng":128.433272,"totalSpaces":33,"isFree":true,"operatingDays":"평일+토요일+공휴일","weekdayOpen":"00:00","weekdayClose":"23:59","weekendOpen":"00:00","weekendClose":"23:59","holidayOpen":"00:00","holidayClose":"23:59","feeInfo":"무료","phone":"053-668-3815","updatedAt":"2025-11-26","sido":"대구광역시","sigungu":"달성군","dong":"논공읍"},{"name":"용호로","type":"공영","category":"노상","address":"대구광역시 달성군 논공읍 북리 886","lat":35.728247,"lng":128.444892,"totalSpaces":32,"isFree":true,"operatingDays":"평일+토요일+공휴일","weekdayOpen":"00:00","weekdayClose":"23:59","weekendOpen":"00:00","weekendClose":"23:59","holidayOpen":"00:00","holidayClose":"23:59","feeInfo":"무료","phone":"053-668-3815","updatedAt":"2025-11-26","sido":"대구광역시","sigungu":"달성군","dong":"논공읍"},{"name":"매곡로2길 B","type":"공영","category":"노상","address":"대구광역시 달성군 다사읍 매곡리 678-2","lat":35.863782,"lng":128.456961,"totalSpaces":32,"isFree":true,"operatingDays":"평일+토요일+공휴일","weekdayOpen":"00:00","weekdayClose":"23:59","weekendOpen":"00:00","weekendClose":"23:59","holidayOpen":"00:00","holidayClose":"23:59","feeInfo":"무료","phone":"053-668-3815","updatedAt":"2025-11-26","sido":"대구광역시","sigungu":"달성군","dong":"다사읍"},{"name":"세천로1길 C","type":"공영","category":"노상","address":"대구광역시 달성군 다사읍 세천리 1663-7","lat":35.878946,"lng":128.4644,"totalSpaces":32,"isFree":true,"operatingDays":"평일+토요일+공휴일","weekdayOpen":"00:00","weekdayClose":"23:59","weekendOpen":"00:00","weekendClose":"23:59","holidayOpen":"00:00","holidayClose":"23:59","feeInfo":"무료","phone":"053-668-3815","updatedAt":"2025-11-26","sido":"대구광역시","sigungu":"달성군","dong":"다사읍"},{"name":"대실역북로2길 B","type":"공영","category":"노상","address":"대구광역시 달성군 다사읍 매곡리 1535","lat":35.862079,"lng":128.469678,"totalSpaces":31,"isFree":true,"operatingDays":"평일+토요일+공휴일","weekdayOpen":"00:00","weekdayClose":"23:59","weekendOpen":"00:00","weekendClose":"23:59","holidayOpen":"00:00","holidayClose":"23:59","feeInfo":"무료","phone":"053-668-3815","updatedAt":"2025-11-26","sido":"대구광역시","sigungu":"달성군","dong":"다사읍"},{"name":"다사역로 B","type":"공영","category":"노상","address":"대구광역시 달성군 다사읍 매곡리 487-3","lat":35.865323,"lng":128.458579,"totalSpaces":31,"isFree":true,"operatingDays":"평일+토요일+공휴일","weekdayOpen":"00:00","weekdayClose":"23:59","weekendOpen":"00:00","weekendClose":"23:59","holidayOpen":"00:00","holidayClose":"23:59","feeInfo":"무료","phone":"053-668-3815","updatedAt":"2025-11-26","sido":"대구광역시","sigungu":"달성군","dong":"다사읍"},{"name":"논공중앙로34길 A","type":"공영","category":"노상","address":"대구광역시 달성군 논공읍 북리 416-6","lat":35.729204,"lng":128.453701,"totalSpaces":31,"isFree":true,"operatingDays":"평일+토요일+공휴일","weekdayOpen":"00:00","weekdayClose":"23:59","weekendOpen":"00:00","weekendClose":"23:59","holidayOpen":"00:00","holidayClose":"23:59","feeInfo":"무료","phone":"053-668-3815","updatedAt":"2025-11-26","sido":"대구광역시","sigungu":"달성군","dong":"논공읍"},{"name":"논공로53길 A","type":"공영","category":"노상","address":"대구광역시 달성군 논공읍 본리리 29-27","lat":35.736076,"lng":128.455671,"totalSpaces":31,"isFree":true,"operatingDays":"평일+토요일+공휴일","weekdayOpen":"00:00","weekdayClose":"23:59","weekendOpen":"00:00","weekendClose":"23:59","holidayOpen":"00:00","holidayClose":"23:59","feeInfo":"무료","phone":"053-668-3815","updatedAt":"2025-11-26","sido":"대구광역시","sigungu":"달성군","dong":"논공읍"},{"name":"논공로53길 C","type":"공영","category":"노상","address":"대구광역시 달성군 논공읍 본리리 29-73","lat":35.738347,"lng":128.452532,"totalSpaces":31,"isFree":true,"operatingDays":"평일+토요일+공휴일","weekdayOpen":"00:00","weekdayClose":"23:59","weekendOpen":"00:00","weekendClose":"23:59","holidayOpen":"00:00","holidayClose":"23:59","feeInfo":"무료","phone":"053-668-3815","updatedAt":"2025-11-26","sido":"대구광역시","sigungu":"달성군","dong":"논공읍"},{"name":"논공로87길 B","type":"공영","category":"노상","address":"대구광역시 달성군 논공읍 본리리 103-25","lat":35.733642,"lng":128.471068,"totalSpaces":31,"isFree":true,"operatingDays":"평일+토요일+공휴일","weekdayOpen":"00:00","weekdayClose":"23:59","weekendOpen":"00:00","weekendClose":"23:59","holidayOpen":"00:00","holidayClose":"23:59","feeInfo":"무료","phone":"053-668-3815","updatedAt":"2025-11-26","sido":"대구광역시","sigungu":"달성군","dong":"논공읍"},{"name":"논공복개천주차장2","type":"공영","category":"노외","address":"대구광역시 달성군 논공읍 북리 1-130","lat":35.730052,"lng":128.452782,"totalSpaces":31,"isFree":true,"operatingDays":"평일+토요일+공휴일","weekdayOpen":"00:00","weekdayClose":"23:59","weekendOpen":"00:00","weekendClose":"23:59","holidayOpen":"00:00","holidayClose":"23:59","feeInfo":"무료","phone":"053-668-3815","updatedAt":"2025-11-26","sido":"대구광역시","sigungu":"달성군","dong":"논공읍"},{"name":"유가 가태리 마을공동주차장","type":"공영","category":"노외","address":"대구광역시 달성군 유가읍 가태리 572-1","lat":35.655281,"lng":128.468571,"totalSpaces":31,"isFree":true,"operatingDays":"평일+토요일+공휴일","weekdayOpen":"00:00","weekdayClose":"23:59","weekendOpen":"00:00","weekendClose":"23:59","holidayOpen":"00:00","holidayClose":"23:59","feeInfo":"무료","phone":"053-668-3815","updatedAt":"2025-11-26","sido":"대구광역시","sigungu":"달성군","dong":"유가읍"},{"name":"화암로 C","type":"공영","category":"노상","address":"대구광역시 달성군 화원읍 명곡리 145","lat":35.798124,"lng":128.497742,"totalSpaces":31,"isFree":true,"operatingDays":"평일+토요일+공휴일","weekdayOpen":"00:00","weekdayClose":"23:59","weekendOpen":"00:00","weekendClose":"23:59","holidayOpen":"00:00","holidayClose":"23:59","feeInfo":"무료","phone":"053-668-3815","updatedAt":"2025-11-26","sido":"대구광역시","sigungu":"달성군","dong":"화원읍"},{"name":"세천로7길 A","type":"공영","category":"노상","address":"대구광역시 달성군 다사읍 세천리 1728","lat":35.873771,"lng":128.46951,"totalSpaces":31,"isFree":true,"operatingDays":"평일+토요일+공휴일","weekdayOpen":"00:00","weekdayClose":"23:59","weekendOpen":"00:00","weekendClose":"23:59","holidayOpen":"00:00","holidayClose":"23:59","feeInfo":"무료","phone":"053-668-3815","updatedAt":"2025-11-26","sido":"대구광역시","sigungu":"달성군","dong":"다사읍"},{"name":"돌미로4길","type":"공영","category":"노상","address":"대구광역시 달성군 옥포읍 강림리 1224","lat":35.779573,"lng":128.439719,"totalSpaces":31,"isFree":true,"operatingDays":"평일+토요일+공휴일","weekdayOpen":"00:00","weekdayClose":"23:59","weekendOpen":"00:00","weekendClose":"23:59","holidayOpen":"00:00","holidayClose":"23:59","feeInfo":"무료","phone":"053-668-3815","updatedAt":"2025-11-26","sido":"대구광역시","sigungu":"달성군","dong":"옥포읍"},{"name":"세천로1길 E","type":"공영","category":"노상","address":"대구광역시 달성군 다사읍 세천리 1670-5","lat":35.876021,"lng":128.464138,"totalSpaces":30,"isFree":true,"operatingDays":"평일+토요일+공휴일","weekdayOpen":"00:00","weekdayClose":"23:59","weekendOpen":"00:00","weekendClose":"23:59","holidayOpen":"00:00","holidayClose":"23:59","feeInfo":"무료","phone":"053-668-3815","updatedAt":"2025-11-26","sido":"대구광역시","sigungu":"달성군","dong":"다사읍"},{"name":"논공로69길","type":"공영","category":"노상","address":"대구광역시 달성군 논공읍 본리리 29-132","lat":35.740715,"lng":128.472023,"totalSpaces":30,"isFree":true,"operatingDays":"평일+토요일+공휴일","weekdayOpen":"00:00","weekdayClose":"23:59","weekendOpen":"00:00","weekendClose":"23:59","holidayOpen":"00:00","holidayClose":"23:59","feeInfo":"무료","phone":"053-668-3815","updatedAt":"2025-11-26","sido":"대구광역시","sigungu":"달성군","dong":"논공읍"},{"name":"광장주차장","type":"공영","category":"노외","address":"대구광역시 달성군 다사읍 죽곡리806","lat":35.841164,"lng":128.465056,"totalSpaces":30,"isFree":true,"operatingDays":"평일+토요일+공휴일","weekdayOpen":"00:00","weekdayClose":"23:59","weekendOpen":"00:00","weekendClose":"23:59","holidayOpen":"00:00","holidayClose":"23:59","feeInfo":"무료","phone":"053-668-3815","updatedAt":"2025-11-26","sido":"대구광역시","sigungu":"달성군","dong":"다사읍"},{"name":"화원천내교 및 천변","type":"공영","category":"노외","address":"대구광역시 달성군 화원읍 천내리 350-2","lat":35.802995,"lng":128.49341,"totalSpaces":30,"isFree":true,"operatingDays":"평일+토요일+공휴일","weekdayOpen":"00:00","weekdayClose":"23:59","weekendOpen":"00:00","weekendClose":"23:59","holidayOpen":"00:00","holidayClose":"23:59","feeInfo":"무료","phone":"053-668-3815","updatedAt":"2025-11-26","sido":"대구광역시","sigungu":"달성군","dong":"화원읍"},{"name":"세천로1길 A","type":"공영","category":"노상","address":"대구광역시 달성군 다사읍 세천리 1664-4","lat":35.879679,"lng":128.469613,"totalSpaces":29,"isFree":true,"operatingDays":"평일+토요일+공휴일","weekdayOpen":"00:00","weekdayClose":"23:59","weekendOpen":"00:00","weekendClose":"23:59","holidayOpen":"00:00","holidayClose":"23:59","feeInfo":"무료","phone":"053-668-3815","updatedAt":"2025-11-26","sido":"대구광역시","sigungu":"달성군","dong":"다사읍"},{"name":"세천로1길 G","type":"공영","category":"노상","address":"대구광역시 달성군 다사읍 세천리 1673-12","lat":35.871838,"lng":128.466778,"totalSpaces":29,"isFree":true,"operatingDays":"평일+토요일+공휴일","weekdayOpen":"00:00","weekdayClose":"23:59","weekendOpen":"00:00","weekendClose":"23:59","holidayOpen":"00:00","holidayClose":"23:59","feeInfo":"무료","phone":"053-668-3815","updatedAt":"2025-11-26","sido":"대구광역시","sigungu":"달성군","dong":"다사읍"},{"name":"논공로9길","type":"공영","category":"노상","address":"대구광역시 달성군 논공읍 북리 803-3","lat":35.730816,"lng":128.443055,"totalSpaces":29,"isFree":true,"operatingDays":"평일+토요일+공휴일","weekdayOpen":"00:00","weekdayClose":"23:59","weekendOpen":"00:00","weekendClose":"23:59","holidayOpen":"00:00","holidayClose":"23:59","feeInfo":"무료","phone":"053-668-3815","updatedAt":"2025-11-26","sido":"대구광역시","sigungu":"달성군","dong":"논공읍"},{"name":"논공중앙로52길 A","type":"공영","category":"노상","address":"대구광역시 달성군 논공읍 북리 1-157","lat":35.732987,"lng":128.461828,"totalSpaces":29,"isFree":true,"operatingDays":"평일+토요일+공휴일","weekdayOpen":"00:00","weekdayClose":"23:59","weekendOpen":"00:00","weekendClose":"23:59","holidayOpen":"00:00","holidayClose":"23:59","feeInfo":"무료","phone":"053-668-3815","updatedAt":"2025-11-26","sido":"대구광역시","sigungu":"달성군","dong":"논공읍"},{"name":"금강로16길 A","type":"공영","category":"노상","address":"대구광역시 달성군 논공읍 금포리 1340-2","lat":35.775925,"lng":128.431975,"totalSpaces":29,"isFree":true,"operatingDays":"평일+토요일+공휴일","weekdayOpen":"00:00","weekdayClose":"23:59","weekendOpen":"00:00","weekendClose":"23:59","holidayOpen":"00:00","holidayClose":"23:59","feeInfo":"무료","phone":"053-668-3815","updatedAt":"2025-11-26","sido":"대구광역시","sigungu":"달성군","dong":"논공읍"},{"name":"현풍 부리 마을공동주차장","type":"공영","category":"노외","address":"대구광역시 달성군 현풍읍 부리 350-1","lat":35.699109,"lng":128.446502,"totalSpaces":29,"isFree":true,"operatingDays":"평일+토요일+공휴일","weekdayOpen":"00:00","weekdayClose":"23:59","weekendOpen":"00:00","weekendClose":"23:59","holidayOpen":"00:00","holidayClose":"23:59","feeInfo":"무료","phone":"053-668-3815","updatedAt":"2025-11-26","sido":"대구광역시","sigungu":"달성군","dong":"현풍읍"},{"name":"논공중앙로46길 A","type":"공영","category":"노상","address":"대구광역시 달성군 논공읍 북리 1-9","lat":35.732153,"lng":128.459497,"totalSpaces":28,"isFree":true,"operatingDays":"평일+토요일+공휴일","weekdayOpen":"00:00","weekdayClose":"23:59","weekendOpen":"00:00","weekendClose":"23:59","holidayOpen":"00:00","holidayClose":"23:59","feeInfo":"무료","phone":"053-668-3815","updatedAt":"2025-11-26","sido":"대구광역시","sigungu":"달성군","dong":"논공읍"},{"name":"논공중앙로46길 B","type":"공영","category":"노상","address":"대구광역시 달성군 논공읍 북리 1-14","lat":35.730842,"lng":128.461236,"totalSpaces":28,"isFree":true,"operatingDays":"평일+토요일+공휴일","weekdayOpen":"00:00","weekdayClose":"23:59","weekendOpen":"00:00","weekendClose":"23:59","holidayOpen":"00:00","holidayClose":"23:59","feeInfo":"무료","phone":"053-668-3815","updatedAt":"2025-11-26","sido":"대구광역시","sigungu":"달성군","dong":"논공읍"},{"name":"논공중앙로 C","type":"공영","category":"노상","address":"대구광역시 달성군 논공읍 북리 1-26","lat":35.731035,"lng":128.454865,"totalSpaces":28,"isFree":true,"operatingDays":"평일+토요일+공휴일","weekdayOpen":"00:00","weekdayClose":"23:59","weekendOpen":"00:00","weekendClose":"23:59","holidayOpen":"00:00","holidayClose":"23:59","feeInfo":"무료","phone":"053-668-3815","updatedAt":"2025-11-26","sido":"대구광역시","sigungu":"달성군","dong":"논공읍"},{"name":"논공중앙로54길 A","type":"공영","category":"노상","address":"대구광역시 달성군 논공읍 본리리 29-13","lat":35.736289,"lng":128.4663,"totalSpaces":28,"isFree":true,"operatingDays":"평일+토요일+공휴일","weekdayOpen":"00:00","weekdayClose":"23:59","weekendOpen":"00:00","weekendClose":"23:59","holidayOpen":"00:00","holidayClose":"23:59","feeInfo":"무료","phone":"053-668-3815","updatedAt":"2025-11-26","sido":"대구광역시","sigungu":"달성군","dong":"논공읍"},{"name":"군청로4길주차장","type":"공영","category":"노외","address":"대구광역시 달성군 논공읍 금포리 2466","lat":35.775429,"lng":128.427081,"totalSpaces":28,"isFree":true,"operatingDays":"평일+토요일+공휴일","weekdayOpen":"00:00","weekdayClose":"23:59","weekendOpen":"00:00","weekendClose":"23:59","holidayOpen":"00:00","holidayClose":"23:59","feeInfo":"무료","phone":"053-668-3815","updatedAt":"2025-11-26","sido":"대구광역시","sigungu":"달성군","dong":"논공읍"},{"name":"옥포 본리리 마을공동주차장","type":"공영","category":"노외","address":"대구광역시 달성군 옥포읍 본리리 2382-1","lat":35.790222,"lng":128.461163,"totalSpaces":28,"isFree":true,"operatingDays":"평일+토요일+공휴일","weekdayOpen":"00:00","weekdayClose":"23:59","weekendOpen":"00:00","weekendClose":"23:59","holidayOpen":"00:00","holidayClose":"23:59","feeInfo":"무료","phone":"053-668-3815","updatedAt":"2025-11-26","sido":"대구광역시","sigungu":"달성군","dong":"옥포읍"},{"name":"모개골길","type":"공영","category":"노상","address":"대구광역시 달성군 화원읍 설화리 783","lat":35.795576,"lng":128.485131,"totalSpaces":28,"isFree":true,"operatingDays":"평일+토요일+공휴일","weekdayOpen":"00:00","weekdayClose":"23:59","weekendOpen":"00:00","weekendClose":"23:59","holidayOpen":"00:00","holidayClose":"23:59","feeInfo":"무료","phone":"053-668-3815","updatedAt":"2025-11-26","sido":"대구광역시","sigungu":"달성군","dong":"화원읍"},{"name":"세천로6길 A","type":"공영","category":"노상","address":"대구광역시 달성군 다사읍 세천리 1731","lat":35.871413,"lng":128.471986,"totalSpaces":28,"isFree":true,"operatingDays":"평일+토요일+공휴일","weekdayOpen":"00:00","weekdayClose":"23:59","weekendOpen":"00:00","weekendClose":"23:59","holidayOpen":"00:00","holidayClose":"23:59","feeInfo":"무료","phone":"053-668-3815","updatedAt":"2025-11-26","sido":"대구광역시","sigungu":"달성군","dong":"다사읍"},{"name":"세천로2길 B","type":"공영","category":"노상","address":"대구광역시 달성군 다사읍 세천리 1687-1","lat":35.868444,"lng":128.471854,"totalSpaces":27,"isFree":true,"operatingDays":"평일+토요일+공휴일","weekdayOpen":"00:00","weekdayClose":"23:59","weekendOpen":"00:00","weekendClose":"23:59","holidayOpen":"00:00","holidayClose":"23:59","feeInfo":"무료","phone":"053-668-3815","updatedAt":"2025-11-26","sido":"대구광역시","sigungu":"달성군","dong":"다사읍"},{"name":"국가산단동로42길 A","type":"공영","category":"노상","address":"대구광역시 달성군 구지면 고봉리 234","lat":35.646341,"lng":128.435784,"totalSpaces":26,"isFree":true,"operatingDays":"평일+토요일+공휴일","weekdayOpen":"00:00","weekdayClose":"23:59","weekendOpen":"00:00","weekendClose":"23:59","holidayOpen":"00:00","holidayClose":"23:59","feeInfo":"무료","phone":"053-668-3815","updatedAt":"2025-11-26","sido":"대구광역시","sigungu":"달성군","dong":"구지면"},{"name":"비슬구천공원주차장","type":"공영","category":"노외","address":"대구광역시 달성군 유가읍 봉리 596-3","lat":35.697305,"lng":128.463291,"totalSpaces":26,"isFree":true,"operatingDays":"평일+토요일+공휴일","weekdayOpen":"00:00","weekdayClose":"23:59","weekendOpen":"00:00","weekendClose":"23:59","holidayOpen":"00:00","holidayClose":"23:59","feeInfo":"무료","phone":"053-668-3815","updatedAt":"2025-11-26","sido":"대구광역시","sigungu":"달성군","dong":"유가읍"},{"name":"비슬로495길 B","type":"공영","category":"노상","address":"대구광역시 달성군 화원읍 설화리 1102","lat":35.800437,"lng":128.488956,"totalSpaces":26,"isFree":true,"operatingDays":"평일+토요일+공휴일","weekdayOpen":"00:00","weekdayClose":"23:59","weekendOpen":"00:00","weekendClose":"23:59","holidayOpen":"00:00","holidayClose":"23:59","feeInfo":"무료","phone":"053-668-3815","updatedAt":"2025-11-26","sido":"대구광역시","sigungu":"달성군","dong":"화원읍"},{"name":"하빈 현내리 공영주차장","type":"공영","category":"노외","address":"대구광역시 달성군 하빈면 현내리 853-3","lat":35.901154,"lng":128.441147,"totalSpaces":25,"isFree":true,"operatingDays":"평일+토요일+공휴일","weekdayOpen":"00:00","weekdayClose":"23:59","weekendOpen":"00:00","weekendClose":"23:59","holidayOpen":"00:00","holidayClose":"23:59","feeInfo":"무료","phone":"053-668-3815","updatedAt":"2025-11-26","sido":"대구광역시","sigungu":"달성군","dong":"하빈면"},{"name":"구지면 임시 공영주차장 1","type":"공영","category":"노외","address":"대구광역시 달성군 구지면 창리로11길 58-6","lat":35.659299,"lng":128.414039,"totalSpaces":25,"isFree":true,"operatingDays":"평일+토요일+공휴일","weekdayOpen":"00:00","weekdayClose":"23:59","weekendOpen":"00:00","weekendClose":"23:59","holidayOpen":"00:00","holidayClose":"23:59","feeInfo":"무료","phone":"053-668-3815","updatedAt":"2025-11-26","sido":"대구광역시","sigungu":"달성군","dong":"구지면"},{"name":"논공중앙로52길 C","type":"공영","category":"노상","address":"대구광역시 달성군 논공읍 북리 1-64","lat":35.73196,"lng":128.46312,"totalSpaces":24,"isFree":true,"operatingDays":"평일+토요일+공휴일","weekdayOpen":"00:00","weekdayClose":"23:59","weekendOpen":"00:00","weekendClose":"23:59","holidayOpen":"00:00","holidayClose":"23:59","feeInfo":"무료","phone":"053-668-3815","updatedAt":"2025-11-26","sido":"대구광역시","sigungu":"달성군","dong":"논공읍"},{"name":"논공로 N","type":"공영","category":"노상","address":"대구광역시 달성군 논공읍 본리리 103-4","lat":35.732454,"lng":128.468152,"totalSpaces":24,"isFree":true,"operatingDays":"평일+토요일+공휴일","weekdayOpen":"00:00","weekdayClose":"23:59","weekendOpen":"00:00","weekendClose":"23:59","holidayOpen":"00:00","holidayClose":"23:59","feeInfo":"무료","phone":"053-668-3815","updatedAt":"2025-11-26","sido":"대구광역시","sigungu":"달성군","dong":"논공읍"},{"name":"국가산단동로42길 C","type":"공영","category":"노상","address":"대구광역시 달성군 구지면 고봉리 234","lat":35.646341,"lng":128.435784,"totalSpaces":24,"isFree":true,"operatingDays":"평일+토요일+공휴일","weekdayOpen":"00:00","weekdayClose":"23:59","weekendOpen":"00:00","weekendClose":"23:59","holidayOpen":"00:00","holidayClose":"23:59","feeInfo":"무료","phone":"053-668-3815","updatedAt":"2025-11-26","sido":"대구광역시","sigungu":"달성군","dong":"구지면"},{"name":"현풍 지리 마을공동주차장","type":"공영","category":"노외","address":"대구광역시 달성군 현풍읍 지리 1144","lat":35.672241,"lng":128.425037,"totalSpaces":24,"isFree":true,"operatingDays":"평일+토요일+공휴일","weekdayOpen":"00:00","weekdayClose":"23:59","weekendOpen":"00:00","weekendClose":"23:59","holidayOpen":"00:00","holidayClose":"23:59","feeInfo":"무료","phone":"053-668-3815","updatedAt":"2025-11-26","sido":"대구광역시","sigungu":"달성군","dong":"현풍읍"},{"name":"화암로 B","type":"공영","category":"노상","address":"대구광역시 달성군 화원읍 명곡리 145","lat":35.798124,"lng":128.497742,"totalSpaces":24,"isFree":true,"operatingDays":"평일+토요일+공휴일","weekdayOpen":"00:00","weekdayClose":"23:59","weekendOpen":"00:00","weekendClose":"23:59","holidayOpen":"00:00","holidayClose":"23:59","feeInfo":"무료","phone":"053-668-3815","updatedAt":"2025-11-26","sido":"대구광역시","sigungu":"달성군","dong":"화원읍"},{"name":"현풍로A","type":"공영","category":"노상","address":"대구광역시 달성군 현풍읍 원교리 1731-60","lat":35.695063,"lng":128.439575,"totalSpaces":24,"isFree":true,"operatingDays":"평일+토요일+공휴일","weekdayOpen":"00:00","weekdayClose":"23:59","weekendOpen":"00:00","weekendClose":"23:59","holidayOpen":"00:00","holidayClose":"23:59","feeInfo":"무료","phone":"053-668-3815","updatedAt":"2025-11-26","sido":"대구광역시","sigungu":"달성군","dong":"현풍읍"},{"name":"국가산단동로42길 D","type":"공영","category":"노상","address":"대구광역시 달성군 구지면 고봉리 234","lat":35.646341,"lng":128.435784,"totalSpaces":23,"isFree":true,"operatingDays":"평일+토요일+공휴일","weekdayOpen":"00:00","weekdayClose":"23:59","weekendOpen":"00:00","weekendClose":"23:59","holidayOpen":"00:00","holidayClose":"23:59","feeInfo":"무료","phone":"053-668-3815","updatedAt":"2025-11-26","sido":"대구광역시","sigungu":"달성군","dong":"구지면"},{"name":"유치곤장군호국기념관주차장","type":"공영","category":"노외","address":"대구광역시 달성군 유가읍 양리 산44-6","lat":35.699932,"lng":128.497396,"totalSpaces":23,"isFree":true,"operatingDays":"평일+토요일+공휴일","weekdayOpen":"00:00","weekdayClose":"23:59","weekendOpen":"00:00","weekendClose":"23:59","holidayOpen":"00:00","holidayClose":"23:59","feeInfo":"무료","phone":"053-668-3815","updatedAt":"2025-11-26","sido":"대구광역시","sigungu":"달성군","dong":"유가읍"},{"name":"도동서원주차장","type":"공영","category":"노외","address":"대구광역시 달성군 구지면 도동리 35","lat":35.700797,"lng":128.371685,"totalSpaces":23,"isFree":true,"operatingDays":"평일+토요일+공휴일","weekdayOpen":"00:00","weekdayClose":"23:59","weekendOpen":"00:00","weekendClose":"23:59","holidayOpen":"00:00","holidayClose":"23:59","feeInfo":"무료","phone":"053-668-3815","updatedAt":"2025-11-26","sido":"대구광역시","sigungu":"달성군","dong":"구지면"},{"name":"돌구산공원주차장","type":"공영","category":"노외","address":"대구광역시 달성군 논공읍 본리리 896","lat":35.736655,"lng":128.464401,"totalSpaces":22,"isFree":true,"operatingDays":"평일+토요일+공휴일","weekdayOpen":"00:00","weekdayClose":"23:59","weekendOpen":"00:00","weekendClose":"23:59","holidayOpen":"00:00","holidayClose":"23:59","feeInfo":"무료","phone":"053-668-3815","updatedAt":"2025-11-26","sido":"대구광역시","sigungu":"달성군","dong":"논공읍"},{"name":"비슬로134길 E","type":"공영","category":"노상","address":"대구광역시 달성군 현풍읍 상리 690-3","lat":35.697096,"lng":128.448899,"totalSpaces":22,"isFree":true,"operatingDays":"평일+토요일+공휴일","weekdayOpen":"00:00","weekdayClose":"23:59","weekendOpen":"00:00","weekendClose":"23:59","holidayOpen":"00:00","holidayClose":"23:59","feeInfo":"무료","phone":"053-668-3815","updatedAt":"2025-11-26","sido":"대구광역시","sigungu":"달성군","dong":"현풍읍"},{"name":"본리로","type":"공영","category":"노상","address":"대구광역시 달성군 옥포읍 본리리 2527-192","lat":35.792877,"lng":128.456203,"totalSpaces":22,"isFree":true,"operatingDays":"평일+토요일+공휴일","weekdayOpen":"00:00","weekdayClose":"23:59","weekendOpen":"00:00","weekendClose":"23:59","holidayOpen":"00:00","holidayClose":"23:59","feeInfo":"무료","phone":"053-668-3815","updatedAt":"2025-11-26","sido":"대구광역시","sigungu":"달성군","dong":"옥포읍"},{"name":"논공중앙로 A","type":"공영","category":"노상","address":"대구광역시 달성군 논공읍 북리 833-75","lat":35.727418,"lng":128.449756,"totalSpaces":21,"isFree":true,"operatingDays":"평일+토요일+공휴일","weekdayOpen":"00:00","weekdayClose":"23:59","weekendOpen":"00:00","weekendClose":"23:59","holidayOpen":"00:00","holidayClose":"23:59","feeInfo":"무료","phone":"053-668-3815","updatedAt":"2025-11-26","sido":"대구광역시","sigungu":"달성군","dong":"논공읍"},{"name":"문양역길 B","type":"공영","category":"노상","address":"대구광역시 달성군 다사읍 문양리 400","lat":35.864079,"lng":128.437092,"totalSpaces":21,"isFree":true,"operatingDays":"평일+토요일+공휴일","weekdayOpen":"00:00","weekdayClose":"23:59","weekendOpen":"00:00","weekendClose":"23:59","holidayOpen":"00:00","holidayClose":"23:59","feeInfo":"무료","phone":"053-668-3815","updatedAt":"2025-11-26","sido":"대구광역시","sigungu":"달성군","dong":"다사읍"},{"name":"문양역길 A","type":"공영","category":"노상","address":"대구광역시 달성군 다사읍 문양리 445-9","lat":35.864794,"lng":128.438639,"totalSpaces":21,"isFree":true,"operatingDays":"평일+토요일+공휴일","weekdayOpen":"00:00","weekdayClose":"23:59","weekendOpen":"00:00","weekendClose":"23:59","holidayOpen":"00:00","holidayClose":"23:59","feeInfo":"무료","phone":"053-668-3815","updatedAt":"2025-11-26","sido":"대구광역시","sigungu":"달성군","dong":"다사읍"},{"name":"화암로 A","type":"공영","category":"노상","address":"대구광역시 달성군 화원읍 명곡리 321","lat":35.797143,"lng":128.492105,"totalSpaces":21,"isFree":true,"operatingDays":"평일+토요일+공휴일","weekdayOpen":"00:00","weekdayClose":"23:59","weekendOpen":"00:00","weekendClose":"23:59","holidayOpen":"00:00","holidayClose":"23:59","feeInfo":"무료","phone":"053-668-3815","updatedAt":"2025-11-26","sido":"대구광역시","sigungu":"달성군","dong":"화원읍"},{"name":"용호로1길","type":"공영","category":"노상","address":"대구광역시 달성군 논공읍 북리 824-178","lat":35.726888,"lng":128.446383,"totalSpaces":20,"isFree":true,"operatingDays":"평일+토요일+공휴일","weekdayOpen":"00:00","weekdayClose":"23:59","weekendOpen":"00:00","weekendClose":"23:59","holidayOpen":"00:00","holidayClose":"23:59","feeInfo":"무료","phone":"053-668-3815","updatedAt":"2025-11-26","sido":"대구광역시","sigungu":"달성군","dong":"논공읍"},{"name":"논공로24길","type":"공영","category":"노상","address":"대구광역시 달성군 논공읍 논공로 743","lat":35.729223,"lng":128.445553,"totalSpaces":20,"isFree":true,"operatingDays":"평일+토요일+공휴일","weekdayOpen":"00:00","weekdayClose":"23:59","weekendOpen":"00:00","weekendClose":"23:59","holidayOpen":"00:00","holidayClose":"23:59","feeInfo":"무료","phone":"053-668-3815","updatedAt":"2025-11-26","sido":"대구광역시","sigungu":"달성군","dong":"논공읍"},{"name":"구지평촌파크골프주차장","type":"공영","category":"노외","address":"대구광역시 달성군 유가읍 한정리 596-1","lat":35.642324,"lng":128.458081,"totalSpaces":20,"isFree":true,"operatingDays":"평일+토요일+공휴일","weekdayOpen":"00:00","weekdayClose":"23:59","weekendOpen":"00:00","weekendClose":"23:59","holidayOpen":"00:00","holidayClose":"23:59","feeInfo":"무료","phone":"053-668-3815","updatedAt":"2025-11-26","sido":"대구광역시","sigungu":"달성군","dong":"유가읍"},{"name":"유가사주차장3","type":"공영","category":"노외","address":"대구광역시 달성군 유가읍 양리 144-2","lat":35.712036,"lng":128.505058,"totalSpaces":20,"isFree":true,"operatingDays":"평일+토요일+공휴일","weekdayOpen":"00:00","weekdayClose":"23:59","weekendOpen":"00:00","weekendClose":"23:59","holidayOpen":"00:00","holidayClose":"23:59","feeInfo":"무료","phone":"053-668-3815","updatedAt":"2025-11-26","sido":"대구광역시","sigungu":"달성군","dong":"유가읍"},{"name":"구지평촌파크골프주차장","type":"공영","category":"노외","address":"대구광역시 달성군 구지면 평촌리 1-1","lat":35.643854,"lng":128.456685,"totalSpaces":20,"isFree":true,"operatingDays":"평일+토요일+공휴일","weekdayOpen":"00:00","weekdayClose":"23:59","weekendOpen":"00:00","weekendClose":"23:59","holidayOpen":"00:00","holidayClose":"23:59","feeInfo":"무료","phone":"053-668-3815","updatedAt":"2025-11-26","sido":"대구광역시","sigungu":"달성군","dong":"구지면"},{"name":"달성공단 근린공원","type":"공영","category":"노외","address":"대구광역시 달성군 논공읍 본리리 산50","lat":35.737716,"lng":128.462045,"totalSpaces":20,"isFree":true,"operatingDays":"평일+토요일+공휴일","weekdayOpen":"00:00","weekdayClose":"23:59","weekendOpen":"00:00","weekendClose":"23:59","holidayOpen":"00:00","holidayClose":"23:59","feeInfo":"무료","phone":"053-668-3815","updatedAt":"2025-11-26","sido":"대구광역시","sigungu":"달성군","dong":"논공읍"},{"name":"구지 오설리 마을공동주차장","type":"공영","category":"노외","address":"대구광역시 달성군 구지면 오설리 568-4","lat":35.681708,"lng":128.360469,"totalSpaces":20,"isFree":true,"operatingDays":"평일+토요일+공휴일","weekdayOpen":"00:00","weekdayClose":"23:59","weekendOpen":"00:00","weekendClose":"23:59","holidayOpen":"00:00","holidayClose":"23:59","feeInfo":"무료","phone":"053-668-3815","updatedAt":"2025-11-26","sido":"대구광역시","sigungu":"달성군","dong":"구지면"},{"name":"가창용계리천변2주차장","type":"공영","category":"노외","address":"대구광역시 달성군 가창면 용계리 565-95","lat":35.800221,"lng":128.622596,"totalSpaces":20,"isFree":true,"operatingDays":"평일+토요일+공휴일","weekdayOpen":"00:00","weekdayClose":"23:59","weekendOpen":"00:00","weekendClose":"23:59","holidayOpen":"00:00","holidayClose":"23:59","feeInfo":"무료","phone":"053-668-3815","updatedAt":"2025-11-26","sido":"대구광역시","sigungu":"달성군","dong":"가창면"},{"name":"창리마을 공동주차장","type":"공영","category":"노외","address":"대구광역시 달성군 구지면 구지시장길 45","lat":35.657995,"lng":128.411635,"totalSpaces":20,"isFree":true,"operatingDays":"평일+토요일+공휴일","weekdayOpen":"00:00","weekdayClose":"23:59","weekendOpen":"00:00","weekendClose":"23:59","holidayOpen":"00:00","holidayClose":"23:59","feeInfo":"무료","phone":"053-668-3815","updatedAt":"2025-11-26","sido":"대구광역시","sigungu":"달성군","dong":"구지면"},{"name":"논공중앙로 F","type":"공영","category":"노상","address":"대구광역시 달성군 논공읍 북리 1-37","lat":35.731309,"lng":128.453945,"totalSpaces":19,"isFree":true,"operatingDays":"평일+토요일+공휴일","weekdayOpen":"00:00","weekdayClose":"23:59","weekendOpen":"00:00","weekendClose":"23:59","holidayOpen":"00:00","holidayClose":"23:59","feeInfo":"무료","phone":"053-668-3815","updatedAt":"2025-11-26","sido":"대구광역시","sigungu":"달성군","dong":"논공읍"},{"name":"논공로87길 A","type":"공영","category":"노상","address":"대구광역시 달성군 논공읍 본리리 103-23","lat":35.733867,"lng":128.46874,"totalSpaces":19,"isFree":true,"operatingDays":"평일+토요일+공휴일","weekdayOpen":"00:00","weekdayClose":"23:59","weekendOpen":"00:00","weekendClose":"23:59","holidayOpen":"00:00","holidayClose":"23:59","feeInfo":"무료","phone":"053-668-3815","updatedAt":"2025-11-26","sido":"대구광역시","sigungu":"달성군","dong":"논공읍"},{"name":"논공 북리 마을공동주차장","type":"공영","category":"노외","address":"대구광역시 달성군 논공읍 북리 803-173","lat":35.729287,"lng":128.444838,"totalSpaces":19,"isFree":true,"operatingDays":"평일+토요일+공휴일","weekdayOpen":"00:00","weekdayClose":"23:59","weekendOpen":"00:00","weekendClose":"23:59","holidayOpen":"00:00","holidayClose":"23:59","feeInfo":"무료","phone":"053-668-3815","updatedAt":"2025-11-26","sido":"대구광역시","sigungu":"달성군","dong":"논공읍"},{"name":"비슬로532길 A","type":"공영","category":"노상","address":"대구광역시 달성군 화원읍 본리리 3-1","lat":35.806352,"lng":128.506667,"totalSpaces":19,"isFree":true,"operatingDays":"평일+토요일+공휴일","weekdayOpen":"00:00","weekdayClose":"23:59","weekendOpen":"00:00","weekendClose":"23:59","holidayOpen":"00:00","holidayClose":"23:59","feeInfo":"무료","phone":"053-668-3815","updatedAt":"2025-11-26","sido":"대구광역시","sigungu":"달성군","dong":"화원읍"},{"name":"천내우방맨션 북편","type":"공영","category":"노상","address":"대구광역시 달성군 화원읍 천내리 122","lat":35.807139,"lng":128.50086,"totalSpaces":19,"isFree":true,"operatingDays":"평일+토요일+공휴일","weekdayOpen":"00:00","weekdayClose":"23:59","weekendOpen":"00:00","weekendClose":"23:59","holidayOpen":"00:00","holidayClose":"23:59","feeInfo":"무료","phone":"053-668-3815","updatedAt":"2025-11-26","sido":"대구광역시","sigungu":"달성군","dong":"화원읍"},{"name":"한샘타운 인근","type":"공영","category":"노상","address":"대구광역시 달성군 화원읍 천내리 329-2","lat":35.804583,"lng":128.492998,"totalSpaces":19,"isFree":true,"operatingDays":"평일+토요일+공휴일","weekdayOpen":"00:00","weekdayClose":"23:59","weekendOpen":"00:00","weekendClose":"23:59","holidayOpen":"00:00","holidayClose":"23:59","feeInfo":"무료","phone":"053-668-3815","updatedAt":"2025-11-26","sido":"대구광역시","sigungu":"달성군","dong":"화원읍"},{"name":"비슬로134길 B","type":"공영","category":"노상","address":"대구광역시 달성군 현풍읍 부리 504-3","lat":35.696049,"lng":128.443249,"totalSpaces":19,"isFree":true,"operatingDays":"평일+토요일+공휴일","weekdayOpen":"00:00","weekdayClose":"23:59","weekendOpen":"00:00","weekendClose":"23:59","holidayOpen":"00:00","holidayClose":"23:59","feeInfo":"무료","phone":"053-668-3815","updatedAt":"2025-11-26","sido":"대구광역시","sigungu":"달성군","dong":"현풍읍"},{"name":"논공로 D","type":"공영","category":"노상","address":"대구광역시 달성군 논공읍 북리 822-4","lat":35.729843,"lng":128.446975,"totalSpaces":18,"isFree":true,"operatingDays":"평일+토요일+공휴일","weekdayOpen":"00:00","weekdayClose":"23:59","weekendOpen":"00:00","weekendClose":"23:59","holidayOpen":"00:00","holidayClose":"23:59","feeInfo":"무료","phone":"053-668-3815","updatedAt":"2025-11-26","sido":"대구광역시","sigungu":"달성군","dong":"논공읍"},{"name":"논공중앙로45길 C","type":"공영","category":"노상","address":"대구광역시 달성군 논공읍 북리 1-6","lat":35.733862,"lng":128.460053,"totalSpaces":18,"isFree":true,"operatingDays":"평일+토요일+공휴일","weekdayOpen":"00:00","weekdayClose":"23:59","weekendOpen":"00:00","weekendClose":"23:59","holidayOpen":"00:00","holidayClose":"23:59","feeInfo":"무료","phone":"053-668-3815","updatedAt":"2025-11-26","sido":"대구광역시","sigungu":"달성군","dong":"논공읍"},{"name":"현풍상리 마을단위 공영주차장","type":"공영","category":"노외","address":"대구광역시 달성군 현풍읍 상리 531-2","lat":35.699314,"lng":128.446551,"totalSpaces":18,"isFree":true,"operatingDays":"평일+토요일+공휴일","weekdayOpen":"00:00","weekdayClose":"23:59","weekendOpen":"00:00","weekendClose":"23:59","holidayOpen":"00:00","holidayClose":"23:59","feeInfo":"무료","phone":"053-668-3815","updatedAt":"2025-11-26","sido":"대구광역시","sigungu":"달성군","dong":"현풍읍"},{"name":"현풍 원교리 마을공동주차장","type":"공영","category":"노외","address":"대구광역시 달성군 현풍읍 현풍로8길 49-7","lat":35.693502,"lng":128.443355,"totalSpaces":18,"isFree":true,"operatingDays":"평일+토요일+공휴일","weekdayOpen":"00:00","weekdayClose":"23:59","weekendOpen":"00:00","weekendClose":"23:59","holidayOpen":"00:00","holidayClose":"23:59","feeInfo":"무료","phone":"053-668-3815","updatedAt":"2025-11-26","sido":"대구광역시","sigungu":"달성군","dong":"현풍읍"},{"name":"성천로","type":"공영","category":"노상","address":"대구광역시 달성군 화원읍 설화리 553-174","lat":35.799921,"lng":128.488188,"totalSpaces":18,"isFree":true,"operatingDays":"평일+토요일+공휴일","weekdayOpen":"00:00","weekdayClose":"23:59","weekendOpen":"00:00","weekendClose":"23:59","holidayOpen":"00:00","holidayClose":"23:59","feeInfo":"무료","phone":"053-668-3815","updatedAt":"2025-11-26","sido":"대구광역시","sigungu":"달성군","dong":"화원읍"},{"name":"현풍로D","type":"공영","category":"노상","address":"대구광역시 달성군 현풍읍 중리 209-1","lat":35.696326,"lng":128.445215,"totalSpaces":18,"isFree":true,"operatingDays":"평일+토요일+공휴일","weekdayOpen":"00:00","weekdayClose":"23:59","weekendOpen":"00:00","weekendClose":"23:59","holidayOpen":"00:00","holidayClose":"23:59","feeInfo":"무료","phone":"053-668-3815","updatedAt":"2025-11-26","sido":"대구광역시","sigungu":"달성군","dong":"현풍읍"},{"name":"돌미로인근","type":"공영","category":"노상","address":"대구광역시 달성군 옥포읍 교항리 3034","lat":35.781917,"lng":128.442098,"totalSpaces":18,"isFree":true,"operatingDays":"평일+토요일+공휴일","weekdayOpen":"00:00","weekdayClose":"23:59","weekendOpen":"00:00","weekendClose":"23:59","holidayOpen":"00:00","holidayClose":"23:59","feeInfo":"무료","phone":"053-668-3815","updatedAt":"2025-11-26","sido":"대구광역시","sigungu":"달성군","dong":"옥포읍"},{"name":"현풍 상리 공영주차장","type":"공영","category":"노외","address":"대구광역시 달성군 현풍읍 현풍동로21길 45-1","lat":35.697598,"lng":128.448021,"totalSpaces":17,"isFree":true,"operatingDays":"평일+토요일+공휴일","weekdayOpen":"00:00","weekdayClose":"23:59","weekendOpen":"00:00","weekendClose":"23:59","holidayOpen":"00:00","holidayClose":"23:59","feeInfo":"무료","phone":"053-668-3815","updatedAt":"2025-11-26","sido":"대구광역시","sigungu":"달성군","dong":"현풍읍"},{"name":"논공중앙로 B","type":"공영","category":"노상","address":"대구광역시 달성군 논공읍 북리 833-2","lat":35.727778,"lng":128.447576,"totalSpaces":16,"isFree":true,"operatingDays":"평일+토요일+공휴일","weekdayOpen":"00:00","weekdayClose":"23:59","weekendOpen":"00:00","weekendClose":"23:59","holidayOpen":"00:00","holidayClose":"23:59","feeInfo":"무료","phone":"053-668-3815","updatedAt":"2025-11-26","sido":"대구광역시","sigungu":"달성군","dong":"논공읍"},{"name":"비슬로134길 D","type":"공영","category":"노상","address":"대구광역시 달성군 현풍읍 부리 412-1","lat":35.696884,"lng":128.446488,"totalSpaces":16,"isFree":true,"operatingDays":"평일+토요일+공휴일","weekdayOpen":"00:00","weekdayClose":"23:59","weekendOpen":"00:00","weekendClose":"23:59","holidayOpen":"00:00","holidayClose":"23:59","feeInfo":"무료","phone":"053-668-3815","updatedAt":"2025-11-26","sido":"대구광역시","sigungu":"달성군","dong":"현풍읍"},{"name":"논공로 C","type":"공영","category":"노상","address":"대구광역시 달성군 논공읍 북리 900-1","lat":35.728856,"lng":128.443034,"totalSpaces":15,"isFree":true,"operatingDays":"평일+토요일+공휴일","weekdayOpen":"00:00","weekdayClose":"23:59","weekendOpen":"00:00","weekendClose":"23:59","holidayOpen":"00:00","holidayClose":"23:59","feeInfo":"무료","phone":"053-668-3815","updatedAt":"2025-11-26","sido":"대구광역시","sigungu":"달성군","dong":"논공읍"},{"name":"논공로5길 B","type":"공영","category":"노상","address":"대구광역시 달성군 논공읍 북리 803-255","lat":35.729016,"lng":128.442012,"totalSpaces":15,"isFree":true,"operatingDays":"평일+토요일+공휴일","weekdayOpen":"00:00","weekdayClose":"23:59","weekendOpen":"00:00","weekendClose":"23:59","holidayOpen":"00:00","holidayClose":"23:59","feeInfo":"무료","phone":"053-668-3815","updatedAt":"2025-11-26","sido":"대구광역시","sigungu":"달성군","dong":"논공읍"},{"name":"금강로16길 B","type":"공영","category":"노상","address":"대구광역시 달성군 논공읍 금포리 1316-2","lat":35.775117,"lng":128.432643,"totalSpaces":15,"isFree":true,"operatingDays":"평일+토요일+공휴일","weekdayOpen":"00:00","weekdayClose":"23:59","weekendOpen":"00:00","weekendClose":"23:59","holidayOpen":"00:00","holidayClose":"23:59","feeInfo":"무료","phone":"053-668-3815","updatedAt":"2025-11-26","sido":"대구광역시","sigungu":"달성군","dong":"논공읍"},{"name":"논공로5길 A","type":"공영","category":"노상","address":"대구광역시 달성군 논공읍 남리 224-50","lat":35.728025,"lng":128.437925,"totalSpaces":15,"isFree":true,"operatingDays":"평일+토요일+공휴일","weekdayOpen":"00:00","weekdayClose":"23:59","weekendOpen":"00:00","weekendClose":"23:59","holidayOpen":"00:00","holidayClose":"23:59","feeInfo":"무료","phone":"053-668-3815","updatedAt":"2025-11-26","sido":"대구광역시","sigungu":"달성군","dong":"논공읍"},{"name":"과학마을로 B","type":"공영","category":"노상","address":"대구광역시 달성군 구지면 응암리 1220-13","lat":35.65653,"lng":128.41863,"totalSpaces":15,"isFree":true,"operatingDays":"평일+토요일+공휴일","weekdayOpen":"00:00","weekdayClose":"23:59","weekendOpen":"00:00","weekendClose":"23:59","holidayOpen":"00:00","holidayClose":"23:59","feeInfo":"무료","phone":"053-668-3815","updatedAt":"2025-11-26","sido":"대구광역시","sigungu":"달성군","dong":"구지면"},{"name":"유가유곡리공영주차장","type":"공영","category":"노외","address":"대구광역시 달성군 유가읍 유곡리 824-1","lat":35.669955,"lng":128.450599,"totalSpaces":15,"isFree":true,"operatingDays":"평일+토요일+공휴일","weekdayOpen":"00:00","weekdayClose":"23:59","weekendOpen":"00:00","weekendClose":"23:59","holidayOpen":"00:00","holidayClose":"23:59","feeInfo":"무료","phone":"053-668-3815","updatedAt":"2025-11-26","sido":"대구광역시","sigungu":"달성군","dong":"유가읍"},{"name":"구지면 임시 공영주차장 2","type":"공영","category":"노외","address":"대구광역시 달성군 구지면 창리 428-1","lat":35.658124,"lng":128.411383,"totalSpaces":15,"isFree":true,"operatingDays":"평일+토요일+공휴일","weekdayOpen":"00:00","weekdayClose":"23:59","weekendOpen":"00:00","weekendClose":"23:59","holidayOpen":"00:00","holidayClose":"23:59","feeInfo":"무료","phone":"053-668-3815","updatedAt":"2025-11-26","sido":"대구광역시","sigungu":"달성군","dong":"구지면"},{"name":"비슬로134길 C","type":"공영","category":"노상","address":"대구광역시 달성군 현풍읍 부리 437-3","lat":35.696436,"lng":128.444625,"totalSpaces":15,"isFree":true,"operatingDays":"평일+토요일+공휴일","weekdayOpen":"00:00","weekdayClose":"23:59","weekendOpen":"00:00","weekendClose":"23:59","holidayOpen":"00:00","holidayClose":"23:59","feeInfo":"무료","phone":"053-668-3815","updatedAt":"2025-11-26","sido":"대구광역시","sigungu":"달성군","dong":"현풍읍"},{"name":"논공로87길 E","type":"공영","category":"노상","address":"대구광역시 달성군 논공읍 본리리 103-31","lat":35.730587,"lng":128.469675,"totalSpaces":14,"isFree":true,"operatingDays":"평일+토요일+공휴일","weekdayOpen":"00:00","weekdayClose":"23:59","weekendOpen":"00:00","weekendClose":"23:59","holidayOpen":"00:00","holidayClose":"23:59","feeInfo":"무료","phone":"053-668-3815","updatedAt":"2025-11-26","sido":"대구광역시","sigungu":"달성군","dong":"논공읍"},{"name":"현풍 성하리 마을공동주차장","type":"공영","category":"노외","address":"대구광역시 달성군 현풍읍 성하리 321-4","lat":35.700322,"lng":128.435355,"totalSpaces":14,"isFree":true,"operatingDays":"평일+토요일+공휴일","weekdayOpen":"00:00","weekdayClose":"23:59","weekendOpen":"00:00","weekendClose":"23:59","holidayOpen":"00:00","holidayClose":"23:59","feeInfo":"무료","phone":"053-668-3815","updatedAt":"2025-11-26","sido":"대구광역시","sigungu":"달성군","dong":"현풍읍"},{"name":"논공 북리 마을공동주차장","type":"공영","category":"노외","address":"대구광역시 달성군 논공읍 용호로1길 15","lat":35.728378,"lng":128.447085,"totalSpaces":14,"isFree":true,"operatingDays":"평일+토요일+공휴일","weekdayOpen":"00:00","weekdayClose":"23:59","weekendOpen":"00:00","weekendClose":"23:59","holidayOpen":"00:00","holidayClose":"23:59","feeInfo":"무료","phone":"053-668-3815","updatedAt":"2025-11-26","sido":"대구광역시","sigungu":"달성군","dong":"논공읍"},{"name":"유가유곡리 공영주차장","type":"공영","category":"노외","address":"대구광역시 달성군 유가읍 유곡리 1007","lat":35.670873,"lng":128.452184,"totalSpaces":14,"isFree":true,"operatingDays":"평일+토요일+공휴일","weekdayOpen":"00:00","weekdayClose":"23:59","weekendOpen":"00:00","weekendClose":"23:59","holidayOpen":"00:00","holidayClose":"23:59","feeInfo":"무료","phone":"053-668-3815","updatedAt":"2025-11-26","sido":"대구광역시","sigungu":"달성군","dong":"유가읍"},{"name":"창리체육공원주차장","type":"공영","category":"노외","address":"대구광역시 달성군 구지면 창리중앙1길 29","lat":35.660125,"lng":128.408794,"totalSpaces":14,"isFree":true,"operatingDays":"평일+토요일+공휴일","weekdayOpen":"00:00","weekdayClose":"23:59","weekendOpen":"00:00","weekendClose":"23:59","holidayOpen":"00:00","holidayClose":"23:59","feeInfo":"무료","phone":"053-668-3815","updatedAt":"2025-11-26","sido":"대구광역시","sigungu":"달성군","dong":"구지면"},{"name":"논공로7길","type":"공영","category":"노상","address":"대구광역시 달성군 논공읍 남리 224","lat":35.731863,"lng":128.440753,"totalSpaces":13,"isFree":true,"operatingDays":"평일+토요일+공휴일","weekdayOpen":"00:00","weekdayClose":"23:59","weekendOpen":"00:00","weekendClose":"23:59","holidayOpen":"00:00","holidayClose":"23:59","feeInfo":"무료","phone":"053-668-3815","updatedAt":"2025-11-26","sido":"대구광역시","sigungu":"달성군","dong":"논공읍"},{"name":"논공로29길","type":"공영","category":"노상","address":"대구광역시 달성군 논공읍 논공로29길 13","lat":35.731087,"lng":128.447062,"totalSpaces":13,"isFree":true,"operatingDays":"평일+토요일+공휴일","weekdayOpen":"00:00","weekdayClose":"23:59","weekendOpen":"00:00","weekendClose":"23:59","holidayOpen":"00:00","holidayClose":"23:59","feeInfo":"무료","phone":"053-668-3815","updatedAt":"2025-11-26","sido":"대구광역시","sigungu":"달성군","dong":"논공읍"},{"name":"화원로 B","type":"공영","category":"노상","address":"대구광역시 달성군 화원읍 천내리 36-11","lat":35.805914,"lng":128.500028,"totalSpaces":12,"isFree":true,"operatingDays":"평일+토요일+공휴일","weekdayOpen":"00:00","weekdayClose":"23:59","weekendOpen":"00:00","weekendClose":"23:59","holidayOpen":"00:00","holidayClose":"23:59","feeInfo":"무료","phone":"053-668-3815","updatedAt":"2025-11-26","sido":"대구광역시","sigungu":"달성군","dong":"화원읍"},{"name":"매곡로2길 A","type":"공영","category":"노상","address":"대구광역시 달성군 다사읍 매곡리 683","lat":35.864459,"lng":128.45709,"totalSpaces":11,"isFree":true,"operatingDays":"평일+토요일+공휴일","weekdayOpen":"00:00","weekdayClose":"23:59","weekendOpen":"00:00","weekendClose":"23:59","holidayOpen":"00:00","holidayClose":"23:59","feeInfo":"무료","phone":"053-668-3815","updatedAt":"2025-11-26","sido":"대구광역시","sigungu":"달성군","dong":"다사읍"},{"name":"논공로 O","type":"공영","category":"노상","address":"대구광역시 달성군 논공읍 본리리 1189-3","lat":35.733559,"lng":128.453625,"totalSpaces":11,"isFree":true,"operatingDays":"평일+토요일+공휴일","weekdayOpen":"00:00","weekdayClose":"23:59","weekendOpen":"00:00","weekendClose":"23:59","holidayOpen":"00:00","holidayClose":"23:59","feeInfo":"무료","phone":"053-668-3815","updatedAt":"2025-11-26","sido":"대구광역시","sigungu":"달성군","dong":"논공읍"},{"name":"과학마을로 A","type":"공영","category":"노상","address":"대구광역시 달성군 구지면 응암리 1220-1","lat":35.656696,"lng":128.413809,"totalSpaces":11,"isFree":true,"operatingDays":"평일+토요일+공휴일","weekdayOpen":"00:00","weekdayClose":"23:59","weekendOpen":"00:00","weekendClose":"23:59","holidayOpen":"00:00","holidayClose":"23:59","feeInfo":"무료","phone":"053-668-3815","updatedAt":"2025-11-26","sido":"대구광역시","sigungu":"달성군","dong":"구지면"},{"name":"비슬로532길 B","type":"공영","category":"노상","address":"대구광역시 달성군 화원읍 본리리 46-6","lat":35.804348,"lng":128.50795,"totalSpaces":11,"isFree":true,"operatingDays":"평일+토요일+공휴일","weekdayOpen":"00:00","weekdayClose":"23:59","weekendOpen":"00:00","weekendClose":"23:59","holidayOpen":"00:00","holidayClose":"23:59","feeInfo":"무료","phone":"053-668-3815","updatedAt":"2025-11-26","sido":"대구광역시","sigungu":"달성군","dong":"화원읍"},{"name":"옥포로","type":"공영","category":"노상","address":"대구광역시 달성군 옥포읍 기세리 969-26","lat":35.782786,"lng":128.478325,"totalSpaces":11,"isFree":true,"operatingDays":"평일+토요일+공휴일","weekdayOpen":"00:00","weekdayClose":"23:59","weekendOpen":"00:00","weekendClose":"23:59","holidayOpen":"00:00","holidayClose":"23:59","feeInfo":"무료","phone":"053-668-3815","updatedAt":"2025-11-26","sido":"대구광역시","sigungu":"달성군","dong":"옥포읍"},{"name":"논공로91길 F","type":"공영","category":"노상","address":"대구광역시 달성군 논공읍 본리리 29-181","lat":35.731699,"lng":128.475718,"totalSpaces":10,"isFree":true,"operatingDays":"평일+토요일+공휴일","weekdayOpen":"00:00","weekdayClose":"23:59","weekendOpen":"00:00","weekendClose":"23:59","holidayOpen":"00:00","holidayClose":"23:59","feeInfo":"무료","phone":"053-668-3815","updatedAt":"2025-11-26","sido":"대구광역시","sigungu":"달성군","dong":"논공읍"},{"name":"논공로91길 D","type":"공영","category":"노상","address":"대구광역시 달성군 논공읍 본리리 103-31","lat":35.730587,"lng":128.469675,"totalSpaces":10,"isFree":true,"operatingDays":"평일+토요일+공휴일","weekdayOpen":"00:00","weekdayClose":"23:59","weekendOpen":"00:00","weekendClose":"23:59","holidayOpen":"00:00","holidayClose":"23:59","feeInfo":"무료","phone":"053-668-3815","updatedAt":"2025-11-26","sido":"대구광역시","sigungu":"달성군","dong":"논공읍"},{"name":"테크로폴리스중앙공원주차장","type":"공영","category":"노외","address":"대구광역시 달성군 유가읍 봉리 624","lat":35.691414,"lng":128.459587,"totalSpaces":10,"isFree":true,"operatingDays":"평일+토요일+공휴일","weekdayOpen":"00:00","weekdayClose":"23:59","weekendOpen":"00:00","weekendClose":"23:59","holidayOpen":"00:00","holidayClose":"23:59","feeInfo":"무료","phone":"053-668-3815","updatedAt":"2025-11-26","sido":"대구광역시","sigungu":"달성군","dong":"유가읍"},{"name":"현풍충혼탑2주차장","type":"공영","category":"노외","address":"대구광역시 달성군 현풍읍 성하리 467","lat":35.697754,"lng":128.441117,"totalSpaces":10,"isFree":true,"operatingDays":"평일+토요일+공휴일","weekdayOpen":"00:00","weekdayClose":"23:59","weekendOpen":"00:00","weekendClose":"23:59","holidayOpen":"00:00","holidayClose":"23:59","feeInfo":"무료","phone":"053-668-3815","updatedAt":"2025-11-26","sido":"대구광역시","sigungu":"달성군","dong":"현풍읍"},{"name":"현풍신기마을공동주차장","type":"공영","category":"노외","address":"대구광역시 달성군 구지면 92-1","lat":35.656822,"lng":128.401022,"totalSpaces":10,"isFree":true,"operatingDays":"평일+토요일+공휴일","weekdayOpen":"00:00","weekdayClose":"23:59","weekendOpen":"00:00","weekendClose":"23:59","holidayOpen":"00:00","holidayClose":"23:59","feeInfo":"무료","phone":"053-668-3815","updatedAt":"2025-11-26","sido":"대구광역시","sigungu":"달성군","dong":"구지면"},{"name":"하빈 하산리 마을공동주차장","type":"공영","category":"노외","address":"대구광역시 달성군 하빈면 하산리 201-4","lat":35.891424,"lng":128.414908,"totalSpaces":10,"isFree":true,"operatingDays":"평일+토요일+공휴일","weekdayOpen":"00:00","weekdayClose":"23:59","weekendOpen":"00:00","weekendClose":"23:59","holidayOpen":"00:00","holidayClose":"23:59","feeInfo":"무료","phone":"053-668-3815","updatedAt":"2025-11-26","sido":"대구광역시","sigungu":"달성군","dong":"하빈면"},{"name":"현풍로C","type":"공영","category":"노상","address":"대구광역시 달성군 현풍읍 하리 65-2","lat":35.695905,"lng":128.445507,"totalSpaces":10,"isFree":true,"operatingDays":"평일+토요일+공휴일","weekdayOpen":"00:00","weekdayClose":"23:59","weekendOpen":"00:00","weekendClose":"23:59","holidayOpen":"00:00","holidayClose":"23:59","feeInfo":"무료","phone":"053-668-3815","updatedAt":"2025-11-26","sido":"대구광역시","sigungu":"달성군","dong":"현풍읍"},{"name":"명천로","type":"공영","category":"노상","address":"대구광역시 달성군 화원읍 명곡리 223","lat":35.798278,"lng":128.49167,"totalSpaces":10,"isFree":true,"operatingDays":"평일+토요일+공휴일","weekdayOpen":"00:00","weekdayClose":"23:59","weekendOpen":"00:00","weekendClose":"23:59","holidayOpen":"00:00","holidayClose":"23:59","feeInfo":"무료","phone":"053-668-3815","updatedAt":"2025-11-26","sido":"대구광역시","sigungu":"달성군","dong":"화원읍"},{"name":"현풍중앙로","type":"공영","category":"노상","address":"대구광역시 달성군 현풍읍 부리 286-3","lat":35.697659,"lng":128.443469,"totalSpaces":10,"isFree":true,"operatingDays":"평일+토요일+공휴일","weekdayOpen":"00:00","weekdayClose":"23:59","weekendOpen":"00:00","weekendClose":"23:59","holidayOpen":"00:00","holidayClose":"23:59","feeInfo":"무료","phone":"053-668-3815","updatedAt":"2025-11-26","sido":"대구광역시","sigungu":"달성군","dong":"현풍읍"},{"name":"옥포 교항리 마을공동주차장","type":"공영","category":"노외","address":"대구광역시 달성군 옥포읍 교항리 2841-44","lat":35.781398,"lng":128.452815,"totalSpaces":9,"isFree":true,"operatingDays":"평일+토요일+공휴일","weekdayOpen":"00:00","weekdayClose":"23:59","weekendOpen":"00:00","weekendClose":"23:59","holidayOpen":"00:00","holidayClose":"23:59","feeInfo":"무료","phone":"053-668-3815","updatedAt":"2025-11-26","sido":"대구광역시","sigungu":"달성군","dong":"옥포읍"},{"name":"화원로 A","type":"공영","category":"노상","address":"대구광역시 달성군 화원읍 천내리 124-2","lat":35.807044,"lng":128.499045,"totalSpaces":9,"isFree":true,"operatingDays":"평일+토요일+공휴일","weekdayOpen":"00:00","weekdayClose":"23:59","weekendOpen":"00:00","weekendClose":"23:59","holidayOpen":"00:00","holidayClose":"23:59","feeInfo":"무료","phone":"053-668-3815","updatedAt":"2025-11-26","sido":"대구광역시","sigungu":"달성군","dong":"화원읍"},{"name":"현풍동로19길","type":"공영","category":"노상","address":"대구광역시 달성군 현풍읍 부리 350-12","lat":35.698665,"lng":128.447993,"totalSpaces":9,"isFree":true,"operatingDays":"평일+토요일+공휴일","weekdayOpen":"00:00","weekdayClose":"23:59","weekendOpen":"00:00","weekendClose":"23:59","holidayOpen":"00:00","holidayClose":"23:59","feeInfo":"무료","phone":"053-668-3815","updatedAt":"2025-11-26","sido":"대구광역시","sigungu":"달성군","dong":"현풍읍"},{"name":"현풍로E","type":"공영","category":"노상","address":"대구광역시 달성군 현풍읍 중리 116","lat":35.696322,"lng":128.449803,"totalSpaces":9,"isFree":true,"operatingDays":"평일+토요일+공휴일","weekdayOpen":"00:00","weekdayClose":"23:59","weekendOpen":"00:00","weekendClose":"23:59","holidayOpen":"00:00","holidayClose":"23:59","feeInfo":"무료","phone":"053-668-3815","updatedAt":"2025-11-26","sido":"대구광역시","sigungu":"달성군","dong":"현풍읍"},{"name":"논공 노이리 마을공동주차장","type":"공영","category":"노외","address":"대구광역시 달성군 논공읍 노이리 1217","lat":35.763537,"lng":128.427865,"totalSpaces":8,"isFree":true,"operatingDays":"평일+토요일+공휴일","weekdayOpen":"00:00","weekdayClose":"23:59","weekendOpen":"00:00","weekendClose":"23:59","holidayOpen":"00:00","holidayClose":"23:59","feeInfo":"무료","phone":"053-668-3815","updatedAt":"2025-11-26","sido":"대구광역시","sigungu":"달성군","dong":"논공읍"},{"name":"논공로91길 E","type":"공영","category":"노상","address":"대구광역시 달성군 논공읍 논공로91길 54-22","lat":35.730732,"lng":128.471311,"totalSpaces":7,"isFree":true,"operatingDays":"평일+토요일+공휴일","weekdayOpen":"00:00","weekdayClose":"23:59","weekendOpen":"00:00","weekendClose":"23:59","holidayOpen":"00:00","holidayClose":"23:59","feeInfo":"무료","phone":"053-668-3815","updatedAt":"2025-11-26","sido":"대구광역시","sigungu":"달성군","dong":"논공읍"},{"name":"상리 근린공원","type":"공영","category":"노외","address":"대구광역시 달성군 현풍읍 상리 631","lat":35.698882,"lng":128.451977,"totalSpaces":7,"isFree":true,"operatingDays":"평일+토요일+공휴일","weekdayOpen":"00:00","weekdayClose":"23:59","weekendOpen":"00:00","weekendClose":"23:59","holidayOpen":"00:00","holidayClose":"23:59","feeInfo":"무료","phone":"053-668-3815","updatedAt":"2025-11-26","sido":"대구광역시","sigungu":"달성군","dong":"현풍읍"},{"name":"하빈 무등리 공영주차장","type":"공영","category":"노외","address":"대구광역시 달성군 하빈면 무등리 530-1","lat":35.91901,"lng":128.464375,"totalSpaces":7,"isFree":true,"operatingDays":"평일+토요일+공휴일","weekdayOpen":"00:00","weekdayClose":"23:59","weekendOpen":"00:00","weekendClose":"23:59","holidayOpen":"00:00","holidayClose":"23:59","feeInfo":"무료","phone":"053-668-3815","updatedAt":"2025-11-26","sido":"대구광역시","sigungu":"달성군","dong":"하빈면"},{"name":"하빈 대평리 마을공동주차장","type":"공영","category":"노외","address":"대구광역시 달성군 하빈면 하빈로180길 13","lat":35.936378,"lng":128.468838,"totalSpaces":7,"isFree":true,"operatingDays":"평일+토요일+공휴일","weekdayOpen":"00:00","weekdayClose":"23:59","weekendOpen":"00:00","weekendClose":"23:59","holidayOpen":"00:00","holidayClose":"23:59","feeInfo":"무료","phone":"053-668-3815","updatedAt":"2025-11-26","sido":"대구광역시","sigungu":"달성군","dong":"하빈면"},{"name":"화암로 D","type":"공영","category":"노상","address":"대구광역시 달성군 화원읍 명곡리 145","lat":35.798124,"lng":128.497742,"totalSpaces":7,"isFree":true,"operatingDays":"평일+토요일+공휴일","weekdayOpen":"00:00","weekdayClose":"23:59","weekendOpen":"00:00","weekendClose":"23:59","holidayOpen":"00:00","holidayClose":"23:59","feeInfo":"무료","phone":"053-668-3815","updatedAt":"2025-11-26","sido":"대구광역시","sigungu":"달성군","dong":"화원읍"},{"name":"달구벌대로174길","type":"공영","category":"노상","address":"대구광역시 달성군 다사읍 죽곡리 120-1","lat":35.858495,"lng":128.46321,"totalSpaces":7,"isFree":true,"operatingDays":"평일+토요일+공휴일","weekdayOpen":"00:00","weekdayClose":"23:59","weekendOpen":"00:00","weekendClose":"23:59","holidayOpen":"00:00","holidayClose":"23:59","feeInfo":"무료","phone":"053-668-3815","updatedAt":"2025-11-26","sido":"대구광역시","sigungu":"달성군","dong":"다사읍"},{"name":"문양역길 C","type":"공영","category":"노상","address":"대구광역시 달성군 다사읍 문양리 1069-14","lat":35.863597,"lng":128.437748,"totalSpaces":6,"isFree":true,"operatingDays":"평일+토요일+공휴일","weekdayOpen":"00:00","weekdayClose":"23:59","weekendOpen":"00:00","weekendClose":"23:59","holidayOpen":"00:00","holidayClose":"23:59","feeInfo":"무료","phone":"053-668-3815","updatedAt":"2025-11-26","sido":"대구광역시","sigungu":"달성군","dong":"다사읍"},{"name":"논공로5길 C","type":"공영","category":"노상","address":"대구광역시 달성군 논공읍 북리 803-219","lat":35.731058,"lng":128.447383,"totalSpaces":6,"isFree":true,"operatingDays":"평일+토요일+공휴일","weekdayOpen":"00:00","weekdayClose":"23:59","weekendOpen":"00:00","weekendClose":"23:59","holidayOpen":"00:00","holidayClose":"23:59","feeInfo":"무료","phone":"053-668-3815","updatedAt":"2025-11-26","sido":"대구광역시","sigungu":"달성군","dong":"논공읍"},{"name":"현풍로B","type":"공영","category":"노상","address":"대구광역시 달성군 현풍읍 하리 79-5","lat":35.695287,"lng":128.443455,"totalSpaces":6,"isFree":true,"operatingDays":"평일+토요일+공휴일","weekdayOpen":"00:00","weekdayClose":"23:59","weekendOpen":"00:00","weekendClose":"23:59","holidayOpen":"00:00","holidayClose":"23:59","feeInfo":"무료","phone":"053-668-3815","updatedAt":"2025-11-26","sido":"대구광역시","sigungu":"달성군","dong":"현풍읍"},{"name":"국가산단 2호 근린공원","type":"공영","category":"노외","address":"대구광역시 달성군 구지면 응암리 1232","lat":35.652549,"lng":128.410718,"totalSpaces":5,"isFree":true,"operatingDays":"평일+토요일+공휴일","weekdayOpen":"00:00","weekdayClose":"23:59","weekendOpen":"00:00","weekendClose":"23:59","holidayOpen":"00:00","holidayClose":"23:59","feeInfo":"무료","phone":"053-668-3815","updatedAt":"2025-11-26","sido":"대구광역시","sigungu":"달성군","dong":"구지면"},{"name":"성화로","type":"공영","category":"노상","address":"대구광역시 달성군 화원읍 명곡리 304","lat":35.800728,"lng":128.491926,"totalSpaces":5,"isFree":true,"operatingDays":"평일+토요일+공휴일","weekdayOpen":"00:00","weekdayClose":"23:59","weekendOpen":"00:00","weekendClose":"23:59","holidayOpen":"00:00","holidayClose":"23:59","feeInfo":"무료","phone":"053-668-3815","updatedAt":"2025-11-26","sido":"대구광역시","sigungu":"달성군","dong":"화원읍"},{"name":"논공로15길","type":"공영","category":"노상","address":"대구광역시 달성군 논공읍 남리 1141-8","lat":35.728873,"lng":128.441561,"totalSpaces":4,"isFree":true,"operatingDays":"평일+토요일+공휴일","weekdayOpen":"00:00","weekdayClose":"23:59","weekendOpen":"00:00","weekendClose":"23:59","holidayOpen":"00:00","holidayClose":"23:59","feeInfo":"무료","phone":"053-668-3815","updatedAt":"2025-11-26","sido":"대구광역시","sigungu":"달성군","dong":"논공읍"},{"name":"창리새담길","type":"공영","category":"노상","address":"대구광역시 달성군 구지면 창리 361-1","lat":35.661656,"lng":128.410141,"totalSpaces":4,"isFree":true,"operatingDays":"평일+토요일+공휴일","weekdayOpen":"00:00","weekdayClose":"23:59","weekendOpen":"00:00","weekendClose":"23:59","holidayOpen":"00:00","holidayClose":"23:59","feeInfo":"무료","phone":"053-668-3815","updatedAt":"2025-11-26","sido":"대구광역시","sigungu":"달성군","dong":"구지면"},{"name":"상리2길","type":"공영","category":"노상","address":"대구광역시 달성군 현풍읍 상리 563","lat":35.698853,"lng":128.449099,"totalSpaces":4,"isFree":true,"operatingDays":"평일+토요일+공휴일","weekdayOpen":"00:00","weekdayClose":"23:59","weekendOpen":"00:00","weekendClose":"23:59","holidayOpen":"00:00","holidayClose":"23:59","feeInfo":"무료","phone":"053-668-3815","updatedAt":"2025-11-26","sido":"대구광역시","sigungu":"달성군","dong":"현풍읍"},{"name":"옥계2길","type":"공영","category":"노상","address":"대구광역시 달성군 옥포읍 본리리 1091","lat":35.794934,"lng":128.457118,"totalSpaces":4,"isFree":true,"operatingDays":"평일+토요일+공휴일","weekdayOpen":"00:00","weekdayClose":"23:59","weekendOpen":"00:00","weekendClose":"23:59","holidayOpen":"00:00","holidayClose":"23:59","feeInfo":"무료","phone":"053-668-3815","updatedAt":"2025-11-26","sido":"대구광역시","sigungu":"달성군","dong":"옥포읍"},{"name":"유가북길","type":"공영","category":"노상","address":"대구광역시 달성군 유가읍 쌍계리 205-1","lat":35.699848,"lng":128.462597,"totalSpaces":4,"isFree":true,"operatingDays":"평일+토요일+공휴일","weekdayOpen":"00:00","weekdayClose":"23:59","weekendOpen":"00:00","weekendClose":"23:59","holidayOpen":"00:00","holidayClose":"23:59","feeInfo":"무료","phone":"053-668-3815","updatedAt":"2025-11-26","sido":"대구광역시","sigungu":"달성군","dong":"유가읍"},{"name":"비슬로262길","type":"공영","category":"노상","address":"대구광역시 달성군 논공읍 상리 716","lat":35.749049,"lng":128.414062,"totalSpaces":3,"isFree":true,"operatingDays":"평일+토요일+공휴일","weekdayOpen":"00:00","weekdayClose":"23:59","weekendOpen":"00:00","weekendClose":"23:59","holidayOpen":"00:00","holidayClose":"23:59","feeInfo":"무료","phone":"053-668-3815","updatedAt":"2025-11-26","sido":"대구광역시","sigungu":"달성군","dong":"논공읍"},{"name":"구지 수리리 마을공동주차장","type":"공영","category":"노외","address":"대구광역시 달성군 구지면 수리리 99-1","lat":35.672246,"lng":128.395605,"totalSpaces":3,"isFree":true,"operatingDays":"평일+토요일+공휴일","weekdayOpen":"00:00","weekdayClose":"23:59","weekendOpen":"00:00","weekendClose":"23:59","holidayOpen":"00:00","holidayClose":"23:59","feeInfo":"무료","phone":"053-668-3815","updatedAt":"2025-11-26","sido":"대구광역시","sigungu":"달성군","dong":"구지면"},{"name":"용금공단길","type":"공영","category":"노상","address":"대구광역시 달성군 유가읍 금리 597","lat":35.678905,"lng":128.465571,"totalSpaces":3,"isFree":true,"operatingDays":"평일+토요일+공휴일","weekdayOpen":"00:00","weekdayClose":"23:59","weekendOpen":"00:00","weekendClose":"23:59","holidayOpen":"00:00","holidayClose":"23:59","feeInfo":"무료","phone":"053-668-3815","updatedAt":"2025-11-26","sido":"대구광역시","sigungu":"달성군","dong":"유가읍"}]}