{"sido":"대구광역시","sigungu":"달서구","totalCount":129,"validCount":129,"items":[{"name":"청소년수련관공영주차장","type":"공영","category":"노외","address":"대구광역시 달서구 상화로 406 (상인동)","lat":35.80788735,"lng":128.5582315,"totalSpaces":195,"isFree":true,"operatingDays":"평일+토요일+공휴일","weekdayOpen":"00:00","weekdayClose":"23:59","weekendOpen":"00:00","weekendClose":"23:59","holidayOpen":"00:00","holidayClose":"23:59","feeInfo":"무료","phone":"053-667-3092","updatedAt":"2025-11-10","sido":"대구광역시","sigungu":"달서구","dong":"상인동"},{"name":"월광1주차장","type":"공영","category":"노외","address":"대구광역시 달서구 도원동 928","lat":35.79890889,"lng":128.5490603,"totalSpaces":169,"isFree":true,"operatingDays":"평일+토요일+공휴일","weekdayOpen":"00:00","weekdayClose":"23:59","weekendOpen":"00:00","weekendClose":"23:59","holidayOpen":"00:00","holidayClose":"23:59","feeInfo":"무료","phone":"053-667-3094","updatedAt":"2025-11-10","sido":"대구광역시","sigungu":"달서구","dong":"도원동"},{"name":"월곡로20길인근","type":"공영","category":"노상","address":"대구광역시 달서구 상화로 380","lat":35.80737863,"lng":128.5559509,"totalSpaces":132,"isFree":true,"operatingDays":"평일+토요일+공휴일","weekdayOpen":"00:00","weekdayClose":"23:59","weekendOpen":"00:00","weekendClose":"23:59","holidayOpen":"00:00","holidayClose":"23:59","feeInfo":"무료","phone":"053-667-3094","updatedAt":"2025-11-10","sido":"대구광역시","sigungu":"달서구","dong":"상인동"},{"name":"성서로5길인근","type":"공영","category":"노상","address":"대구광역시 달서구 성서로5길 32","lat":35.82221803,"lng":128.5025227,"totalSpaces":110,"isFree":true,"operatingDays":"평일+토요일+공휴일","weekdayOpen":"00:00","weekdayClose":"23:59","weekendOpen":"00:00","weekendClose":"23:59","holidayOpen":"00:00","holidayClose":"23:59","feeInfo":"무료","phone":"053-667-3094","updatedAt":"2025-11-10","sido":"대구광역시","sigungu":"달서구","dong":"대천동"},{"name":"학산북주차장","type":"공영","category":"노외","address":"대구광역시 달서구 본동 산 32-4","lat":35.83335457,"lng":128.5428246,"totalSpaces":110,"isFree":true,"operatingDays":"평일+토요일+공휴일","weekdayOpen":"00:00","weekdayClose":"23:59","weekendOpen":"00:00","weekendClose":"23:59","holidayOpen":"00:00","holidayClose":"23:59","feeInfo":"무료","phone":"053-667-3632","updatedAt":"2025-11-10","sido":"대구광역시","sigungu":"달서구","dong":"본동"},{"name":"달서별빛캠프","type":"공영","category":"노외","address":"대구광역시 달서구 앞산순환로 248","lat":35.82324257,"lng":128.5570444,"totalSpaces":105,"isFree":true,"operatingDays":"평일+토요일+공휴일","weekdayOpen":"00:00","weekdayClose":"23:59","weekendOpen":"00:00","weekendClose":"23:59","holidayOpen":"00:00","holidayClose":"23:59","feeInfo":"무료","phone":"053-667-3632","updatedAt":"2025-11-10","sido":"대구광역시","sigungu":"달서구","dong":"송현동"},{"name":"장기근린공원(웃는얼굴 아트센터 북편) 주차장","type":"공영","category":"노외","address":"대구광역시 달서구 문화회관4길 22-7","lat":35.84404077,"lng":128.5219984,"totalSpaces":103,"isFree":true,"operatingDays":"평일+토요일+공휴일","weekdayOpen":"00:00","weekdayClose":"23:59","weekendOpen":"00:00","weekendClose":"23:59","holidayOpen":"00:00","holidayClose":"23:59","feeInfo":"무료","phone":"053-667-2857","updatedAt":"2025-11-10","sido":"대구광역시","sigungu":"달서구","dong":"장기동"},{"name":"큰골주차장","type":"공영","category":"노외","address":"대구광역시 달서구 대곡동 877","lat":35.79279343,"lng":128.5298917,"totalSpaces":90,"isFree":true,"operatingDays":"평일+토요일+공휴일","weekdayOpen":"00:00","weekdayClose":"23:59","weekendOpen":"00:00","weekendClose":"23:59","holidayOpen":"00:00","holidayClose":"23:59","feeInfo":"무료","phone":"053-667-3092","updatedAt":"2025-11-10","sido":"대구광역시","sigungu":"달서구","dong":"대곡동"},{"name":"수밭근린공원주차장","type":"공영","category":"노외","address":"대구광역시 달서구 도원동 885-2","lat":35.79944694,"lng":128.5495457,"totalSpaces":86,"isFree":true,"operatingDays":"평일+토요일+공휴일","weekdayOpen":"00:00","weekdayClose":"23:59","weekendOpen":"00:00","weekendClose":"23:59","holidayOpen":"00:00","holidayClose":"23:59","feeInfo":"무료","phone":"053-667-3632","updatedAt":"2025-11-10","sido":"대구광역시","sigungu":"달서구","dong":"도원동"},{"name":"성서공단로58길인근","type":"공영","category":"노상","address":"대구광역시 달서구 성서공단로58길 30","lat":35.8331546,"lng":128.5135098,"totalSpaces":80,"isFree":true,"operatingDays":"평일+토요일+공휴일","weekdayOpen":"00:00","weekdayClose":"23:59","weekendOpen":"00:00","weekendClose":"23:59","holidayOpen":"00:00","holidayClose":"23:59","feeInfo":"무료","phone":"053-667-3094","updatedAt":"2025-11-10","sido":"대구광역시","sigungu":"달서구","dong":"월암동"},{"name":"성서로36길인근2","type":"공영","category":"노상","address":"대구광역시 달서구 성서로36길 92","lat":35.83159757,"lng":128.5169903,"totalSpaces":80,"isFree":true,"operatingDays":"평일+토요일+공휴일","weekdayOpen":"00:00","weekdayClose":"23:59","weekendOpen":"00:00","weekendClose":"23:59","holidayOpen":"00:00","holidayClose":"23:59","feeInfo":"무료","phone":"053-667-3094","updatedAt":"2025-11-10","sido":"대구광역시","sigungu":"달서구","dong":"월암동"},{"name":"월광2주차장","type":"공영","category":"노외","address":"대구광역시 달서구 도원동 1083","lat":35.7969951,"lng":128.5471965,"totalSpaces":79,"isFree":true,"operatingDays":"평일+토요일+공휴일","weekdayOpen":"00:00","weekdayClose":"23:59","weekendOpen":"00:00","weekendClose":"23:59","holidayOpen":"00:00","holidayClose":"23:59","feeInfo":"무료","phone":"053-667-3092","updatedAt":"2025-11-10","sido":"대구광역시","sigungu":"달서구","dong":"도원동"},{"name":"학산공원주차장","type":"공영","category":"노외","address":"대구광역시 달서구 본동 1117","lat":35.83257419,"lng":128.5386697,"totalSpaces":73,"isFree":true,"operatingDays":"평일+토요일+공휴일","weekdayOpen":"00:00","weekdayClose":"23:59","weekendOpen":"00:00","weekendClose":"23:59","holidayOpen":"00:00","holidayClose":"23:59","feeInfo":"무료","phone":"053-667-3632","updatedAt":"2025-11-10","sido":"대구광역시","sigungu":"달서구","dong":"본동"},{"name":"월배체육공원","type":"공영","category":"노외","address":"대구광역시 달서구 갈밭남로 76","lat":35.80159607,"lng":128.536496,"totalSpaces":72,"isFree":true,"operatingDays":"평일+토요일+공휴일","weekdayOpen":"00:00","weekdayClose":"23:59","weekendOpen":"00:00","weekendClose":"23:59","holidayOpen":"00:00","holidayClose":"23:59","feeInfo":"무료","phone":"053-667-3632","updatedAt":"2025-11-10","sido":"대구광역시","sigungu":"달서구","dong":"도원동"},{"name":"성서로36길인근1","type":"공영","category":"노상","address":"대구광역시 달서구 성서로36길 35","lat":35.83345015,"lng":128.5114139,"totalSpaces":65,"isFree":true,"operatingDays":"평일+토요일+공휴일","weekdayOpen":"00:00","weekdayClose":"23:59","weekendOpen":"00:00","weekendClose":"23:59","holidayOpen":"00:00","holidayClose":"23:59","feeInfo":"무료","phone":"053-667-3094","updatedAt":"2025-11-10","sido":"대구광역시","sigungu":"달서구","dong":"월암동"},{"name":"월광3주차장","type":"공영","category":"노외","address":"대구광역시 달서구 도원동 977-2","lat":35.79690469,"lng":128.5498403,"totalSpaces":65,"isFree":true,"operatingDays":"평일+토요일+공휴일","weekdayOpen":"00:00","weekdayClose":"23:59","weekendOpen":"00:00","weekendClose":"23:59","holidayOpen":"00:00","holidayClose":"23:59","feeInfo":"무료","phone":"053-667-3094","updatedAt":"2025-11-10","sido":"대구광역시","sigungu":"달서구","dong":"도원동"},{"name":"배실공원주차장","type":"공영","category":"노외","address":"대구광역시 달서구 이곡동 산42","lat":35.86297292,"lng":128.507685,"totalSpaces":64,"isFree":true,"operatingDays":"평일+토요일+공휴일","weekdayOpen":"00:00","weekdayClose":"23:59","weekendOpen":"00:00","weekendClose":"23:59","holidayOpen":"00:00","holidayClose":"23:59","feeInfo":"무료","phone":"053-667-3092","updatedAt":"2025-11-10","sido":"대구광역시","sigungu":"달서구","dong":"이곡동"},{"name":"두류3동 임시공영주차장","type":"공영","category":"노외","address":"대구광역시 달서구 당산로 176","lat":35.85000591,"lng":128.5501247,"totalSpaces":62,"isFree":true,"operatingDays":"평일+토요일+공휴일","weekdayOpen":"00:00","weekdayClose":"23:59","weekendOpen":"00:00","weekendClose":"23:59","holidayOpen":"00:00","holidayClose":"23:59","feeInfo":"무료","phone":"053-667-3094","updatedAt":"2025-11-10","sido":"대구광역시","sigungu":"달서구","dong":"두류동"},{"name":"상원공영주차장","type":"공영","category":"노외","address":"대구광역시 달서구 상인동 1584-1","lat":35.80858172,"lng":128.5505308,"totalSpaces":62,"isFree":true,"operatingDays":"평일+토요일+공휴일","weekdayOpen":"00:00","weekdayClose":"23:59","weekendOpen":"00:00","weekendClose":"23:59","holidayOpen":"00:00","holidayClose":"23:59","feeInfo":"무료","phone":"053-667-3092","updatedAt":"2025-11-10","sido":"대구광역시","sigungu":"달서구","dong":"상인동"},{"name":"성서공단로54길인근","type":"공영","category":"노상","address":"대구광역시 달서구 성서공단로54길 42","lat":35.83212584,"lng":128.5112683,"totalSpaces":60,"isFree":true,"operatingDays":"평일+토요일+공휴일","weekdayOpen":"00:00","weekdayClose":"23:59","weekendOpen":"00:00","weekendClose":"23:59","holidayOpen":"00:00","holidayClose":"23:59","feeInfo":"무료","phone":"053-667-3094","updatedAt":"2025-11-10","sido":"대구광역시","sigungu":"달서구","dong":"월암동"},{"name":"조암로6길인근","type":"공영","category":"노상","address":"대구광역시 달서구 조암로6길 55","lat":35.828571996,"lng":128.5217031963,"totalSpaces":60,"isFree":true,"operatingDays":"평일+토요일+공휴일","weekdayOpen":"00:00","weekdayClose":"23:59","weekendOpen":"00:00","weekendClose":"23:59","holidayOpen":"00:00","holidayClose":"23:59","feeInfo":"무료","phone":"053-667-3094","updatedAt":"2025-11-10","sido":"대구광역시","sigungu":"달서구","dong":"월성동"},{"name":"월곡공영주차장","type":"공영","category":"노외","address":"대구광역시 달서구 상인동 899","lat":35.81845885,"lng":128.5468925,"totalSpaces":59,"isFree":true,"operatingDays":"평일+토요일+공휴일","weekdayOpen":"00:00","weekdayClose":"23:59","weekendOpen":"00:00","weekendClose":"23:59","holidayOpen":"00:00","holidayClose":"23:59","feeInfo":"무료","phone":"053-667-3092","updatedAt":"2025-11-10","sido":"대구광역시","sigungu":"달서구","dong":"상인동"},{"name":"월광5주차장","type":"공영","category":"노외","address":"대구광역시 달서구 도원동 1176-1","lat":35.79457122,"lng":128.5492101,"totalSpaces":54,"isFree":true,"operatingDays":"평일+토요일+공휴일","weekdayOpen":"00:00","weekdayClose":"23:59","weekendOpen":"00:00","weekendClose":"23:59","holidayOpen":"00:00","holidayClose":"23:59","feeInfo":"무료","phone":"053-667-3094","updatedAt":"2025-11-10","sido":"대구광역시","sigungu":"달서구","dong":"도원동"},{"name":"송현근린공원 주차장","type":"공영","category":"노외","address":"대구광역시 달서구 중흥로3길 24","lat":35.8335672,"lng":128.5560984,"totalSpaces":50,"isFree":true,"operatingDays":"평일+토요일+공휴일","weekdayOpen":"00:00","weekdayClose":"23:59","weekendOpen":"00:00","weekendClose":"23:59","holidayOpen":"00:00","holidayClose":"23:59","feeInfo":"무료","phone":"053-667-3632","updatedAt":"2025-11-10","sido":"대구광역시","sigungu":"달서구","dong":"송현동"},{"name":"달비공원 공영주차장","type":"공영","category":"노외","address":"대구광역시 달서구 상인동 1594","lat":35.80778875,"lng":128.5596393,"totalSpaces":47,"isFree":true,"operatingDays":"평일+토요일+공휴일","weekdayOpen":"00:00","weekdayClose":"23:59","weekendOpen":"00:00","weekendClose":"23:59","holidayOpen":"00:00","holidayClose":"23:59","feeInfo":"무료","phone":"053-667-3092","updatedAt":"2025-11-10","sido":"대구광역시","sigungu":"달서구","dong":"상인동"},{"name":"진천환승 공영 주차장","type":"공영","category":"노외","address":"대구광역시 달서구 진천동 626-31","lat":35.81200522,"lng":128.52279,"totalSpaces":45,"isFree":true,"operatingDays":"평일+토요일+공휴일","weekdayOpen":"00:00","weekdayClose":"23:59","weekendOpen":"00:00","weekendClose":"23:59","holidayOpen":"00:00","holidayClose":"23:59","feeInfo":"무료","phone":"053-667-3092","updatedAt":"2025-11-10","sido":"대구광역시","sigungu":"달서구","dong":"진천동"},{"name":"성서로35길 인근","type":"공영","category":"노상","address":"대구광역시 달서구 성서로35길 32","lat":35.83338021,"lng":128.5035061,"totalSpaces":45,"isFree":true,"operatingDays":"평일+토요일+공휴일","weekdayOpen":"00:00","weekdayClose":"23:59","weekendOpen":"00:00","weekendClose":"23:59","holidayOpen":"00:00","holidayClose":"23:59","feeInfo":"무료","phone":"053-667-3094","updatedAt":"2025-11-10","sido":"대구광역시","sigungu":"달서구","dong":"월암동"},{"name":"구마로39길인근","type":"공영","category":"노상","address":"대구광역시 달서구 구마로39길 88","lat":35.8412959,"lng":128.549098,"totalSpaces":45,"isFree":true,"operatingDays":"평일+토요일+공휴일","weekdayOpen":"00:00","weekdayClose":"23:59","weekendOpen":"00:00","weekendClose":"23:59","holidayOpen":"00:00","holidayClose":"23:59","feeInfo":"무료","phone":"053-667-3094","updatedAt":"2025-11-10","sido":"대구광역시","sigungu":"달서구","dong":"성당동"},{"name":"송현2동 공영주차장","type":"공영","category":"노외","address":"대구광역시 달서구 송현동 496-1","lat":35.83221837,"lng":128.5475773,"totalSpaces":42,"isFree":true,"operatingDays":"평일+토요일+공휴일","weekdayOpen":"00:00","weekdayClose":"23:59","weekendOpen":"00:00","weekendClose":"23:59","holidayOpen":"00:00","holidayClose":"23:59","feeInfo":"무료","phone":"053-667-3092","updatedAt":"2025-11-10","sido":"대구광역시","sigungu":"달서구","dong":"송현동"},{"name":"두류1.2동1 공영 주차장","type":"공영","category":"노외","address":"대구광역시 달서구 두류동 1252-4","lat":35.85575772,"lng":128.569573,"totalSpaces":40,"isFree":true,"operatingDays":"평일+토요일+공휴일","weekdayOpen":"00:00","weekdayClose":"23:59","weekendOpen":"00:00","weekendClose":"23:59","holidayOpen":"00:00","holidayClose":"23:59","feeInfo":"무료","phone":"053-667-3094","updatedAt":"2025-11-10","sido":"대구광역시","sigungu":"달서구","dong":"두류동"},{"name":"성서공단로19길인근2","type":"공영","category":"노상","address":"대구광역시 달서구 성서서로19길 18","lat":35.83368572,"lng":128.4980506,"totalSpaces":40,"isFree":true,"operatingDays":"평일+토요일+공휴일","weekdayOpen":"00:00","weekdayClose":"23:59","weekendOpen":"00:00","weekendClose":"23:59","holidayOpen":"00:00","holidayClose":"23:59","feeInfo":"무료","phone":"053-667-3094","updatedAt":"2025-11-10","sido":"대구광역시","sigungu":"달서구","dong":"월암동"},{"name":"호산동로1길인근","type":"공영","category":"노상","address":"대구광역시 달서구 달서대로85길 100","lat":35.83826171,"lng":128.4806615,"totalSpaces":40,"isFree":true,"operatingDays":"평일+토요일+공휴일","weekdayOpen":"00:00","weekdayClose":"23:59","weekendOpen":"00:00","weekendClose":"23:59","holidayOpen":"00:00","holidayClose":"23:59","feeInfo":"무료","phone":"053-667-3094","updatedAt":"2025-11-10","sido":"대구광역시","sigungu":"달서구","dong":"호림동"},{"name":"두류쉼터 주차장","type":"공영","category":"노외","address":"대구광역시 달서구 두류남3길 22","lat":35.85665431,"lng":128.5724581,"totalSpaces":40,"isFree":true,"operatingDays":"평일+토요일+공휴일","weekdayOpen":"00:00","weekdayClose":"23:59","weekendOpen":"00:00","weekendClose":"23:59","holidayOpen":"00:00","holidayClose":"23:59","feeInfo":"무료","phone":"053-667-3094","updatedAt":"2025-11-10","sido":"대구광역시","sigungu":"달서구","dong":"두류동"},{"name":"상호림 공원","type":"공영","category":"노외","address":"대구광역시 달서구 호림동 1-6","lat":35.8374169,"lng":128.4798393,"totalSpaces":38,"isFree":true,"operatingDays":"평일+토요일+공휴일","weekdayOpen":"00:00","weekdayClose":"23:59","weekendOpen":"00:00","weekendClose":"23:59","holidayOpen":"00:00","holidayClose":"23:59","feeInfo":"무료","phone":"053-667-2857","updatedAt":"2025-11-10","sido":"대구광역시","sigungu":"달서구","dong":"호림동"},{"name":"월곡로45길인근","type":"공영","category":"노상","address":"대구광역시 달서구 월곡로45길 72","lat":35.81285253,"lng":128.5381687,"totalSpaces":36,"isFree":true,"operatingDays":"평일+토요일+공휴일","weekdayOpen":"00:00","weekdayClose":"23:59","weekendOpen":"00:00","weekendClose":"23:59","holidayOpen":"00:00","holidayClose":"23:59","feeInfo":"무료","phone":"053-667-3094","updatedAt":"2025-11-10","sido":"대구광역시","sigungu":"달서구","dong":"상인동"},{"name":"죽전2공영주차장","type":"공영","category":"노외","address":"대구광역시 달서구 죽전동 367","lat":35.85765973,"lng":128.5363154,"totalSpaces":35,"isFree":true,"operatingDays":"평일+토요일+공휴일","weekdayOpen":"00:00","weekdayClose":"23:59","weekendOpen":"00:00","weekendClose":"23:59","holidayOpen":"00:00","holidayClose":"23:59","feeInfo":"무료","phone":"053-667-3094","updatedAt":"2025-11-10","sido":"대구광역시","sigungu":"달서구","dong":"죽전동"},{"name":"용산2동2공영주차장","type":"공영","category":"노외","address":"대구광역시 달서구 용산동 17","lat":35.86217084,"lng":128.5250988,"totalSpaces":35,"isFree":true,"operatingDays":"평일+토요일+공휴일","weekdayOpen":"00:00","weekdayClose":"23:59","weekendOpen":"00:00","weekendClose":"23:59","holidayOpen":"00:00","holidayClose":"23:59","feeInfo":"무료","phone":"053-667-3092","updatedAt":"2025-11-10","sido":"대구광역시","sigungu":"달서구","dong":"용산동"},{"name":"본동1공영주차장","type":"공영","category":"노외","address":"대구광역시 달서구 본동 922","lat":35.83353975,"lng":128.5362993,"totalSpaces":34,"isFree":true,"operatingDays":"평일+토요일+공휴일","weekdayOpen":"00:00","weekdayClose":"23:59","weekendOpen":"00:00","weekendClose":"23:59","holidayOpen":"00:00","holidayClose":"23:59","feeInfo":"무료","phone":"053-667-3092","updatedAt":"2025-11-10","sido":"대구광역시","sigungu":"달서구","dong":"본동"},{"name":"능금공원주차장","type":"공영","category":"노외","address":"대구광역시 달서구 명덕로2길 57 (두류동)","lat":35.85950078,"lng":128.5709285,"totalSpaces":33,"isFree":true,"operatingDays":"평일+토요일+공휴일","weekdayOpen":"00:00","weekdayClose":"23:59","weekendOpen":"00:00","weekendClose":"23:59","holidayOpen":"00:00","holidayClose":"23:59","feeInfo":"무료","phone":"053-667-3094","updatedAt":"2025-11-10","sido":"대구광역시","sigungu":"달서구","dong":"두류동"},{"name":"신당로인근노상공영주차장","type":"공영","category":"노상","address":"대구광역시 달서구 신당로 2","lat":35.85353809,"lng":128.4925045,"totalSpaces":32,"isFree":true,"operatingDays":"평일+토요일+공휴일","weekdayOpen":"00:00","weekdayClose":"23:59","weekendOpen":"00:00","weekendClose":"23:59","holidayOpen":"00:00","holidayClose":"23:59","feeInfo":"무료","phone":"053-667-3094","updatedAt":"2025-11-10","sido":"대구광역시","sigungu":"달서구","dong":"신당동"},{"name":"신당2공영주차장","type":"공영","category":"노외","address":"대구광역시 달서구 신당동 173","lat":35.85704899,"lng":128.4978828,"totalSpaces":32,"isFree":true,"operatingDays":"평일+토요일+공휴일","weekdayOpen":"00:00","weekdayClose":"23:59","weekendOpen":"00:00","weekendClose":"23:59","holidayOpen":"00:00","holidayClose":"23:59","feeInfo":"무료","phone":"053-667-3092","updatedAt":"2025-11-10","sido":"대구광역시","sigungu":"달서구","dong":"신당동"},{"name":"학산근린공원 위령탑 주차장","type":"공영","category":"노외","address":"대구광역시 달서구 학산로2길 39","lat":35.82423831,"lng":128.5347918,"totalSpaces":32,"isFree":true,"operatingDays":"평일+토요일+공휴일","weekdayOpen":"00:00","weekdayClose":"23:59","weekendOpen":"00:00","weekendClose":"23:59","holidayOpen":"00:00","holidayClose":"23:59","feeInfo":"무료","phone":"053-667-3632","updatedAt":"2025-11-10","sido":"대구광역시","sigungu":"달서구","dong":"월성동"},{"name":"성당동1공영주차장","type":"공영","category":"노외","address":"대구광역시 달서구 성당동 638-2","lat":35.8429789,"lng":128.5518027,"totalSpaces":30,"isFree":true,"operatingDays":"평일+토요일+공휴일","weekdayOpen":"00:00","weekdayClose":"23:59","weekendOpen":"00:00","weekendClose":"23:59","holidayOpen":"00:00","holidayClose":"23:59","feeInfo":"무료","phone":"053-667-3092","updatedAt":"2025-11-10","sido":"대구광역시","sigungu":"달서구","dong":"성당동"},{"name":"성당동2공영주차장","type":"공영","category":"노외","address":"대구광역시 달서구 성당동 640-2","lat":35.8442264,"lng":128.5529627,"totalSpaces":30,"isFree":true,"operatingDays":"평일+토요일+공휴일","weekdayOpen":"00:00","weekdayClose":"23:59","weekendOpen":"00:00","weekendClose":"23:59","holidayOpen":"00:00","holidayClose":"23:59","feeInfo":"무료","phone":"053-667-3092","updatedAt":"2025-11-10","sido":"대구광역시","sigungu":"달서구","dong":"성당동"},{"name":"성서공단남로23길인근","type":"공영","category":"노상","address":"대구광역시 달서구 성서공단남로23길 14","lat":35.83160964,"lng":128.5053107,"totalSpaces":30,"isFree":true,"operatingDays":"평일+토요일+공휴일","weekdayOpen":"00:00","weekdayClose":"23:59","weekendOpen":"00:00","weekendClose":"23:59","holidayOpen":"00:00","holidayClose":"23:59","feeInfo":"무료","phone":"053-667-3094","updatedAt":"2025-11-10","sido":"대구광역시","sigungu":"달서구","dong":"월암동"},{"name":"성서공단남로19길인근","type":"공영","category":"노상","address":"대구광역시 달서구 성서공단남로19길 12","lat":35.83166838,"lng":128.5026096,"totalSpaces":30,"isFree":true,"operatingDays":"평일+토요일+공휴일","weekdayOpen":"00:00","weekdayClose":"23:59","weekendOpen":"00:00","weekendClose":"23:59","holidayOpen":"00:00","holidayClose":"23:59","feeInfo":"무료","phone":"053-667-3094","updatedAt":"2025-11-10","sido":"대구광역시","sigungu":"달서구","dong":"월암동"},{"name":"송현1동2 공영 주차장","type":"공영","category":"노외","address":"대구광역시 달서구 송현동 1971-2","lat":35.82553773,"lng":128.5538509,"totalSpaces":27,"isFree":true,"operatingDays":"평일+토요일+공휴일","weekdayOpen":"00:00","weekdayClose":"23:59","weekendOpen":"00:00","weekendClose":"23:59","holidayOpen":"00:00","holidayClose":"23:59","feeInfo":"무료","phone":"053-667-3092","updatedAt":"2025-11-10","sido":"대구광역시","sigungu":"달서구","dong":"송현동"},{"name":"중흥로16길인근","type":"공영","category":"노상","address":"대구광역시 달서구 중흥로16길 19","lat":35.82759605,"lng":128.5586358,"totalSpaces":27,"isFree":true,"operatingDays":"평일+토요일+공휴일","weekdayOpen":"00:00","weekdayClose":"23:59","weekendOpen":"00:00","weekendClose":"23:59","holidayOpen":"00:00","holidayClose":"23:59","feeInfo":"무료","phone":"053-667-3094","updatedAt":"2025-11-10","sido":"대구광역시","sigungu":"달서구","dong":"송현동"},{"name":"월배로83길인근","type":"공영","category":"노상","address":"대구광역시 달서구 월배로83길 106","lat":35.83211042,"lng":128.5461542,"totalSpaces":26,"isFree":true,"operatingDays":"평일+토요일+공휴일","weekdayOpen":"00:00","weekdayClose":"23:59","weekendOpen":"00:00","weekendClose":"23:59","holidayOpen":"00:00","holidayClose":"23:59","feeInfo":"무료","phone":"053-667-3094","updatedAt":"2025-11-10","sido":"대구광역시","sigungu":"달서구","dong":"송현동"},{"name":"와룡(위)공원 주차장","type":"공영","category":"노외","address":"대구광역시 달서구 선원남로 5","lat":35.85778877,"lng":128.5007069,"totalSpaces":26,"isFree":true,"operatingDays":"평일+토요일+공휴일","weekdayOpen":"00:00","weekdayClose":"23:59","weekendOpen":"00:00","weekendClose":"23:59","holidayOpen":"00:00","holidayClose":"23:59","feeInfo":"무료","phone":"053-667-2857","updatedAt":"2025-11-10","sido":"대구광역시","sigungu":"달서구","dong":"이곡동"},{"name":"달빛주차장","type":"공영","category":"노외","address":"대구광역시 달서구 상인동 1186","lat":35.80945008,"lng":128.5486629,"totalSpaces":26,"isFree":true,"operatingDays":"평일+토요일+공휴일","weekdayOpen":"00:00","weekdayClose":"23:59","weekendOpen":"00:00","weekendClose":"23:59","holidayOpen":"00:00","holidayClose":"23:59","feeInfo":"무료","phone":"053-667-3092","updatedAt":"2025-11-10","sido":"대구광역시","sigungu":"달서구","dong":"상인동"},{"name":"감삼동마을공영주차장","type":"공영","category":"노외","address":"대구광역시 달서구 감삼동 203-6","lat":35.846774,"lng":128.5437157,"totalSpaces":26,"isFree":true,"operatingDays":"평일+토요일+공휴일","weekdayOpen":"00:00","weekdayClose":"23:59","weekendOpen":"00:00","weekendClose":"23:59","holidayOpen":"00:00","holidayClose":"23:59","feeInfo":"무료","phone":"053-667-3092","updatedAt":"2025-11-10","sido":"대구광역시","sigungu":"달서구","dong":"감삼동"},{"name":"월배로93길인근","type":"공영","category":"노상","address":"대구광역시 달서구 월배로93길 103","lat":35.83487748,"lng":128.5496786,"totalSpaces":24,"isFree":true,"operatingDays":"평일+토요일+공휴일","weekdayOpen":"00:00","weekdayClose":"23:59","weekendOpen":"00:00","weekendClose":"23:59","holidayOpen":"00:00","holidayClose":"23:59","feeInfo":"무료","phone":"053-667-3094","updatedAt":"2025-11-10","sido":"대구광역시","sigungu":"달서구","dong":"송현동"},{"name":"당산동길인근(두류종합시장)","type":"공영","category":"노상","address":"대구광역시 달서구 당산동길 15","lat":35.84536724,"lng":128.5454512,"totalSpaces":23,"isFree":true,"operatingDays":"평일+토요일+공휴일","weekdayOpen":"00:00","weekdayClose":"23:59","weekendOpen":"00:00","weekendClose":"23:59","holidayOpen":"00:00","holidayClose":"23:59","feeInfo":"무료","phone":"053-667-3094","updatedAt":"2025-11-10","sido":"대구광역시","sigungu":"달서구","dong":"성당동"},{"name":"진천1공영주차장","type":"공영","category":"노외","address":"대구광역시 달서구 진천동 808-120","lat":35.80891259,"lng":128.5196706,"totalSpaces":23,"isFree":true,"operatingDays":"평일+토요일+공휴일","weekdayOpen":"00:00","weekdayClose":"23:59","weekendOpen":"00:00","weekendClose":"23:59","holidayOpen":"00:00","holidayClose":"23:59","feeInfo":"무료","phone":"053-667-3092","updatedAt":"2025-11-10","sido":"대구광역시","sigungu":"달서구","dong":"진천동"},{"name":"두류3동마을 공영 주차장","type":"공영","category":"노외","address":"대구광역시 달서구 두류동 637-7","lat":35.85195074,"lng":128.5529721,"totalSpaces":23,"isFree":true,"operatingDays":"평일+토요일+공휴일","weekdayOpen":"00:00","weekdayClose":"23:59","weekendOpen":"00:00","weekendClose":"23:59","holidayOpen":"00:00","holidayClose":"23:59","feeInfo":"무료","phone":"053-667-3094","updatedAt":"2025-11-10","sido":"대구광역시","sigungu":"달서구","dong":"두류동"},{"name":"죽전동공영주차장","type":"공영","category":"노외","address":"대구광역시 달서구 죽전동 390-12","lat":35.85769588,"lng":128.5334952,"totalSpaces":23,"isFree":true,"operatingDays":"평일+토요일+공휴일","weekdayOpen":"00:00","weekdayClose":"23:59","weekendOpen":"00:00","weekendClose":"23:59","holidayOpen":"00:00","holidayClose":"23:59","feeInfo":"무료","phone":"053-667-3092","updatedAt":"2025-11-10","sido":"대구광역시","sigungu":"달서구","dong":"죽전동"},{"name":"성당로35길인근","type":"공영","category":"노상","address":"대구광역시 달서구 성당로33길 40","lat":35.85035291,"lng":128.5689874,"totalSpaces":22,"isFree":true,"operatingDays":"평일+토요일+공휴일","weekdayOpen":"00:00","weekdayClose":"23:59","weekendOpen":"00:00","weekendClose":"23:59","holidayOpen":"00:00","holidayClose":"23:59","feeInfo":"무료","phone":"053-667-3094","updatedAt":"2025-11-10","sido":"대구광역시","sigungu":"달서구","dong":"성당동"},{"name":"송현1동3 공영 주차장","type":"공영","category":"노외","address":"대구광역시 달서구 송현동 1995-5","lat":35.82932658,"lng":128.5551163,"totalSpaces":22,"isFree":true,"operatingDays":"평일+토요일+공휴일","weekdayOpen":"00:00","weekdayClose":"23:59","weekendOpen":"00:00","weekendClose":"23:59","holidayOpen":"00:00","holidayClose":"23:59","feeInfo":"무료","phone":"053-667-3092","updatedAt":"2025-11-10","sido":"대구광역시","sigungu":"달서구","dong":"송현동"},{"name":"구마로26길인근","type":"공영","category":"노상","address":"대구광역시 달서구 구마로26길 50","lat":35.83499758,"lng":128.5410372,"totalSpaces":22,"isFree":true,"operatingDays":"평일+토요일+공휴일","weekdayOpen":"00:00","weekdayClose":"23:59","weekendOpen":"00:00","weekendClose":"23:59","holidayOpen":"00:00","holidayClose":"23:59","feeInfo":"무료","phone":"053-667-3094","updatedAt":"2025-11-10","sido":"대구광역시","sigungu":"달서구","dong":"본동"},{"name":"구마로52안길인근","type":"공영","category":"노상","address":"대구광역시 달서구 구마로52안길 58","lat":35.83451819,"lng":128.5508827,"totalSpaces":22,"isFree":true,"operatingDays":"평일+토요일+공휴일","weekdayOpen":"00:00","weekdayClose":"23:59","weekendOpen":"00:00","weekendClose":"23:59","holidayOpen":"00:00","holidayClose":"23:59","feeInfo":"무료","phone":"053-667-3094","updatedAt":"2025-11-10","sido":"대구광역시","sigungu":"달서구","dong":"송현동"},{"name":"한서주차장","type":"공영","category":"노외","address":"대구광역시 달서구 대곡동 809-7","lat":35.79471469,"lng":128.529478,"totalSpaces":22,"isFree":true,"operatingDays":"평일+토요일+공휴일","weekdayOpen":"00:00","weekdayClose":"23:59","weekendOpen":"00:00","weekendClose":"23:59","holidayOpen":"00:00","holidayClose":"23:59","feeInfo":"무료","phone":"053-667-3094","updatedAt":"2025-11-10","sido":"대구광역시","sigungu":"달서구","dong":"대곡동"},{"name":"용산2동 3공영주차장","type":"공영","category":"노외","address":"대구광역시 달서구 성지로22길 25","lat":35.85843222,"lng":128.5227431,"totalSpaces":22,"isFree":true,"operatingDays":"평일+토요일+공휴일","weekdayOpen":"00:00","weekdayClose":"23:59","weekendOpen":"00:00","weekendClose":"23:59","holidayOpen":"00:00","holidayClose":"23:59","feeInfo":"무료","phone":"053-667-3092","updatedAt":"2025-11-10","sido":"대구광역시","sigungu":"달서구","dong":"용산동"},{"name":"송현동5길인근","type":"공영","category":"노상","address":"대구광역시 달서구 송현동5길 14","lat":35.83136808,"lng":128.5467748,"totalSpaces":21,"isFree":true,"operatingDays":"평일+토요일+공휴일","weekdayOpen":"00:00","weekdayClose":"23:59","weekendOpen":"00:00","weekendClose":"23:59","holidayOpen":"00:00","holidayClose":"23:59","feeInfo":"무료","phone":"053-667-3094","updatedAt":"2025-11-10","sido":"대구광역시","sigungu":"달서구","dong":"송현동"},{"name":"상원로인근(월배공원)","type":"공영","category":"노상","address":"대구광역시 달서구 상화북로 113-1","lat":35.8113350396,"lng":128.5387063278,"totalSpaces":21,"isFree":true,"operatingDays":"평일+토요일+공휴일","weekdayOpen":"00:00","weekdayClose":"23:59","weekendOpen":"00:00","weekendClose":"23:59","holidayOpen":"00:00","holidayClose":"23:59","feeInfo":"무료","phone":"053-667-3094","updatedAt":"2025-11-10","sido":"대구광역시","sigungu":"달서구","dong":"상인동"},{"name":"두류길인근3","type":"공영","category":"노상","address":"대구광역시 달서구 두류길 104","lat":35.85894336,"lng":128.5689751,"totalSpaces":20,"isFree":true,"operatingDays":"평일+토요일+공휴일","weekdayOpen":"00:00","weekdayClose":"23:59","weekendOpen":"00:00","weekendClose":"23:59","holidayOpen":"00:00","holidayClose":"23:59","feeInfo":"무료","phone":"053-667-3094","updatedAt":"2025-11-10","sido":"대구광역시","sigungu":"달서구","dong":"두류동"},{"name":"호산로125길인근","type":"공영","category":"노상","address":"대구광역시 달서구 호산로27길 6","lat":35.85220463,"lng":128.4772608,"totalSpaces":20,"isFree":true,"operatingDays":"평일+토요일+공휴일","weekdayOpen":"00:00","weekdayClose":"23:59","weekendOpen":"00:00","weekendClose":"23:59","holidayOpen":"00:00","holidayClose":"23:59","feeInfo":"무료","phone":"053-667-3094","updatedAt":"2025-11-10","sido":"대구광역시","sigungu":"달서구","dong":"파호동"},{"name":"앞산순환로55길인근","type":"공영","category":"노상","address":"대구광역시 달서구 앞산순환로55길 23","lat":35.82763282,"lng":128.5571935,"totalSpaces":20,"isFree":true,"operatingDays":"평일+토요일+공휴일","weekdayOpen":"00:00","weekdayClose":"23:59","weekendOpen":"00:00","weekendClose":"23:59","holidayOpen":"00:00","holidayClose":"23:59","feeInfo":"무료","phone":"053-667-3094","updatedAt":"2025-11-10","sido":"대구광역시","sigungu":"달서구","dong":"송현동"},{"name":"장기로26길인근","type":"공영","category":"노상","address":"대구광역시 달서구 당산동3길 39","lat":35.84736898,"lng":128.5472845,"totalSpaces":20,"isFree":true,"operatingDays":"평일+토요일+공휴일","weekdayOpen":"00:00","weekdayClose":"23:59","weekendOpen":"00:00","weekendClose":"23:59","holidayOpen":"00:00","holidayClose":"23:59","feeInfo":"무료","phone":"053-667-3094","updatedAt":"2025-11-10","sido":"대구광역시","sigungu":"달서구","dong":"성당동"},{"name":"본리어린이공원인근","type":"공영","category":"노상","address":"대구광역시 달서구 대명천로 152","lat":35.84000097,"lng":128.5430018,"totalSpaces":20,"isFree":true,"operatingDays":"평일+토요일+공휴일","weekdayOpen":"00:00","weekdayClose":"23:59","weekendOpen":"00:00","weekendClose":"23:59","holidayOpen":"00:00","holidayClose":"23:59","feeInfo":"무료","phone":"053-667-3094","updatedAt":"2025-11-10","sido":"대구광역시","sigungu":"달서구","dong":"본리동"},{"name":"성서공단로19길인근1","type":"공영","category":"노상","address":"대구광역시 달서구 성서서로15길 16","lat":35.8324569,"lng":128.4983037,"totalSpaces":20,"isFree":true,"operatingDays":"평일+토요일+공휴일","weekdayOpen":"00:00","weekdayClose":"23:59","weekendOpen":"00:00","weekendClose":"23:59","holidayOpen":"00:00","holidayClose":"23:59","feeInfo":"무료","phone":"053-667-3094","updatedAt":"2025-11-10","sido":"대구광역시","sigungu":"달서구","dong":"월암동"},{"name":"용산2동제1공영주차장","type":"공영","category":"노외","address":"대구광역시 달서구 용산동 440-4","lat":35.85518102,"lng":128.5219391,"totalSpaces":20,"isFree":true,"operatingDays":"평일+토요일+공휴일","weekdayOpen":"00:00","weekdayClose":"23:59","weekendOpen":"00:00","weekendClose":"23:59","holidayOpen":"00:00","holidayClose":"23:59","feeInfo":"무료","phone":"053-667-3092","updatedAt":"2025-11-10","sido":"대구광역시","sigungu":"달서구","dong":"용산동"},{"name":"장기동공영주차장","type":"공영","category":"노외","address":"대구광역시 달서구 장기동 231","lat":35.84795927,"lng":128.5193477,"totalSpaces":19,"isFree":true,"operatingDays":"평일+토요일+공휴일","weekdayOpen":"00:00","weekdayClose":"23:59","weekendOpen":"00:00","weekendClose":"23:59","holidayOpen":"00:00","holidayClose":"23:59","feeInfo":"무료","phone":"053-667-3092","updatedAt":"2025-11-10","sido":"대구광역시","sigungu":"달서구","dong":"장기동"},{"name":"본동3공영주차장","type":"공영","category":"노외","address":"대구광역시 달서구 본동 875","lat":35.83576521,"lng":128.5347693,"totalSpaces":18,"isFree":true,"operatingDays":"평일+토요일+공휴일","weekdayOpen":"00:00","weekdayClose":"23:59","weekendOpen":"00:00","weekendClose":"23:59","holidayOpen":"00:00","holidayClose":"23:59","feeInfo":"무료","phone":"053-667-3092","updatedAt":"2025-11-10","sido":"대구광역시","sigungu":"달서구","dong":"본동"},{"name":"당산로2길인근","type":"공영","category":"노상","address":"대구광역시 달서구 당산동2길 83","lat":35.84851376,"lng":128.5473368,"totalSpaces":17,"isFree":true,"operatingDays":"평일+토요일+공휴일","weekdayOpen":"00:00","weekdayClose":"23:59","weekendOpen":"00:00","weekendClose":"23:59","holidayOpen":"00:00","holidayClose":"23:59","feeInfo":"무료","phone":"053-667-3094","updatedAt":"2025-11-10","sido":"대구광역시","sigungu":"달서구","dong":"성당동"},{"name":"두류1·2동 4공영주차장","type":"공영","category":"노외","address":"대구광역시 달서구 성당로51길 32","lat":35.85569077,"lng":128.5721306,"totalSpaces":17,"isFree":true,"operatingDays":"평일+토요일+공휴일","weekdayOpen":"00:00","weekdayClose":"23:59","weekendOpen":"00:00","weekendClose":"23:59","holidayOpen":"00:00","holidayClose":"23:59","feeInfo":"무료","phone":"053-667-3094","updatedAt":"2025-11-10","sido":"대구광역시","sigungu":"달서구","dong":"두류동"},{"name":"달구벌대로378길인근","type":"공영","category":"노상","address":"대구광역시 달서구 달구벌대로378길 144","lat":35.85525859,"lng":128.5701447,"totalSpaces":16,"isFree":true,"operatingDays":"평일+토요일+공휴일","weekdayOpen":"00:00","weekdayClose":"23:59","weekendOpen":"00:00","weekendClose":"23:59","holidayOpen":"00:00","holidayClose":"23:59","feeInfo":"무료","phone":"053-667-3094","updatedAt":"2025-11-10","sido":"대구광역시","sigungu":"달서구","dong":"두류동"},{"name":"두류길인근2","type":"공영","category":"노상","address":"대구광역시 달서구 달구벌대로378길 83","lat":35.85796545,"lng":128.5700567,"totalSpaces":16,"isFree":true,"operatingDays":"평일+토요일+공휴일","weekdayOpen":"00:00","weekdayClose":"23:59","weekendOpen":"00:00","weekendClose":"23:59","holidayOpen":"00:00","holidayClose":"23:59","feeInfo":"무료","phone":"053-667-3094","updatedAt":"2025-11-10","sido":"대구광역시","sigungu":"달서구","dong":"두류동"},{"name":"당산로41길인근","type":"공영","category":"노상","address":"대구광역시 달서구 달구벌대로 1609","lat":35.85284299,"lng":128.5419163,"totalSpaces":16,"isFree":true,"operatingDays":"평일+토요일+공휴일","weekdayOpen":"00:00","weekdayClose":"23:59","weekendOpen":"00:00","weekendClose":"23:59","holidayOpen":"00:00","holidayClose":"23:59","feeInfo":"무료","phone":"053-667-3094","updatedAt":"2025-11-10","sido":"대구광역시","sigungu":"달서구","dong":"감삼동"},{"name":"월배로23길인근","type":"공영","category":"노상","address":"대구광역시 달서구 월배로23길 6716","lat":35.8176861077,"lng":128.5235427692,"totalSpaces":15,"isFree":true,"operatingDays":"평일+토요일+공휴일","weekdayOpen":"00:00","weekdayClose":"23:59","weekendOpen":"00:00","weekendClose":"23:59","holidayOpen":"00:00","holidayClose":"23:59","feeInfo":"무료","phone":"053-667-3094","updatedAt":"2025-11-10","sido":"대구광역시","sigungu":"달서구","dong":"대천동"},{"name":"화암로71길인근(대진중고등학교)","type":"공영","category":"노상","address":"대구광역시 달서구 화암로71길 13","lat":35.80461599,"lng":128.5190683,"totalSpaces":15,"isFree":true,"operatingDays":"평일+토요일+공휴일","weekdayOpen":"00:00","weekdayClose":"23:59","weekendOpen":"00:00","weekendClose":"23:59","holidayOpen":"00:00","holidayClose":"23:59","feeInfo":"무료","phone":"053-667-3094","updatedAt":"2025-11-10","sido":"대구광역시","sigungu":"달서구","dong":"대곡동"},{"name":"신당동 공영 주차장","type":"공영","category":"노외","address":"대구광역시 달서구 신당동 1749-8","lat":35.85869866,"lng":128.4990756,"totalSpaces":14,"isFree":true,"operatingDays":"평일+토요일+공휴일","weekdayOpen":"00:00","weekdayClose":"23:59","weekendOpen":"00:00","weekendClose":"23:59","holidayOpen":"00:00","holidayClose":"23:59","feeInfo":"무료","phone":"053-667-3092","updatedAt":"2025-11-10","sido":"대구광역시","sigungu":"달서구","dong":"신당동"},{"name":"월배로84길인근","type":"공영","category":"노상","address":"대구광역시 달서구 월배로84길 16","lat":35.83071054,"lng":128.5526773,"totalSpaces":14,"isFree":true,"operatingDays":"평일+토요일+공휴일","weekdayOpen":"00:00","weekdayClose":"23:59","weekendOpen":"00:00","weekendClose":"23:59","holidayOpen":"00:00","holidayClose":"23:59","feeInfo":"무료","phone":"053-667-3094","updatedAt":"2025-11-10","sido":"대구광역시","sigungu":"달서구","dong":"송현동"},{"name":"새각단공영주차장","type":"공영","category":"노외","address":"대구광역시 달서구 대곡동 639","lat":35.79989859,"lng":128.5292374,"totalSpaces":13,"isFree":true,"operatingDays":"평일+토요일+공휴일","weekdayOpen":"00:00","weekdayClose":"23:59","weekendOpen":"00:00","weekendClose":"23:59","holidayOpen":"00:00","holidayClose":"23:59","feeInfo":"무료","phone":"053-667-3092","updatedAt":"2025-11-10","sido":"대구광역시","sigungu":"달서구","dong":"대곡동"},{"name":"와룡로48길인근","type":"공영","category":"노상","address":"대구광역시 달서구 달구벌대로307길 115","lat":35.85520784,"lng":128.5343696,"totalSpaces":12,"isFree":true,"operatingDays":"평일+토요일+공휴일","weekdayOpen":"00:00","weekdayClose":"23:59","weekendOpen":"00:00","weekendClose":"23:59","holidayOpen":"00:00","holidayClose":"23:59","feeInfo":"무료","phone":"053-667-3094","updatedAt":"2025-11-10","sido":"대구광역시","sigungu":"달서구","dong":"죽전동"},{"name":"도원동공영주차장","type":"공영","category":"노외","address":"대구광역시 달서구 도원동 668-10","lat":35.80597143,"lng":128.5477715,"totalSpaces":11,"isFree":true,"operatingDays":"평일+토요일+공휴일","weekdayOpen":"00:00","weekdayClose":"23:59","weekendOpen":"00:00","weekendClose":"23:59","holidayOpen":"00:00","holidayClose":"23:59","feeInfo":"무료","phone":"053-667-3092","updatedAt":"2025-11-10","sido":"대구광역시","sigungu":"달서구","dong":"도원동"},{"name":"송현1동1공영주차장","type":"공영","category":"노외","address":"대구광역시 달서구 송현동 1970-15","lat":35.8252107,"lng":128.5543991,"totalSpaces":10,"isFree":true,"operatingDays":"평일+토요일+공휴일","weekdayOpen":"00:00","weekdayClose":"23:59","weekendOpen":"00:00","weekendClose":"23:59","holidayOpen":"00:00","holidayClose":"23:59","feeInfo":"무료","phone":"053-667-3092","updatedAt":"2025-11-10","sido":"대구광역시","sigungu":"달서구","dong":"송현동"},{"name":"월배로72길인근","type":"공영","category":"노상","address":"대구광역시 달서구 월배로68길 18","lat":35.82489404,"lng":128.5479051,"totalSpaces":10,"isFree":true,"operatingDays":"평일+토요일+공휴일","weekdayOpen":"00:00","weekdayClose":"23:59","weekendOpen":"00:00","weekendClose":"23:59","holidayOpen":"00:00","holidayClose":"23:59","feeInfo":"무료","phone":"053-667-3094","updatedAt":"2025-11-10","sido":"대구광역시","sigungu":"달서구","dong":"송현동"},{"name":"든들마을 다모","type":"공영","category":"노외","address":"대구광역시 달서구 송현동 276","lat":35.83046215,"lng":128.5589987,"totalSpaces":10,"isFree":true,"operatingDays":"평일+토요일+공휴일","weekdayOpen":"00:00","weekdayClose":"23:59","weekendOpen":"00:00","weekendClose":"23:59","holidayOpen":"00:00","holidayClose":"23:59","feeInfo":"무료","phone":"053-667-3632","updatedAt":"2025-11-10","sido":"대구광역시","sigungu":"달서구","dong":"송현동"},{"name":"한동주차장","type":"공영","category":"노외","address":"대구광역시 달서구 대곡동 731-3","lat":35.79429575,"lng":128.5305118,"totalSpaces":10,"isFree":true,"operatingDays":"평일+토요일+공휴일","weekdayOpen":"00:00","weekdayClose":"23:59","weekendOpen":"00:00","weekendClose":"23:59","holidayOpen":"00:00","holidayClose":"23:59","feeInfo":"무료","phone":"053-667-3092","updatedAt":"2025-11-10","sido":"대구광역시","sigungu":"달서구","dong":"대곡동"},{"name":"든들마을네모주차장","type":"공영","category":"노외","address":"대구광역시 달서구 중흥로9길 37","lat":35.83109496,"lng":128.5585936,"totalSpaces":10,"isFree":true,"operatingDays":"평일+토요일+공휴일","weekdayOpen":"00:00","weekdayClose":"23:59","weekendOpen":"00:00","weekendClose":"23:59","holidayOpen":"00:00","holidayClose":"23:59","feeInfo":"무료","phone":"053-667-3092","updatedAt":"2025-11-10","sido":"대구광역시","sigungu":"달서구","dong":"송현동"},{"name":"본동2공영주차장","type":"공영","category":"노외","address":"대구광역시 달서구 본동 867-1","lat":35.83428928,"lng":128.5411154,"totalSpaces":10,"isFree":true,"operatingDays":"평일+토요일+공휴일","weekdayOpen":"00:00","weekdayClose":"23:59","weekendOpen":"00:00","weekendClose":"23:59","holidayOpen":"00:00","holidayClose":"23:59","feeInfo":"무료","phone":"053-667-3094","updatedAt":"2025-11-10","sido":"대구광역시","sigungu":"달서구","dong":"본동"},{"name":"두류공원로49길인근","type":"공영","category":"노상","address":"대구광역시 달서구 두류공원로49길 73","lat":35.85389864,"lng":128.555605,"totalSpaces":9,"isFree":true,"operatingDays":"평일+토요일+공휴일","weekdayOpen":"00:00","weekdayClose":"23:59","weekendOpen":"00:00","weekendClose":"23:59","holidayOpen":"00:00","holidayClose":"23:59","feeInfo":"무료","phone":"053-667-3094","updatedAt":"2025-11-10","sido":"대구광역시","sigungu":"달서구","dong":"두류동"},{"name":"두류1·2동 5공영","type":"공영","category":"노외","address":"대구광역시 달서구 두류동 120-1","lat":35.85626375,"lng":128.5617041,"totalSpaces":9,"isFree":true,"operatingDays":"평일+토요일+공휴일","weekdayOpen":"00:00","weekdayClose":"23:59","weekendOpen":"00:00","weekendClose":"23:59","holidayOpen":"00:00","holidayClose":"23:59","feeInfo":"무료","phone":"053-667-3632","updatedAt":"2025-11-10","sido":"대구광역시","sigungu":"달서구","dong":"두류동"},{"name":"두류1·2동3공영","type":"공영","category":"노외","address":"대구광역시 달서구 두류동 1230-14","lat":35.85706946,"lng":128.5733266,"totalSpaces":8,"isFree":true,"operatingDays":"평일+토요일+공휴일","weekdayOpen":"00:00","weekdayClose":"23:59","weekendOpen":"00:00","weekendClose":"23:59","holidayOpen":"00:00","holidayClose":"23:59","feeInfo":"무료","phone":"053-667-3092","updatedAt":"2025-11-10","sido":"대구광역시","sigungu":"달서구","dong":"두류동"},{"name":"장기로36길인근","type":"공영","category":"노상","address":"대구광역시 달서구 장기로36길 15","lat":35.84425262,"lng":128.541353,"totalSpaces":7,"isFree":true,"operatingDays":"평일+토요일+공휴일","weekdayOpen":"00:00","weekdayClose":"23:59","weekendOpen":"00:00","weekendClose":"23:59","holidayOpen":"00:00","holidayClose":"23:59","feeInfo":"무료","phone":"053-667-3094","updatedAt":"2025-11-10","sido":"대구광역시","sigungu":"달서구","dong":"감삼동"},{"name":"월배로68안길인근","type":"공영","category":"노상","address":"대구광역시 달서구 월배로68안길 18","lat":35.82529707,"lng":128.5490266,"totalSpaces":7,"isFree":true,"operatingDays":"평일+토요일+공휴일","weekdayOpen":"00:00","weekdayClose":"23:59","weekendOpen":"00:00","weekendClose":"23:59","holidayOpen":"00:00","holidayClose":"23:59","feeInfo":"무료","phone":"053-667-3094","updatedAt":"2025-11-10","sido":"대구광역시","sigungu":"달서구","dong":"송현동"},{"name":"두류1·2동 6공영","type":"공영","category":"노외","address":"대구광역시 달서구 두류동 141-11","lat":35.8569721,"lng":128.5605249,"totalSpaces":7,"isFree":true,"operatingDays":"평일+토요일+공휴일","weekdayOpen":"00:00","weekdayClose":"23:59","weekendOpen":"00:00","weekendClose":"23:59","holidayOpen":"00:00","holidayClose":"23:59","feeInfo":"무료","phone":"053-667-3632","updatedAt":"2025-11-10","sido":"대구광역시","sigungu":"달서구","dong":"두류동"},{"name":"두류길인근1","type":"공영","category":"노상","address":"대구광역시 달서구 두류남길 89","lat":35.85708686,"lng":128.569644,"totalSpaces":6,"isFree":true,"operatingDays":"평일+토요일+공휴일","weekdayOpen":"00:00","weekdayClose":"23:59","weekendOpen":"00:00","weekendClose":"23:59","holidayOpen":"00:00","holidayClose":"23:59","feeInfo":"무료","phone":"053-667-3094","updatedAt":"2025-11-10","sido":"대구광역시","sigungu":"달서구","dong":"두류동"},{"name":"두류1·2동 7공영","type":"공영","category":"노외","address":"대구광역시 달서구 두류동 143-13","lat":35.85627567,"lng":128.5610403,"totalSpaces":6,"isFree":true,"operatingDays":"평일+토요일+공휴일","weekdayOpen":"00:00","weekdayClose":"23:59","weekendOpen":"00:00","weekendClose":"23:59","holidayOpen":"00:00","holidayClose":"23:59","feeInfo":"무료","phone":"053-667-3632","updatedAt":"2025-11-10","sido":"대구광역시","sigungu":"달서구","dong":"두류동"},{"name":"든들마을 세모주차장","type":"공영","category":"노외","address":"대구광역시 달서구 송현동 289-14","lat":35.83128671,"lng":128.5580637,"totalSpaces":5,"isFree":true,"operatingDays":"평일+토요일+공휴일","weekdayOpen":"00:00","weekdayClose":"23:59","weekendOpen":"00:00","weekendClose":"23:59","holidayOpen":"00:00","holidayClose":"23:59","feeInfo":"무료","phone":"053-667-3092","updatedAt":"2025-11-10","sido":"대구광역시","sigungu":"달서구","dong":"송현동"},{"name":"대명천로11길인근","type":"공영","category":"노상","address":"대구광역시 달서구 대명천로11길 18","lat":35.83763755,"lng":128.5541247,"totalSpaces":4,"isFree":true,"operatingDays":"평일+토요일+공휴일","weekdayOpen":"00:00","weekdayClose":"23:59","weekendOpen":"00:00","weekendClose":"23:59","holidayOpen":"00:00","holidayClose":"23:59","feeInfo":"무료","phone":"053-667-3094","updatedAt":"2025-11-10","sido":"대구광역시","sigungu":"달서구","dong":"성당동"},{"name":"상화로35길 인근","type":"공영","category":"노상","address":"대구광역시 달서구 상화로35길 26","lat":35.81107876,"lng":128.5333328,"totalSpaces":4,"isFree":true,"operatingDays":"평일+토요일+공휴일","weekdayOpen":"00:00","weekdayClose":"23:59","weekendOpen":"00:00","weekendClose":"23:59","holidayOpen":"00:00","holidayClose":"23:59","feeInfo":"무료","phone":"053-667-3094","updatedAt":"2025-11-10","sido":"대구광역시","sigungu":"달서구","dong":"상인동"},{"name":"성서1주차장","type":"공영","category":"노외","address":"대구광역시 달서구 성서공단남로 25","lat":35.83065891,"lng":128.4952038,"totalSpaces":427,"isFree":false,"operatingDays":"평일+토요일+공휴일","weekdayOpen":"00:00","weekdayClose":"23:59","weekendOpen":"00:00","weekendClose":"23:59","holidayOpen":"00:00","holidayClose":"23:59","feeInfo":"기본 10분 200원 / 추가 10분당 200원","phone":"053-603-4064","updatedAt":"2025-08-01","sido":"대구광역시","sigungu":"달서구","dong":"월암동"},{"name":"호림2공영주차장","type":"공영","category":"노외","address":"대구광역시 달서구 성서공단로11길 38-13","lat":35.838619,"lng":128.489603,"totalSpaces":335,"isFree":false,"operatingDays":"평일+토요일+공휴일","weekdayOpen":"10:00","weekdayClose":"21:00","weekendOpen":"10:00","weekendClose":"21:00","holidayOpen":"10:00","holidayClose":"21:00","feeInfo":"기본 10분 100원 / 추가 10분당 100원","phone":"053-603-4064","updatedAt":"2025-08-01","sido":"대구광역시","sigungu":"달서구","dong":"호림동"},{"name":"상인공영주차장","type":"공영","category":"노외","address":"대구광역시 달서구 상인서로 103-5","lat":35.81810465,"lng":128.5398374,"totalSpaces":279,"isFree":false,"operatingDays":"평일+토요일+공휴일","weekdayOpen":"06:00","weekdayClose":"23:00","weekendOpen":"06:00","weekendClose":"23:00","holidayOpen":"06:00","holidayClose":"23:00","feeInfo":"기본 10분 600원 / 추가 10분당 600원","phone":"053-638-6446","updatedAt":"2025-08-01","sido":"대구광역시","sigungu":"달서구","dong":"상인동"},{"name":"호림1공영주차장","type":"공영","category":"노외","address":"대구광역시 달서구 달서대로85길 19","lat":35.8371079,"lng":128.4894732,"totalSpaces":201,"isFree":false,"operatingDays":"평일+토요일+공휴일","weekdayOpen":"10:00","weekdayClose":"21:00","weekendOpen":"10:00","weekendClose":"21:00","holidayOpen":"10:00","holidayClose":"21:00","feeInfo":"기본 10분 100원 / 추가 10분당 100원","phone":"053-603-4064","updatedAt":"2025-08-01","sido":"대구광역시","sigungu":"달서구","dong":"호림동"},{"name":"용산환승주차장","type":"공영","category":"노외","address":"대구광역시 달서구 한들로 13","lat":35.8481177,"lng":128.5290805,"totalSpaces":185,"isFree":false,"operatingDays":"평일+토요일+공휴일","weekdayOpen":"07:00","weekdayClose":"18:00","weekendOpen":"07:00","weekendClose":"18:00","holidayOpen":"07:00","holidayClose":"18:00","feeInfo":"기본 10분 300원 / 추가 10분당 300원","phone":"053-603-4064","updatedAt":"2025-08-01","sido":"대구광역시","sigungu":"달서구","dong":"장기동"},{"name":"월촌공원주차장","type":"공영","category":"노외","address":"대구광역시 달서구 상인로 68-4","lat":35.812763,"lng":128.5489521,"totalSpaces":145,"isFree":false,"operatingDays":"평일+토요일+공휴일","weekdayOpen":"09:00","weekdayClose":"18:00","weekendOpen":"09:00","weekendClose":"18:00","holidayOpen":"08:00","holidayClose":"18:00","feeInfo":"기본 120분 1,000원","phone":"053-603-4064","updatedAt":"2025-08-01","sido":"대구광역시","sigungu":"달서구","dong":"상인동"},{"name":"성서2주차장","type":"공영","category":"노외","address":"대구광역시 달서구 성서동로 293","lat":35.84720071,"lng":128.515435,"totalSpaces":131,"isFree":false,"operatingDays":"평일+토요일+공휴일","weekdayOpen":"00:00","weekdayClose":"23:59","weekendOpen":"00:00","weekendClose":"23:59","holidayOpen":"00:00","holidayClose":"23:59","feeInfo":"기본 10분 100원 / 추가 10분당 100원","phone":"053-603-4064","updatedAt":"2025-08-01","sido":"대구광역시","sigungu":"달서구","dong":"장기동"},{"name":"달서대로주차장","type":"공영","category":"노상","address":"대구광역시 달서구 달서대로 411","lat":35.8358511,"lng":128.4913926,"totalSpaces":130,"isFree":false,"operatingDays":"평일+토요일+공휴일","weekdayOpen":"10:00","weekdayClose":"19:00","weekendOpen":"10:00","weekendClose":"19:00","holidayOpen":"10:00","holidayClose":"19:00","feeInfo":"기본 10분 100원 / 추가 10분당 100원","phone":"053-603-4064","updatedAt":"2025-08-01","sido":"대구광역시","sigungu":"달서구","dong":"호림동"},{"name":"죽전동 3공영주차장 (신규)","type":"공영","category":"노외","address":"대구광역시 달서구 와룡로51길 41","lat":35.8552550147,"lng":128.5349859,"totalSpaces":119,"isFree":false,"operatingDays":"평일+토요일+공휴일","weekdayOpen":"00:00","weekdayClose":"23:59","weekendOpen":"00:00","weekendClose":"23:59","holidayOpen":"00:00","holidayClose":"23:59","feeInfo":"기본 30분 600원 / 추가 10분당 300원","phone":"053-667-3094","updatedAt":"2025-11-10","sido":"대구광역시","sigungu":"달서구","dong":"죽전동"},{"name":"호산공영주차장","type":"공영","category":"노외","address":"대구광역시 달서구 성서공단로11길 90-15","lat":35.8433585,"lng":128.4897994,"totalSpaces":111,"isFree":false,"operatingDays":"평일","weekdayOpen":"10:00","weekdayClose":"19:00","weekendOpen":"00:00","weekendClose":"00:00","holidayOpen":"00:00","holidayClose":"00:00","feeInfo":"기본 10분 100원 / 추가 10분당 100원","phone":"053-603-4064","updatedAt":"2025-08-01","sido":"대구광역시","sigungu":"달서구","dong":"호산동"},{"name":"달서시장 공영주차장","type":"공영","category":"노외","address":"대구광역시 달서구 본리동 110-6","lat":35.84095996,"lng":128.5439071,"totalSpaces":103,"isFree":false,"operatingDays":"평일+토요일+공휴일","weekdayOpen":"09:00","weekdayClose":"22:00","weekendOpen":"09:00","weekendClose":"22:00","holidayOpen":"09:00","holidayClose":"22:00","feeInfo":"기본 30분 300원 / 추가 10분당 200원","phone":"053-667-2654","updatedAt":"2025-11-10","sido":"대구광역시","sigungu":"달서구","dong":"본리동"},{"name":"와룡공원지하주차장","type":"공영","category":"노외","address":"대구광역시 달서구 성서서로 352 (이곡동)","lat":35.85660464,"lng":128.500698,"totalSpaces":92,"isFree":false,"operatingDays":"평일+토요일+공휴일","weekdayOpen":"07:00","weekdayClose":"23:00","weekendOpen":"07:00","weekendClose":"23:00","holidayOpen":"07:00","holidayClose":"23:00","feeInfo":"기본 10분 175원 / 추가 10분당 175원","phone":"053-581-1530","updatedAt":"2025-08-01","sido":"대구광역시","sigungu":"달서구","dong":"이곡동"},{"name":"상인1공영주차장","type":"공영","category":"노외","address":"대구광역시 달서구 상인서로 20","lat":35.812764,"lng":128.5462468,"totalSpaces":84,"isFree":false,"operatingDays":"평일+토요일","weekdayOpen":"09:00","weekdayClose":"20:00","weekendOpen":"09:00","weekendClose":"20:00","holidayOpen":"00:00","holidayClose":"00:00","feeInfo":"기본 10분 100원 / 추가 10분당 100원","phone":"053-382-6446","updatedAt":"2025-08-01","sido":"대구광역시","sigungu":"달서구","dong":"상인동"},{"name":"용산2공영주차장","type":"공영","category":"노외","address":"대구광역시 달서구 용산서로 10","lat":35.8577921,"lng":128.5295733,"totalSpaces":83,"isFree":false,"operatingDays":"평일+토요일","weekdayOpen":"09:00","weekdayClose":"20:00","weekendOpen":"09:00","weekendClose":"20:00","holidayOpen":"00:00","holidayClose":"00:00","feeInfo":"기본 10분 175원 / 추가 10분당 175원","phone":"053-603-4064","updatedAt":"2025-08-01","sido":"대구광역시","sigungu":"달서구","dong":"용산동"},{"name":"성서3주차장","type":"공영","category":"노외","address":"대구광역시 달서구 달구벌대로240길 50","lat":35.84710564,"lng":128.4973474,"totalSpaces":78,"isFree":false,"operatingDays":"평일+토요일+공휴일","weekdayOpen":"00:00","weekdayClose":"23:59","weekendOpen":"00:00","weekendClose":"23:59","holidayOpen":"00:00","holidayClose":"23:59","feeInfo":"기본 10분 175원 / 추가 10분당 175원","phone":"053-603-4064","updatedAt":"2025-08-01","sido":"대구광역시","sigungu":"달서구","dong":"신당동"},{"name":"서촌공영주차장","type":"공영","category":"노외","address":"대구광역시 달서구 새방로 43","lat":35.86295332,"lng":128.5222116,"totalSpaces":75,"isFree":false,"operatingDays":"평일","weekdayOpen":"10:00","weekdayClose":"19:00","weekendOpen":"00:00","weekendClose":"00:00","holidayOpen":"00:00","holidayClose":"00:00","feeInfo":"기본 10분 100원 / 추가 10분당 100원","phone":"053-603-4064","updatedAt":"2025-08-01","sido":"대구광역시","sigungu":"달서구","dong":"용산동"},{"name":"용산1공영주차장","type":"공영","category":"노외","address":"대구광역시 달서구 달구벌대로301길 187-21","lat":35.857512,"lng":128.531187,"totalSpaces":73,"isFree":false,"operatingDays":"평일+토요일","weekdayOpen":"09:00","weekdayClose":"20:00","weekendOpen":"09:00","weekendClose":"20:00","holidayOpen":"00:00","holidayClose":"00:00","feeInfo":"기본 10분 175원 / 추가 10분당 175원","phone":"053-603-4064","updatedAt":"2025-08-01","sido":"대구광역시","sigungu":"달서구","dong":"용산동"},{"name":"성서4주차장","type":"공영","category":"노외","address":"대구광역시 달서구 성서공단로 289","lat":35.83642376,"lng":128.5141723,"totalSpaces":71,"isFree":false,"operatingDays":"평일+토요일+공휴일","weekdayOpen":"00:00","weekdayClose":"23:59","weekendOpen":"00:00","weekendClose":"23:59","holidayOpen":"00:00","holidayClose":"23:59","feeInfo":"기본 10분 175원 / 추가 10분당 175원","phone":"053-603-4064","updatedAt":"2025-08-01","sido":"대구광역시","sigungu":"달서구","dong":"장동"},{"name":"상인2공영주차장","type":"공영","category":"노외","address":"대구광역시 달서구 상인서로 36","lat":35.81403994,"lng":128.5449802,"totalSpaces":65,"isFree":false,"operatingDays":"평일+토요일","weekdayOpen":"09:00","weekdayClose":"20:00","weekendOpen":"09:00","weekendClose":"20:00","holidayOpen":"00:00","holidayClose":"00:00","feeInfo":"기본 10분 175원 / 추가 10분당 175원","phone":"053-603-4064","updatedAt":"2025-08-01","sido":"대구광역시","sigungu":"달서구","dong":"상인동"},{"name":"본리2공영주차장","type":"공영","category":"노외","address":"대구광역시 달서구 대명천로 281","lat":35.84157287,"lng":128.5295663,"totalSpaces":58,"isFree":false,"operatingDays":"평일+토요일","weekdayOpen":"10:00","weekdayClose":"21:00","weekendOpen":"10:00","weekendClose":"21:00","holidayOpen":"00:00","holidayClose":"00:00","feeInfo":"기본 10분 175원 / 추가 10분당 175원","phone":"053-603-4064","updatedAt":"2025-08-01","sido":"대구광역시","sigungu":"달서구","dong":"본리동"},{"name":"본리1공영주차장","type":"공영","category":"노외","address":"대구광역시 달서구 대명천로 281","lat":35.84157287,"lng":128.5295663,"totalSpaces":56,"isFree":false,"operatingDays":"평일+토요일","weekdayOpen":"10:00","weekdayClose":"21:00","weekendOpen":"10:00","weekendClose":"21:00","holidayOpen":"00:00","holidayClose":"00:00","feeInfo":"기본 10분 175원 / 추가 10분당 175원","phone":"053-603-4064","updatedAt":"2025-08-01","sido":"대구광역시","sigungu":"달서구","dong":"본리동"},{"name":"서남신시장공영주차장","type":"공영","category":"노외","address":"대구광역시 달서구 달구벌대로329안길 30 (감삼동)","lat":35.85356845,"lng":128.5441484,"totalSpaces":40,"isFree":false,"operatingDays":"평일+토요일+공휴일","weekdayOpen":"06:00","weekdayClose":"22:00","weekendOpen":"06:00","weekendClose":"22:00","holidayOpen":"06:00","holidayClose":"22:00","feeInfo":"기본 30분 500원 / 추가 10분당 300원","phone":"053-667-2654","updatedAt":"2025-11-10","sido":"대구광역시","sigungu":"달서구","dong":"감삼동"},{"name":"성서용산시장 공영주차장","type":"공영","category":"노외","address":"대구광역시 달서구 용산동 448-6","lat":35.85619026,"lng":128.5217463,"totalSpaces":36,"isFree":false,"operatingDays":"평일+토요일+공휴일","weekdayOpen":"09:00","weekdayClose":"22:00","weekendOpen":"09:00","weekendClose":"22:00","holidayOpen":"09:00","holidayClose":"22:00","feeInfo":"기본 30분 300원 / 추가 10분당 200원","phone":"053-667-2654","updatedAt":"2025-11-10","sido":"대구광역시","sigungu":"달서구","dong":"용산동"},{"name":"서남시장공영주차장","type":"공영","category":"노외","address":"대구광역시 달서구 당산로41길 62","lat":35.8540262,"lng":128.5445723,"totalSpaces":30,"isFree":false,"operatingDays":"평일+토요일+공휴일","weekdayOpen":"09:00","weekdayClose":"22:00","weekendOpen":"09:00","weekendClose":"22:00","holidayOpen":"09:00","holidayClose":"22:00","feeInfo":"기본 30분 500원 / 추가 10분당 300원","phone":"053-667-2654","updatedAt":"2025-11-10","sido":"대구광역시","sigungu":"달서구","dong":"감삼동"},{"name":"월촌역시장 공영 주차장(구 송현주공시장)","type":"공영","category":"노외","address":"대구광역시 달서구 송현로8안길 6","lat":35.82227037,"lng":128.5489586,"totalSpaces":26,"isFree":false,"operatingDays":"평일+토요일+공휴일","weekdayOpen":"09:00","weekdayClose":"22:00","weekendOpen":"09:00","weekendClose":"22:00","holidayOpen":"09:00","holidayClose":"22:00","feeInfo":"기본 30분 300원 / 추가 10분당 200원","phone":"053-667-2654","updatedAt":"2025-11-10","sido":"대구광역시","sigungu":"달서구","dong":"송현동"},{"name":"장기공영주차장","type":"공영","category":"노외","address":"대구광역시 달서구 장기로57동길 6","lat":35.8430873,"lng":128.5296809,"totalSpaces":24,"isFree":false,"operatingDays":"평일","weekdayOpen":"10:00","weekdayClose":"21:00","weekendOpen":"00:00","weekendClose":"00:00","holidayOpen":"00:00","holidayClose":"00:00","feeInfo":"기본 10분 175원 / 추가 10분당 175원","phone":"053-603-4064","updatedAt":"2025-08-01","sido":"대구광역시","sigungu":"달서구","dong":"장기동"}]}