{"sido":"대구광역시","sigungu":"북구","totalCount":295,"validCount":295,"items":[{"name":"임시공영(공영청사부지)","type":"공영","category":"노외","address":"대구광역시 북구 구암로65길 38","lat":35.94153605,"lng":128.5657163,"totalSpaces":338,"isFree":true,"operatingDays":"평일+토요일+공휴일","weekdayOpen":"00:00","weekdayClose":"23:59","weekendOpen":"00:00","weekendClose":"23:59","holidayOpen":"00:00","holidayClose":"23:59","feeInfo":"무료","phone":"053-665-3012","updatedAt":"2025-07-23","sido":"대구광역시","sigungu":"북구","dong":"구암동"},{"name":"3공단로인근","type":"공영","category":"노상","address":"대구광역시 북구 노원동3가 14","lat":35.89890754,"lng":128.5694939,"totalSpaces":329,"isFree":true,"operatingDays":"평일+토요일+공휴일","weekdayOpen":"00:00","weekdayClose":"23:59","weekendOpen":"00:00","weekendClose":"23:59","holidayOpen":"00:00","holidayClose":"23:59","feeInfo":"무료","phone":"053-803-4882","updatedAt":"2025-07-23","sido":"대구광역시","sigungu":"북구","dong":"노원동3가"},{"name":"노곡교남단1(공영)","type":"공영","category":"노외","address":"대구광역시 북구 노곡동 990","lat":35.90182755,"lng":128.5664859,"totalSpaces":200,"isFree":true,"operatingDays":"평일+토요일+공휴일","weekdayOpen":"00:00","weekdayClose":"23:59","weekendOpen":"00:00","weekendClose":"23:59","holidayOpen":"00:00","holidayClose":"23:59","feeInfo":"무료","phone":"053-803-4882","updatedAt":"2025-07-23","sido":"대구광역시","sigungu":"북구","dong":"노곡동"},{"name":"노곡교남단2(공영)","type":"공영","category":"노외","address":"대구광역시 북구 노곡동 876","lat":35.90040828,"lng":128.5646437,"totalSpaces":200,"isFree":true,"operatingDays":"평일+토요일+공휴일","weekdayOpen":"00:00","weekdayClose":"23:59","weekendOpen":"00:00","weekendClose":"23:59","holidayOpen":"00:00","holidayClose":"23:59","feeInfo":"무료","phone":"053-803-4882","updatedAt":"2025-07-23","sido":"대구광역시","sigungu":"북구","dong":"노곡동"},{"name":"성북로5길인근","type":"공영","category":"노상","address":"대구광역시 북구 침산동 551-8","lat":35.89473466,"lng":128.5882483,"totalSpaces":134,"isFree":true,"operatingDays":"평일+토요일+공휴일","weekdayOpen":"00:00","weekdayClose":"23:59","weekendOpen":"00:00","weekendClose":"23:59","holidayOpen":"00:00","holidayClose":"23:59","feeInfo":"무료","phone":"053-803-4882","updatedAt":"2025-07-23","sido":"대구광역시","sigungu":"북구","dong":"침산동"},{"name":"동편업무지구(공영)","type":"공영","category":"노외","address":"대구광역시 북구 산격동 1687","lat":35.90725206,"lng":128.6151458,"totalSpaces":123,"isFree":true,"operatingDays":"평일+토요일+공휴일","weekdayOpen":"00:00","weekdayClose":"23:59","weekendOpen":"00:00","weekendClose":"23:59","holidayOpen":"00:00","holidayClose":"23:59","feeInfo":"무료","phone":"053-803-3211","updatedAt":"2025-07-23","sido":"대구광역시","sigungu":"북구","dong":"산격동"},{"name":"임시공영(관음동)","type":"공영","category":"노외","address":"대구광역시 북구 관음로 141","lat":35.94307205,"lng":128.5420358,"totalSpaces":120,"isFree":true,"operatingDays":"평일+토요일+공휴일","weekdayOpen":"00:00","weekdayClose":"23:59","weekendOpen":"00:00","weekendClose":"23:59","holidayOpen":"00:00","holidayClose":"23:59","feeInfo":"무료","phone":"053-665-3012","updatedAt":"2025-07-23","sido":"대구광역시","sigungu":"북구","dong":"관음동"},{"name":"산업용재관남편(공영)","type":"공영","category":"노외","address":"대구광역시 북구 유통단지로8길 26","lat":35.9030285,"lng":128.6070134,"totalSpaces":112,"isFree":true,"operatingDays":"평일+토요일+공휴일","weekdayOpen":"00:00","weekdayClose":"23:59","weekendOpen":"00:00","weekendClose":"23:59","holidayOpen":"00:00","holidayClose":"23:59","feeInfo":"무료","phone":"053-803-3211","updatedAt":"2025-07-23","sido":"대구광역시","sigungu":"북구","dong":"산격동"},{"name":"북구문화회관앞(공영)","type":"공영","category":"노외","address":"대구광역시 북구 검단로 71-17","lat":35.905774,"lng":128.6160608,"totalSpaces":110,"isFree":true,"operatingDays":"평일+토요일+공휴일","weekdayOpen":"00:00","weekdayClose":"23:59","weekendOpen":"00:00","weekendClose":"23:59","holidayOpen":"00:00","holidayClose":"23:59","feeInfo":"무료","phone":"053-803-3211","updatedAt":"2025-07-23","sido":"대구광역시","sigungu":"북구","dong":"산격동"},{"name":"전자관북편1(공영)","type":"공영","category":"노외","address":"대구광역시 북구 유통단지로7길 21","lat":35.9077608,"lng":128.605559,"totalSpaces":107,"isFree":true,"operatingDays":"평일+토요일+공휴일","weekdayOpen":"00:00","weekdayClose":"23:59","weekendOpen":"00:00","weekendClose":"23:59","holidayOpen":"00:00","holidayClose":"23:59","feeInfo":"무료","phone":"053-803-3211","updatedAt":"2025-07-23","sido":"대구광역시","sigungu":"북구","dong":"산격동"},{"name":"서편업무지구(공영)","type":"공영","category":"노외","address":"대구광역시 북구 유통단지로8길 33","lat":35.9040048,"lng":128.6086279,"totalSpaces":105,"isFree":true,"operatingDays":"평일+토요일+공휴일","weekdayOpen":"00:00","weekdayClose":"23:59","weekendOpen":"00:00","weekendClose":"23:59","holidayOpen":"00:00","holidayClose":"23:59","feeInfo":"무료","phone":"053-803-3211","updatedAt":"2025-07-23","sido":"대구광역시","sigungu":"북구","dong":"산격동"},{"name":"전자관북편2(공영)","type":"공영","category":"노외","address":"대구광역시 북구 유통단지로3길 4-11","lat":35.90621166,"lng":128.6047681,"totalSpaces":104,"isFree":true,"operatingDays":"평일+토요일+공휴일","weekdayOpen":"00:00","weekdayClose":"23:59","weekendOpen":"00:00","weekendClose":"23:59","holidayOpen":"00:00","holidayClose":"23:59","feeInfo":"무료","phone":"053-803-3211","updatedAt":"2025-07-23","sido":"대구광역시","sigungu":"북구","dong":"산격동"},{"name":"칠성남로인근(고성동)","type":"공영","category":"노상","address":"대구광역시 북구 고성동2가 110-41","lat":35.87960404,"lng":128.5831811,"totalSpaces":102,"isFree":true,"operatingDays":"평일+토요일+공휴일","weekdayOpen":"00:00","weekdayClose":"23:59","weekendOpen":"00:00","weekendClose":"23:59","holidayOpen":"00:00","holidayClose":"23:59","feeInfo":"무료","phone":"053-803-4882","updatedAt":"2025-07-23","sido":"대구광역시","sigungu":"북구","dong":"고성동2가"},{"name":"팔달북로인근","type":"공영","category":"노상","address":"대구광역시 북구 팔달북로 56","lat":35.8929865,"lng":128.5591288,"totalSpaces":100,"isFree":true,"operatingDays":"평일+토요일+공휴일","weekdayOpen":"00:00","weekdayClose":"23:59","weekendOpen":"00:00","weekendClose":"23:59","holidayOpen":"00:00","holidayClose":"23:59","feeInfo":"무료","phone":"053-665-3012","updatedAt":"2025-07-23","sido":"대구광역시","sigungu":"북구","dong":"노원동3가"},{"name":"경진로인근","type":"공영","category":"노상","address":"대구광역시 북구 복현동 623","lat":35.89526277,"lng":128.6213799,"totalSpaces":92,"isFree":true,"operatingDays":"평일+토요일+공휴일","weekdayOpen":"00:00","weekdayClose":"23:59","weekendOpen":"00:00","weekendClose":"23:59","holidayOpen":"00:00","holidayClose":"23:59","feeInfo":"무료","phone":"053-665-3012","updatedAt":"2025-07-23","sido":"대구광역시","sigungu":"북구","dong":"복현동"},{"name":"팔달로41길인근","type":"공영","category":"노상","address":"대구광역시 북구 노원동2가 1","lat":35.88778066,"lng":128.5743938,"totalSpaces":90,"isFree":true,"operatingDays":"평일+토요일+공휴일","weekdayOpen":"00:00","weekdayClose":"23:59","weekendOpen":"00:00","weekendClose":"23:59","holidayOpen":"00:00","holidayClose":"23:59","feeInfo":"무료","phone":"053-665-3012","updatedAt":"2025-07-23","sido":"대구광역시","sigungu":"북구","dong":"노원동2가"},{"name":"고성북로2인근","type":"공영","category":"노상","address":"대구광역시 북구 고성북로 50-2","lat":35.88408994,"lng":128.5841447,"totalSpaces":87,"isFree":true,"operatingDays":"평일+토요일+공휴일","weekdayOpen":"00:00","weekdayClose":"23:59","weekendOpen":"00:00","weekendClose":"23:59","holidayOpen":"00:00","holidayClose":"23:59","feeInfo":"무료","phone":"053-665-3012","updatedAt":"2025-07-23","sido":"대구광역시","sigungu":"북구","dong":"고성동3가"},{"name":"노원(공영)","type":"공영","category":"노외","address":"대구광역시 북구 옥산로7길 27-7","lat":35.88820139,"lng":128.5806918,"totalSpaces":82,"isFree":true,"operatingDays":"평일+토요일+공휴일","weekdayOpen":"00:00","weekdayClose":"23:59","weekendOpen":"00:00","weekendClose":"23:59","holidayOpen":"00:00","holidayClose":"23:59","feeInfo":"무료","phone":"053-665-3012","updatedAt":"2025-07-23","sido":"대구광역시","sigungu":"북구","dong":"노원동1가"},{"name":"대현로19길인근","type":"공영","category":"노상","address":"대구광역시 북구 대현동 103-35","lat":35.88629636,"lng":128.6112825,"totalSpaces":80,"isFree":true,"operatingDays":"평일+토요일+공휴일","weekdayOpen":"00:00","weekdayClose":"23:59","weekendOpen":"00:00","weekendClose":"23:59","holidayOpen":"00:00","holidayClose":"23:59","feeInfo":"무료","phone":"053-665-3012","updatedAt":"2025-07-23","sido":"대구광역시","sigungu":"북구","dong":"대현동"},{"name":"경대로17길인근","type":"공영","category":"노상","address":"대구광역시 북구 복현동 573","lat":35.88901082,"lng":128.6143217,"totalSpaces":78,"isFree":true,"operatingDays":"평일+토요일+공휴일","weekdayOpen":"00:00","weekdayClose":"23:59","weekendOpen":"00:00","weekendClose":"23:59","holidayOpen":"00:00","holidayClose":"23:59","feeInfo":"무료","phone":"053-665-3012","updatedAt":"2025-07-23","sido":"대구광역시","sigungu":"북구","dong":"복현동"},{"name":"관음중앙로21길인근","type":"공영","category":"노상","address":"대구광역시 북구 관음동 1252","lat":35.94470971,"lng":128.5449411,"totalSpaces":75,"isFree":true,"operatingDays":"평일+토요일+공휴일","weekdayOpen":"00:00","weekdayClose":"23:59","weekendOpen":"00:00","weekendClose":"23:59","holidayOpen":"00:00","holidayClose":"23:59","feeInfo":"무료","phone":"053-665-3012","updatedAt":"2025-07-23","sido":"대구광역시","sigungu":"북구","dong":"관음동"},{"name":"칠곡중앙대로105길인근","type":"공영","category":"노상","address":"대구광역시 북구 읍내동 1304","lat":35.94426515,"lng":128.5488151,"totalSpaces":75,"isFree":true,"operatingDays":"평일+토요일+공휴일","weekdayOpen":"00:00","weekdayClose":"23:59","weekendOpen":"00:00","weekendClose":"23:59","holidayOpen":"00:00","holidayClose":"23:59","feeInfo":"무료","phone":"053-665-3012","updatedAt":"2025-07-23","sido":"대구광역시","sigungu":"북구","dong":"읍내동"},{"name":"조야교남편(공영)","type":"공영","category":"노외","address":"대구광역시 북구 조야로12길 1","lat":35.91200881,"lng":128.5771953,"totalSpaces":74,"isFree":true,"operatingDays":"평일+토요일+공휴일","weekdayOpen":"00:00","weekdayClose":"23:59","weekendOpen":"00:00","weekendClose":"23:59","holidayOpen":"00:00","holidayClose":"23:59","feeInfo":"무료","phone":"053-803-4882","updatedAt":"2025-07-23","sido":"대구광역시","sigungu":"북구","dong":"조야동"},{"name":"칠곡중앙대로77길인근","type":"공영","category":"노상","address":"대구광역시 북구 태전동 944","lat":35.93092533,"lng":128.5449343,"totalSpaces":73,"isFree":true,"operatingDays":"평일+토요일+공휴일","weekdayOpen":"00:00","weekdayClose":"23:59","weekendOpen":"00:00","weekendClose":"23:59","holidayOpen":"00:00","holidayClose":"23:59","feeInfo":"무료","phone":"053-665-3012","updatedAt":"2025-07-23","sido":"대구광역시","sigungu":"북구","dong":"태전동"},{"name":"칠성남로2길인근","type":"공영","category":"노상","address":"대구광역시 북구 고성동1가 95-4","lat":35.8778702,"lng":128.5857581,"totalSpaces":71,"isFree":true,"operatingDays":"평일+토요일+공휴일","weekdayOpen":"00:00","weekdayClose":"23:59","weekendOpen":"00:00","weekendClose":"23:59","holidayOpen":"00:00","holidayClose":"23:59","feeInfo":"무료","phone":"053-665-3012","updatedAt":"2025-07-23","sido":"대구광역시","sigungu":"북구","dong":"고성동1가"},{"name":"팔달북로3길인근","type":"공영","category":"노상","address":"대구광역시 북구 팔달로 105","lat":35.8898311,"lng":128.5610742,"totalSpaces":68,"isFree":true,"operatingDays":"평일+토요일+공휴일","weekdayOpen":"00:00","weekdayClose":"23:59","weekendOpen":"00:00","weekendClose":"23:59","holidayOpen":"00:00","holidayClose":"23:59","feeInfo":"무료","phone":"053-665-3012","updatedAt":"2025-07-23","sido":"대구광역시","sigungu":"북구","dong":"노원동3가"},{"name":"패션센터남편(공영)","type":"공영","category":"노외","address":"대구광역시 북구 유통단지로14길 17","lat":35.9061485,"lng":128.6117408,"totalSpaces":66,"isFree":true,"operatingDays":"평일+토요일+공휴일","weekdayOpen":"00:00","weekdayClose":"23:59","weekendOpen":"00:00","weekendClose":"23:59","holidayOpen":"00:00","holidayClose":"23:59","feeInfo":"무료","phone":"053-803-3211","updatedAt":"2025-07-23","sido":"대구광역시","sigungu":"북구","dong":"산격동"},{"name":"고성북로1인근","type":"공영","category":"노상","address":"대구광역시 북구 고성북로 50-2","lat":35.88408994,"lng":128.5841447,"totalSpaces":65,"isFree":true,"operatingDays":"평일+토요일+공휴일","weekdayOpen":"00:00","weekdayClose":"23:59","weekendOpen":"00:00","weekendClose":"23:59","holidayOpen":"00:00","holidayClose":"23:59","feeInfo":"무료","phone":"053-665-3012","updatedAt":"2025-07-23","sido":"대구광역시","sigungu":"북구","dong":"고성동3가"},{"name":"관음중앙로인근","type":"공영","category":"노상","address":"대구광역시 북구 관음동 1373","lat":35.93425111,"lng":128.5457465,"totalSpaces":62,"isFree":true,"operatingDays":"평일+토요일+공휴일","weekdayOpen":"00:00","weekdayClose":"23:59","weekendOpen":"00:00","weekendClose":"23:59","holidayOpen":"00:00","holidayClose":"23:59","feeInfo":"무료","phone":"053-665-3012","updatedAt":"2025-07-23","sido":"대구광역시","sigungu":"북구","dong":"관음동"},{"name":"칠성남로16길인근","type":"공영","category":"노상","address":"대구광역시 북구 칠성동2가 302-93","lat":35.87724893,"lng":128.5926647,"totalSpaces":61,"isFree":true,"operatingDays":"평일+토요일+공휴일","weekdayOpen":"00:00","weekdayClose":"23:59","weekendOpen":"00:00","weekendClose":"23:59","holidayOpen":"00:00","holidayClose":"23:59","feeInfo":"무료","phone":"053-665-3012","updatedAt":"2025-07-23","sido":"대구광역시","sigungu":"북구","dong":"칠성동2가"},{"name":"관음중앙로28길인근","type":"공영","category":"노상","address":"대구광역시 북구 관음동 1293","lat":35.94240514,"lng":128.5469099,"totalSpaces":60,"isFree":true,"operatingDays":"평일+토요일+공휴일","weekdayOpen":"00:00","weekdayClose":"23:59","weekendOpen":"00:00","weekendClose":"23:59","holidayOpen":"00:00","holidayClose":"23:59","feeInfo":"무료","phone":"053-665-3012","updatedAt":"2025-07-23","sido":"대구광역시","sigungu":"북구","dong":"관음동"},{"name":"노원로9길인근","type":"공영","category":"노상","address":"대구광역시 북구 노원로9길 12","lat":35.89447588,"lng":128.5675754,"totalSpaces":58,"isFree":true,"operatingDays":"평일+토요일+공휴일","weekdayOpen":"00:00","weekdayClose":"23:59","weekendOpen":"00:00","weekendClose":"23:59","holidayOpen":"00:00","holidayClose":"23:59","feeInfo":"무료","phone":"053-665-3012","updatedAt":"2025-07-23","sido":"대구광역시","sigungu":"북구","dong":"노원동3가"},{"name":"신기공원북편(공영)","type":"공영","category":"노외","address":"대구광역시 북구 유통단지로13길 13-11","lat":35.9078387,"lng":128.6083227,"totalSpaces":58,"isFree":true,"operatingDays":"평일+토요일+공휴일","weekdayOpen":"00:00","weekdayClose":"23:59","weekendOpen":"00:00","weekendClose":"23:59","holidayOpen":"00:00","holidayClose":"23:59","feeInfo":"무료","phone":"053-803-3211","updatedAt":"2025-07-23","sido":"대구광역시","sigungu":"북구","dong":"산격동"},{"name":"고성로37길인근","type":"공영","category":"노상","address":"대구광역시 북구 고성로 191","lat":35.88301806,"lng":128.5861564,"totalSpaces":57,"isFree":true,"operatingDays":"평일+토요일+공휴일","weekdayOpen":"00:00","weekdayClose":"23:59","weekendOpen":"00:00","weekendClose":"23:59","holidayOpen":"00:00","holidayClose":"23:59","feeInfo":"무료","phone":"053-665-3012","updatedAt":"2025-07-23","sido":"대구광역시","sigungu":"북구","dong":"고성동3가"},{"name":"칠곡중앙대로인근","type":"공영","category":"노상","address":"대구광역시 북구 읍내동 794-1","lat":35.94497242,"lng":128.5511611,"totalSpaces":56,"isFree":true,"operatingDays":"평일+토요일+공휴일","weekdayOpen":"00:00","weekdayClose":"23:59","weekendOpen":"00:00","weekendClose":"23:59","holidayOpen":"00:00","holidayClose":"23:59","feeInfo":"무료","phone":"053-803-4882","updatedAt":"2025-07-23","sido":"대구광역시","sigungu":"북구","dong":"읍내동"},{"name":"백사벌네거리(남편)","type":"공영","category":"노상","address":"대구광역시 북구 침산동 1208","lat":35.89836118,"lng":128.5793092,"totalSpaces":56,"isFree":true,"operatingDays":"평일+토요일+공휴일","weekdayOpen":"00:00","weekdayClose":"23:59","weekendOpen":"00:00","weekendClose":"23:59","holidayOpen":"00:00","holidayClose":"23:59","feeInfo":"무료","phone":"053-803-4882","updatedAt":"2025-07-23","sido":"대구광역시","sigungu":"북구","dong":"침산동"},{"name":"동변(공영)","type":"공영","category":"노외","address":"대구광역시 북구 동변로 89","lat":35.9210095,"lng":128.6033264,"totalSpaces":53,"isFree":true,"operatingDays":"평일+토요일+공휴일","weekdayOpen":"00:00","weekdayClose":"23:59","weekendOpen":"00:00","weekendClose":"23:59","holidayOpen":"00:00","holidayClose":"23:59","feeInfo":"무료","phone":"053-803-4882","updatedAt":"2025-07-23","sido":"대구광역시","sigungu":"북구","dong":"동변동"},{"name":"팔거천서로인근","type":"공영","category":"노상","address":"대구광역시 북구 태전동 1073-31","lat":35.92661052,"lng":128.5503013,"totalSpaces":52,"isFree":true,"operatingDays":"평일+토요일+공휴일","weekdayOpen":"00:00","weekdayClose":"23:59","weekendOpen":"00:00","weekendClose":"23:59","holidayOpen":"00:00","holidayClose":"23:59","feeInfo":"무료","phone":"053-803-4882","updatedAt":"2025-07-23","sido":"대구광역시","sigungu":"북구","dong":"태전동"},{"name":"태암교(서편)","type":"공영","category":"노상","address":"대구광역시 북구 태전동 1030","lat":35.92862298,"lng":128.5495201,"totalSpaces":49,"isFree":true,"operatingDays":"평일+토요일+공휴일","weekdayOpen":"00:00","weekdayClose":"23:59","weekendOpen":"00:00","weekendClose":"23:59","holidayOpen":"00:00","holidayClose":"23:59","feeInfo":"무료","phone":"053-803-4882","updatedAt":"2025-07-23","sido":"대구광역시","sigungu":"북구","dong":"태전동"},{"name":"구수산(공영)","type":"공영","category":"노외","address":"대구광역시 북구 읍내동 1077-1","lat":35.93807062,"lng":128.5526188,"totalSpaces":48,"isFree":true,"operatingDays":"평일+토요일+공휴일","weekdayOpen":"00:00","weekdayClose":"23:59","weekendOpen":"00:00","weekendClose":"23:59","holidayOpen":"00:00","holidayClose":"23:59","feeInfo":"무료","phone":"053-665-3012","updatedAt":"2025-07-23","sido":"대구광역시","sigungu":"북구","dong":"읍내동"},{"name":"연암로인근","type":"공영","category":"노상","address":"대구광역시 북구 산격동 796-37","lat":35.89623111,"lng":128.5951791,"totalSpaces":48,"isFree":true,"operatingDays":"평일+토요일+공휴일","weekdayOpen":"00:00","weekdayClose":"23:59","weekendOpen":"00:00","weekendClose":"23:59","holidayOpen":"00:00","holidayClose":"23:59","feeInfo":"무료","phone":"053-803-4882","updatedAt":"2025-07-23","sido":"대구광역시","sigungu":"북구","dong":"산격동"},{"name":"동암로7길인근","type":"공영","category":"노상","address":"대구광역시 북구 읍내동 1234-184","lat":35.94616316,"lng":128.5546673,"totalSpaces":47,"isFree":true,"operatingDays":"평일+토요일+공휴일","weekdayOpen":"00:00","weekdayClose":"23:59","weekendOpen":"00:00","weekendClose":"23:59","holidayOpen":"00:00","holidayClose":"23:59","feeInfo":"무료","phone":"053-665-3012","updatedAt":"2025-07-23","sido":"대구광역시","sigungu":"북구","dong":"읍내동"},{"name":"구암동주민센터(공영)","type":"공영","category":"노외","address":"대구광역시 북구 구암서로 32","lat":35.9389234,"lng":128.5660435,"totalSpaces":46,"isFree":true,"operatingDays":"평일+토요일+공휴일","weekdayOpen":"00:00","weekdayClose":"23:59","weekendOpen":"00:00","weekendClose":"23:59","holidayOpen":"00:00","holidayClose":"23:59","feeInfo":"무료","phone":"053-665-3012","updatedAt":"2025-07-23","sido":"대구광역시","sigungu":"북구","dong":"구암동"},{"name":"관음동로13길인근","type":"공영","category":"노상","address":"대구광역시 북구 관음동 1346","lat":35.93854663,"lng":128.5457736,"totalSpaces":43,"isFree":true,"operatingDays":"평일+토요일+공휴일","weekdayOpen":"00:00","weekdayClose":"23:59","weekendOpen":"00:00","weekendClose":"23:59","holidayOpen":"00:00","holidayClose":"23:59","feeInfo":"무료","phone":"053-665-3012","updatedAt":"2025-07-23","sido":"대구광역시","sigungu":"북구","dong":"관음동"},{"name":"구암로15길인근","type":"공영","category":"노상","address":"대구광역시 북구 읍내동 1339","lat":35.93539165,"lng":128.5497971,"totalSpaces":43,"isFree":true,"operatingDays":"평일+토요일+공휴일","weekdayOpen":"00:00","weekdayClose":"23:59","weekendOpen":"00:00","weekendClose":"23:59","holidayOpen":"00:00","holidayClose":"23:59","feeInfo":"무료","phone":"053-665-3012","updatedAt":"2025-07-23","sido":"대구광역시","sigungu":"북구","dong":"읍내동"},{"name":"힘나라2길인근","type":"공영","category":"노상","address":"대구광역시 북구 팔달로 105","lat":35.8898311,"lng":128.5610742,"totalSpaces":43,"isFree":true,"operatingDays":"평일+토요일+공휴일","weekdayOpen":"00:00","weekdayClose":"23:59","weekendOpen":"00:00","weekendClose":"23:59","holidayOpen":"00:00","holidayClose":"23:59","feeInfo":"무료","phone":"053-665-3012","updatedAt":"2025-07-23","sido":"대구광역시","sigungu":"북구","dong":"노원동3가"},{"name":"태암로6길인근","type":"공영","category":"노상","address":"대구광역시 북구 태전동 1045","lat":35.92732892,"lng":128.5497322,"totalSpaces":42,"isFree":true,"operatingDays":"평일+토요일+공휴일","weekdayOpen":"00:00","weekdayClose":"23:59","weekendOpen":"00:00","weekendClose":"23:59","holidayOpen":"00:00","holidayClose":"23:59","feeInfo":"무료","phone":"053-665-3012","updatedAt":"2025-07-23","sido":"대구광역시","sigungu":"북구","dong":"태전동"},{"name":"유통단지로21길인근","type":"공영","category":"노상","address":"대구광역시 북구 유통단지로13길 8","lat":35.90868017,"lng":128.6104761,"totalSpaces":42,"isFree":true,"operatingDays":"평일+토요일+공휴일","weekdayOpen":"00:00","weekdayClose":"23:59","weekendOpen":"00:00","weekendClose":"23:59","holidayOpen":"00:00","holidayClose":"23:59","feeInfo":"무료","phone":"053-803-4882","updatedAt":"2025-07-23","sido":"대구광역시","sigungu":"북구","dong":"산격동"},{"name":"노원로25길인근","type":"공영","category":"노상","address":"대구광역시 북구 팔달로 105","lat":35.8898311,"lng":128.5610742,"totalSpaces":41,"isFree":true,"operatingDays":"평일+토요일+공휴일","weekdayOpen":"00:00","weekdayClose":"23:59","weekendOpen":"00:00","weekendClose":"23:59","holidayOpen":"00:00","holidayClose":"23:59","feeInfo":"무료","phone":"053-665-3012","updatedAt":"2025-07-23","sido":"대구광역시","sigungu":"북구","dong":"노원동3가"},{"name":"노원로인근4","type":"공영","category":"노상","address":"대구광역시 북구 팔달로 105","lat":35.8898311,"lng":128.5610742,"totalSpaces":41,"isFree":true,"operatingDays":"평일+토요일+공휴일","weekdayOpen":"00:00","weekdayClose":"23:59","weekendOpen":"00:00","weekendClose":"23:59","holidayOpen":"00:00","holidayClose":"23:59","feeInfo":"무료","phone":"053-803-4882","updatedAt":"2025-07-23","sido":"대구광역시","sigungu":"북구","dong":"노원동3가"},{"name":"대구체육관로9길인근","type":"공영","category":"노상","address":"대구광역시 북구 대구체육관로 39","lat":35.89375613,"lng":128.6030093,"totalSpaces":41,"isFree":true,"operatingDays":"평일+토요일+공휴일","weekdayOpen":"00:00","weekdayClose":"23:59","weekendOpen":"00:00","weekendClose":"23:59","holidayOpen":"00:00","holidayClose":"23:59","feeInfo":"무료","phone":"053-665-3012","updatedAt":"2025-07-23","sido":"대구광역시","sigungu":"북구","dong":"산격동"},{"name":"팔달북로7길인근","type":"공영","category":"노상","address":"대구광역시 북구 팔달로 105","lat":35.8898311,"lng":128.5610742,"totalSpaces":41,"isFree":true,"operatingDays":"평일+토요일+공휴일","weekdayOpen":"00:00","weekdayClose":"23:59","weekendOpen":"00:00","weekendClose":"23:59","holidayOpen":"00:00","holidayClose":"23:59","feeInfo":"무료","phone":"053-665-3012","updatedAt":"2025-07-23","sido":"대구광역시","sigungu":"북구","dong":"노원동3가"},{"name":"태암로3길인근","type":"공영","category":"노상","address":"대구광역시 북구 태전동 1019","lat":35.92905631,"lng":128.5496267,"totalSpaces":41,"isFree":true,"operatingDays":"평일+토요일+공휴일","weekdayOpen":"00:00","weekdayClose":"23:59","weekendOpen":"00:00","weekendClose":"23:59","holidayOpen":"00:00","holidayClose":"23:59","feeInfo":"무료","phone":"053-665-3012","updatedAt":"2025-07-23","sido":"대구광역시","sigungu":"북구","dong":"태전동"},{"name":"구암로인근","type":"공영","category":"노상","address":"대구광역시 북구 구암동 839","lat":35.93156108,"lng":128.563146,"totalSpaces":40,"isFree":true,"operatingDays":"평일+토요일+공휴일","weekdayOpen":"00:00","weekdayClose":"23:59","weekendOpen":"00:00","weekendClose":"23:59","holidayOpen":"00:00","holidayClose":"23:59","feeInfo":"무료","phone":"053-803-4882","updatedAt":"2025-07-23","sido":"대구광역시","sigungu":"북구","dong":"구암동"},{"name":"경명여고앞","type":"공영","category":"노외","address":"대구광역시 북구 칠성로17길 18 (경명여자중고등학교)","lat":35.88072859,"lng":128.5984327,"totalSpaces":40,"isFree":true,"operatingDays":"평일+토요일+공휴일","weekdayOpen":"00:00","weekdayClose":"23:59","weekendOpen":"00:00","weekendClose":"23:59","holidayOpen":"00:00","holidayClose":"23:59","feeInfo":"무료","phone":"053-665-3012","updatedAt":"2025-07-23","sido":"대구광역시","sigungu":"북구","dong":"칠성동2가"},{"name":"태암교(동편)","type":"공영","category":"노상","address":"대구광역시 북구 구암동 714","lat":35.92741005,"lng":128.556086,"totalSpaces":39,"isFree":true,"operatingDays":"평일+토요일+공휴일","weekdayOpen":"00:00","weekdayClose":"23:59","weekendOpen":"00:00","weekendClose":"23:59","holidayOpen":"00:00","holidayClose":"23:59","feeInfo":"무료","phone":"053-803-4882","updatedAt":"2025-07-23","sido":"대구광역시","sigungu":"북구","dong":"구암동"},{"name":"칠곡중앙대로86길인근","type":"공영","category":"노상","address":"대구광역시 북구 읍내동 1378","lat":35.93325493,"lng":128.5518879,"totalSpaces":39,"isFree":true,"operatingDays":"평일+토요일+공휴일","weekdayOpen":"00:00","weekdayClose":"23:59","weekendOpen":"00:00","weekendClose":"23:59","holidayOpen":"00:00","holidayClose":"23:59","feeInfo":"무료","phone":"053-665-3012","updatedAt":"2025-07-23","sido":"대구광역시","sigungu":"북구","dong":"읍내동"},{"name":"성북로9길인근","type":"공영","category":"노상","address":"대구광역시 북구 침산동 339-2","lat":35.89128415,"lng":128.5890054,"totalSpaces":39,"isFree":true,"operatingDays":"평일+토요일+공휴일","weekdayOpen":"00:00","weekdayClose":"23:59","weekendOpen":"00:00","weekendClose":"23:59","holidayOpen":"00:00","holidayClose":"23:59","feeInfo":"무료","phone":"053-665-3012","updatedAt":"2025-07-23","sido":"대구광역시","sigungu":"북구","dong":"침산동"},{"name":"동북로57길인근","type":"공영","category":"노상","address":"대구광역시 북구 복현동 623","lat":35.89526277,"lng":128.6213799,"totalSpaces":39,"isFree":true,"operatingDays":"평일+토요일+공휴일","weekdayOpen":"00:00","weekdayClose":"23:59","weekendOpen":"00:00","weekendClose":"23:59","holidayOpen":"00:00","holidayClose":"23:59","feeInfo":"무료","phone":"053-665-3012","updatedAt":"2025-07-23","sido":"대구광역시","sigungu":"북구","dong":"복현동"},{"name":"노원로인근3","type":"공영","category":"노상","address":"대구광역시 북구 팔달로 105","lat":35.8898311,"lng":128.5610742,"totalSpaces":38,"isFree":true,"operatingDays":"평일+토요일+공휴일","weekdayOpen":"00:00","weekdayClose":"23:59","weekendOpen":"00:00","weekendClose":"23:59","holidayOpen":"00:00","holidayClose":"23:59","feeInfo":"무료","phone":"053-803-4882","updatedAt":"2025-07-23","sido":"대구광역시","sigungu":"북구","dong":"노원동3가"},{"name":"대현로9길인근","type":"공영","category":"노상","address":"대구광역시 북구 대학로 80","lat":35.88909849,"lng":128.6143217,"totalSpaces":38,"isFree":true,"operatingDays":"평일+토요일+공휴일","weekdayOpen":"00:00","weekdayClose":"23:59","weekendOpen":"00:00","weekendClose":"23:59","holidayOpen":"00:00","holidayClose":"23:59","feeInfo":"무료","phone":"053-665-3012","updatedAt":"2025-07-23","sido":"대구광역시","sigungu":"북구","dong":"산격동"},{"name":"노원로17길인근","type":"공영","category":"노상","address":"대구광역시 북구 팔달로 105","lat":35.8898311,"lng":128.5610742,"totalSpaces":37,"isFree":true,"operatingDays":"평일+토요일+공휴일","weekdayOpen":"00:00","weekdayClose":"23:59","weekendOpen":"00:00","weekendClose":"23:59","holidayOpen":"00:00","holidayClose":"23:59","feeInfo":"무료","phone":"053-665-3012","updatedAt":"2025-07-23","sido":"대구광역시","sigungu":"북구","dong":"노원동3가"},{"name":"구암로17길인근","type":"공영","category":"노상","address":"대구광역시 북구 읍내동 1368","lat":35.93360968,"lng":128.5506549,"totalSpaces":37,"isFree":true,"operatingDays":"평일+토요일+공휴일","weekdayOpen":"00:00","weekdayClose":"23:59","weekendOpen":"00:00","weekendClose":"23:59","holidayOpen":"00:00","holidayClose":"23:59","feeInfo":"무료","phone":"053-665-3012","updatedAt":"2025-07-23","sido":"대구광역시","sigungu":"북구","dong":"읍내동"},{"name":"동북로53길인근","type":"공영","category":"노상","address":"대구광역시 북구 동북로57길 9","lat":35.89461348,"lng":128.6220753,"totalSpaces":37,"isFree":true,"operatingDays":"평일+토요일+공휴일","weekdayOpen":"00:00","weekdayClose":"23:59","weekendOpen":"00:00","weekendClose":"23:59","holidayOpen":"00:00","holidayClose":"23:59","feeInfo":"무료","phone":"053-665-3012","updatedAt":"2025-07-23","sido":"대구광역시","sigungu":"북구","dong":"복현동"},{"name":"팔거천서로35길인근","type":"공영","category":"노상","address":"대구광역시 북구 팔거천서로 181","lat":35.94037563,"lng":128.5565536,"totalSpaces":35,"isFree":true,"operatingDays":"평일+토요일+공휴일","weekdayOpen":"00:00","weekdayClose":"23:59","weekendOpen":"00:00","weekendClose":"23:59","holidayOpen":"00:00","holidayClose":"23:59","feeInfo":"무료","phone":"053-665-3012","updatedAt":"2025-07-23","sido":"대구광역시","sigungu":"북구","dong":"읍내동"},{"name":"연암공원로32길인근","type":"공영","category":"노상","address":"대구광역시 북구 연암공원로32길 1","lat":35.90140838,"lng":128.6065689,"totalSpaces":34,"isFree":true,"operatingDays":"평일+토요일+공휴일","weekdayOpen":"00:00","weekdayClose":"23:59","weekendOpen":"00:00","weekendClose":"23:59","holidayOpen":"00:00","holidayClose":"23:59","feeInfo":"무료","phone":"053-665-3012","updatedAt":"2025-07-23","sido":"대구광역시","sigungu":"북구","dong":"산격동"},{"name":"경대로5길인근","type":"공영","category":"노상","address":"대구광역시 북구 경대로5길 4","lat":35.88474855,"lng":128.6131925,"totalSpaces":33,"isFree":true,"operatingDays":"평일+토요일+공휴일","weekdayOpen":"00:00","weekdayClose":"23:59","weekendOpen":"00:00","weekendClose":"23:59","holidayOpen":"00:00","holidayClose":"23:59","feeInfo":"무료","phone":"053-665-3012","updatedAt":"2025-07-23","sido":"대구광역시","sigungu":"북구","dong":"대현동"},{"name":"태암로5길인근","type":"공영","category":"노상","address":"대구광역시 북구 태전동 1026","lat":35.92945364,"lng":128.5514477,"totalSpaces":33,"isFree":true,"operatingDays":"평일+토요일+공휴일","weekdayOpen":"00:00","weekdayClose":"23:59","weekendOpen":"00:00","weekendClose":"23:59","holidayOpen":"00:00","holidayClose":"23:59","feeInfo":"무료","phone":"053-665-3012","updatedAt":"2025-07-23","sido":"대구광역시","sigungu":"북구","dong":"태전동"},{"name":"대학로인근","type":"공영","category":"노상","address":"대구광역시 북구 산격동 1319-1","lat":35.89285578,"lng":128.6098518,"totalSpaces":33,"isFree":true,"operatingDays":"평일+토요일+공휴일","weekdayOpen":"00:00","weekdayClose":"23:59","weekendOpen":"00:00","weekendClose":"23:59","holidayOpen":"00:00","holidayClose":"23:59","feeInfo":"무료","phone":"053-803-4882","updatedAt":"2025-07-23","sido":"대구광역시","sigungu":"북구","dong":"산격동"},{"name":"칠성로17길인근","type":"공영","category":"노상","address":"대구광역시 북구 침산동 163-8","lat":35.88152381,"lng":128.5975294,"totalSpaces":32,"isFree":true,"operatingDays":"평일+토요일+공휴일","weekdayOpen":"00:00","weekdayClose":"23:59","weekendOpen":"00:00","weekendClose":"23:59","holidayOpen":"00:00","holidayClose":"23:59","feeInfo":"무료","phone":"053-665-3012","updatedAt":"2025-07-23","sido":"대구광역시","sigungu":"북구","dong":"침산동"},{"name":"태암로2길인근","type":"공영","category":"노상","address":"대구광역시 북구 태전동 1039","lat":35.92771303,"lng":128.5482365,"totalSpaces":31,"isFree":true,"operatingDays":"평일+토요일+공휴일","weekdayOpen":"00:00","weekdayClose":"23:59","weekendOpen":"00:00","weekendClose":"23:59","holidayOpen":"00:00","holidayClose":"23:59","feeInfo":"무료","phone":"053-665-3012","updatedAt":"2025-07-23","sido":"대구광역시","sigungu":"북구","dong":"태전동"},{"name":"원대로25길인근","type":"공영","category":"노상","address":"대구광역시 북구 노원동1가 19-6","lat":35.88803765,"lng":128.5827721,"totalSpaces":31,"isFree":true,"operatingDays":"평일+토요일+공휴일","weekdayOpen":"00:00","weekdayClose":"23:59","weekendOpen":"00:00","weekendClose":"23:59","holidayOpen":"00:00","holidayClose":"23:59","feeInfo":"무료","phone":"053-665-3012","updatedAt":"2025-07-23","sido":"대구광역시","sigungu":"북구","dong":"노원동1가"},{"name":"대현로서15길인근","type":"공영","category":"노상","address":"대구광역시 북구 대현동 526","lat":35.88659565,"lng":128.6055917,"totalSpaces":31,"isFree":true,"operatingDays":"평일+토요일+공휴일","weekdayOpen":"00:00","weekdayClose":"23:59","weekendOpen":"00:00","weekendClose":"23:59","holidayOpen":"00:00","holidayClose":"23:59","feeInfo":"무료","phone":"053-665-3012","updatedAt":"2025-07-23","sido":"대구광역시","sigungu":"북구","dong":"대현동"},{"name":"침산로인근","type":"공영","category":"노상","address":"대구광역시 북구 노원로 241","lat":35.9015759,"lng":128.5860551,"totalSpaces":30,"isFree":true,"operatingDays":"평일+토요일+공휴일","weekdayOpen":"00:00","weekdayClose":"23:59","weekendOpen":"00:00","weekendClose":"23:59","holidayOpen":"00:00","holidayClose":"23:59","feeInfo":"무료","phone":"053-803-4882","updatedAt":"2025-07-23","sido":"대구광역시","sigungu":"북구","dong":"침산동"},{"name":"칠곡중앙대로80길인근","type":"공영","category":"노상","address":"대구광역시 북구 태전동 1002","lat":35.9302193,"lng":128.5512419,"totalSpaces":30,"isFree":true,"operatingDays":"평일+토요일+공휴일","weekdayOpen":"00:00","weekdayClose":"23:59","weekendOpen":"00:00","weekendClose":"23:59","holidayOpen":"00:00","holidayClose":"23:59","feeInfo":"무료","phone":"053-665-3012","updatedAt":"2025-07-23","sido":"대구광역시","sigungu":"북구","dong":"태전동"},{"name":"대현로21길인근","type":"공영","category":"노상","address":"대구광역시 북구 대현동 112-44","lat":35.88364984,"lng":128.6113254,"totalSpaces":30,"isFree":true,"operatingDays":"평일+토요일+공휴일","weekdayOpen":"00:00","weekdayClose":"23:59","weekendOpen":"00:00","weekendClose":"23:59","holidayOpen":"00:00","holidayClose":"23:59","feeInfo":"무료","phone":"053-665-3012","updatedAt":"2025-07-23","sido":"대구광역시","sigungu":"북구","dong":"대현동"},{"name":"검단동로인근","type":"공영","category":"노상","address":"대구광역시 북구 검단동 745-2","lat":35.91386279,"lng":128.6252151,"totalSpaces":29,"isFree":true,"operatingDays":"평일+토요일+공휴일","weekdayOpen":"00:00","weekdayClose":"23:59","weekendOpen":"00:00","weekendClose":"23:59","holidayOpen":"00:00","holidayClose":"23:59","feeInfo":"무료","phone":"053-665-3012","updatedAt":"2025-07-23","sido":"대구광역시","sigungu":"북구","dong":"검단동"},{"name":"우편집중국서편(공영)","type":"공영","category":"노외","address":"대구광역시 북구 유통단지로21길 16","lat":35.9102388,"lng":128.612293,"totalSpaces":29,"isFree":true,"operatingDays":"평일+토요일+공휴일","weekdayOpen":"00:00","weekdayClose":"23:59","weekendOpen":"00:00","weekendClose":"23:59","holidayOpen":"00:00","holidayClose":"23:59","feeInfo":"무료","phone":"053-803-3211","updatedAt":"2025-07-23","sido":"대구광역시","sigungu":"북구","dong":"산격동"},{"name":"대천로9길인근","type":"공영","category":"노상","address":"대구광역시 북구 읍내동 1352","lat":35.93916208,"lng":128.5550213,"totalSpaces":28,"isFree":true,"operatingDays":"평일+토요일+공휴일","weekdayOpen":"00:00","weekdayClose":"23:59","weekendOpen":"00:00","weekendClose":"23:59","holidayOpen":"00:00","holidayClose":"23:59","feeInfo":"무료","phone":"053-665-3012","updatedAt":"2025-07-23","sido":"대구광역시","sigungu":"북구","dong":"읍내동"},{"name":"옥산로5길인근","type":"공영","category":"노상","address":"대구광역시 북구 노원동1가 529","lat":35.88623358,"lng":128.5824381,"totalSpaces":28,"isFree":true,"operatingDays":"평일+토요일+공휴일","weekdayOpen":"00:00","weekdayClose":"23:59","weekendOpen":"00:00","weekendClose":"23:59","holidayOpen":"00:00","holidayClose":"23:59","feeInfo":"무료","phone":"053-665-3012","updatedAt":"2025-07-23","sido":"대구광역시","sigungu":"북구","dong":"노원동1가"},{"name":"옥산로9길인근","type":"공영","category":"노상","address":"대구광역시 북구 노원동1가 15-19","lat":35.88774255,"lng":128.581892,"totalSpaces":28,"isFree":true,"operatingDays":"평일+토요일+공휴일","weekdayOpen":"00:00","weekdayClose":"23:59","weekendOpen":"00:00","weekendClose":"23:59","holidayOpen":"00:00","holidayClose":"23:59","feeInfo":"무료","phone":"053-665-3012","updatedAt":"2025-07-23","sido":"대구광역시","sigungu":"북구","dong":"노원동1가"},{"name":"관은동로32길인근","type":"공영","category":"노상","address":"대구광역시 북구 관음중앙로29길 5-18","lat":35.94592832,"lng":128.5477642,"totalSpaces":27,"isFree":true,"operatingDays":"평일+토요일+공휴일","weekdayOpen":"00:00","weekdayClose":"23:59","weekendOpen":"00:00","weekendClose":"23:59","holidayOpen":"00:00","holidayClose":"23:59","feeInfo":"무료","phone":"053-665-3012","updatedAt":"2025-07-23","sido":"대구광역시","sigungu":"북구","dong":"읍내동"},{"name":"팔달로37길인근","type":"공영","category":"노상","address":"대구광역시 북구 노원동2가 1","lat":35.88778066,"lng":128.5743938,"totalSpaces":27,"isFree":true,"operatingDays":"평일+토요일+공휴일","weekdayOpen":"00:00","weekdayClose":"23:59","weekendOpen":"00:00","weekendClose":"23:59","holidayOpen":"00:00","holidayClose":"23:59","feeInfo":"무료","phone":"053-665-3012","updatedAt":"2025-07-23","sido":"대구광역시","sigungu":"북구","dong":"노원동2가"},{"name":"관음중앙로17길인근","type":"공영","category":"노상","address":"대구광역시 북구 관음동 1244","lat":35.94447693,"lng":128.5435674,"totalSpaces":26,"isFree":true,"operatingDays":"평일+토요일+공휴일","weekdayOpen":"00:00","weekdayClose":"23:59","weekendOpen":"00:00","weekendClose":"23:59","holidayOpen":"00:00","holidayClose":"23:59","feeInfo":"무료","phone":"053-665-3012","updatedAt":"2025-07-23","sido":"대구광역시","sigungu":"북구","dong":"관음동"},{"name":"동천동복합청사공영","type":"공영","category":"노외","address":"대구광역시 북구 대천로 81","lat":35.93733721,"lng":128.5581853,"totalSpaces":25,"isFree":true,"operatingDays":"평일+토요일+공휴일","weekdayOpen":"00:00","weekdayClose":"23:59","weekendOpen":"00:00","weekendClose":"23:59","holidayOpen":"00:00","holidayClose":"23:59","feeInfo":"무료","phone":"053-665-3012","updatedAt":"2025-07-23","sido":"대구광역시","sigungu":"북구","dong":"동천동"},{"name":"태암남로1길인근","type":"공영","category":"노상","address":"대구광역시 북구 태전동 1041","lat":35.92761837,"lng":128.5486904,"totalSpaces":25,"isFree":true,"operatingDays":"평일+토요일+공휴일","weekdayOpen":"00:00","weekdayClose":"23:59","weekendOpen":"00:00","weekendClose":"23:59","holidayOpen":"00:00","holidayClose":"23:59","feeInfo":"무료","phone":"053-665-3012","updatedAt":"2025-07-23","sido":"대구광역시","sigungu":"북구","dong":"태전동"},{"name":"태암로4길인근","type":"공영","category":"노상","address":"대구광역시 북구 태전동 1043","lat":35.92757107,"lng":128.5491776,"totalSpaces":25,"isFree":true,"operatingDays":"평일+토요일+공휴일","weekdayOpen":"00:00","weekdayClose":"23:59","weekendOpen":"00:00","weekendClose":"23:59","holidayOpen":"00:00","holidayClose":"23:59","feeInfo":"무료","phone":"053-665-3012","updatedAt":"2025-07-23","sido":"대구광역시","sigungu":"북구","dong":"태전동"},{"name":"옥산로인근(북구)","type":"공영","category":"노상","address":"대구광역시 북구 고성북로 50-2","lat":35.88408994,"lng":128.5841447,"totalSpaces":25,"isFree":true,"operatingDays":"평일+토요일+공휴일","weekdayOpen":"00:00","weekdayClose":"23:59","weekendOpen":"00:00","weekendClose":"23:59","holidayOpen":"00:00","holidayClose":"23:59","feeInfo":"무료","phone":"053-803-4882","updatedAt":"2025-07-23","sido":"대구광역시","sigungu":"북구","dong":"고성동3가"},{"name":"원대로19길인근","type":"공영","category":"노상","address":"대구광역시 북구 원대로19길 13","lat":35.88623316,"lng":128.580491,"totalSpaces":25,"isFree":true,"operatingDays":"평일+토요일+공휴일","weekdayOpen":"00:00","weekdayClose":"23:59","weekendOpen":"00:00","weekendClose":"23:59","holidayOpen":"00:00","holidayClose":"23:59","feeInfo":"무료","phone":"053-665-3012","updatedAt":"2025-07-23","sido":"대구광역시","sigungu":"북구","dong":"노원동1가"},{"name":"산격로9길인근","type":"공영","category":"노상","address":"대구광역시 북구 산격동 1426-52","lat":35.89470794,"lng":128.6044361,"totalSpaces":24,"isFree":true,"operatingDays":"평일+토요일+공휴일","weekdayOpen":"00:00","weekdayClose":"23:59","weekendOpen":"00:00","weekendClose":"23:59","holidayOpen":"00:00","holidayClose":"23:59","feeInfo":"무료","phone":"053-665-3012","updatedAt":"2025-07-23","sido":"대구광역시","sigungu":"북구","dong":"산격동"},{"name":"북부소방서뒤편","type":"공영","category":"노상","address":"대구광역시 북구 칠성동2가 302-93","lat":35.87724893,"lng":128.5926647,"totalSpaces":24,"isFree":true,"operatingDays":"평일+토요일+공휴일","weekdayOpen":"00:00","weekdayClose":"23:59","weekendOpen":"00:00","weekendClose":"23:59","holidayOpen":"00:00","holidayClose":"23:59","feeInfo":"무료","phone":"053-665-3012","updatedAt":"2025-07-23","sido":"대구광역시","sigungu":"북구","dong":"칠성동2가"},{"name":"대구역북편","type":"공영","category":"노상","address":"대구광역시 북구 칠성동2가 490-1","lat":35.87733319,"lng":128.5964617,"totalSpaces":23,"isFree":true,"operatingDays":"평일+토요일+공휴일","weekdayOpen":"00:00","weekdayClose":"23:59","weekendOpen":"00:00","weekendClose":"23:59","holidayOpen":"00:00","holidayClose":"23:59","feeInfo":"무료","phone":"053-803-4882","updatedAt":"2025-07-23","sido":"대구광역시","sigungu":"북구","dong":"칠성동2가"},{"name":"백사벌네거리(북편)","type":"공영","category":"노상","address":"대구광역시 북구 침산동 1208","lat":35.89836118,"lng":128.5793092,"totalSpaces":23,"isFree":true,"operatingDays":"평일+토요일+공휴일","weekdayOpen":"00:00","weekdayClose":"23:59","weekendOpen":"00:00","weekendClose":"23:59","holidayOpen":"00:00","holidayClose":"23:59","feeInfo":"무료","phone":"053-803-4882","updatedAt":"2025-07-23","sido":"대구광역시","sigungu":"북구","dong":"침산동"},{"name":"임시공영(복현1동)1","type":"공영","category":"노외","address":"대구광역시 북구 경대로17길 78","lat":35.89503549,"lng":128.6140324,"totalSpaces":23,"isFree":true,"operatingDays":"평일+토요일+공휴일","weekdayOpen":"00:00","weekdayClose":"23:59","weekendOpen":"00:00","weekendClose":"23:59","holidayOpen":"00:00","holidayClose":"23:59","feeInfo":"무료","phone":"053-665-3012","updatedAt":"2025-07-23","sido":"대구광역시","sigungu":"북구","dong":"복현동"},{"name":"임시공영(복현1동)2","type":"공영","category":"노외","address":"대구광역시 북구 경대로서19길 31","lat":35.8906191,"lng":128.6162748,"totalSpaces":23,"isFree":true,"operatingDays":"평일+토요일+공휴일","weekdayOpen":"00:00","weekdayClose":"23:59","weekendOpen":"00:00","weekendClose":"23:59","holidayOpen":"00:00","holidayClose":"23:59","feeInfo":"무료","phone":"053-665-3012","updatedAt":"2025-07-23","sido":"대구광역시","sigungu":"북구","dong":""},{"name":"노원네거리(북편)","type":"공영","category":"노상","address":"대구광역시 북구 침산동 1208","lat":35.89836118,"lng":128.5793092,"totalSpaces":22,"isFree":true,"operatingDays":"평일+토요일+공휴일","weekdayOpen":"00:00","weekdayClose":"23:59","weekendOpen":"00:00","weekendClose":"23:59","holidayOpen":"00:00","holidayClose":"23:59","feeInfo":"무료","phone":"053-803-4882","updatedAt":"2025-07-23","sido":"대구광역시","sigungu":"북구","dong":"침산동"},{"name":"송원","type":"민영","category":"노외","address":"대구광역시 북구 동천로 125-14","lat":35.94325188,"lng":128.5593616,"totalSpaces":22,"isFree":true,"operatingDays":"평일+토요일+공휴일","weekdayOpen":"00:00","weekdayClose":"23:59","weekendOpen":"00:00","weekendClose":"23:59","holidayOpen":"00:00","holidayClose":"23:59","feeInfo":"무료","phone":"053-665-3012","updatedAt":"2025-07-23","sido":"대구광역시","sigungu":"북구","dong":"동천동"},{"name":"팔달북로2길인근","type":"공영","category":"노상","address":"대구광역시 북구 팔달로 105","lat":35.8898311,"lng":128.5610742,"totalSpaces":21,"isFree":true,"operatingDays":"평일+토요일+공휴일","weekdayOpen":"00:00","weekdayClose":"23:59","weekendOpen":"00:00","weekendClose":"23:59","holidayOpen":"00:00","holidayClose":"23:59","feeInfo":"무료","phone":"053-665-3012","updatedAt":"2025-07-23","sido":"대구광역시","sigungu":"북구","dong":"노원동3가"},{"name":"구암로16길인근","type":"공영","category":"노상","address":"대구광역시 북구 태전동 996","lat":35.9320619,"lng":128.5491495,"totalSpaces":20,"isFree":true,"operatingDays":"평일+토요일+공휴일","weekdayOpen":"00:00","weekdayClose":"23:59","weekendOpen":"00:00","weekendClose":"23:59","holidayOpen":"00:00","holidayClose":"23:59","feeInfo":"무료","phone":"053-665-3012","updatedAt":"2025-07-23","sido":"대구광역시","sigungu":"북구","dong":"태전동"},{"name":"노곡로인근","type":"공영","category":"노상","address":"대구광역시 북구 노곡동 282-1","lat":35.90515004,"lng":128.5629623,"totalSpaces":20,"isFree":true,"operatingDays":"평일+토요일+공휴일","weekdayOpen":"00:00","weekdayClose":"23:59","weekendOpen":"00:00","weekendClose":"23:59","holidayOpen":"00:00","holidayClose":"23:59","feeInfo":"무료","phone":"053-665-3012","updatedAt":"2025-07-23","sido":"대구광역시","sigungu":"북구","dong":"노곡동"},{"name":"경대로7길인근","type":"공영","category":"노상","address":"대구광역시 북구 대현로9길 20-1","lat":35.88659565,"lng":128.6055917,"totalSpaces":19,"isFree":true,"operatingDays":"평일+토요일+공휴일","weekdayOpen":"00:00","weekdayClose":"23:59","weekendOpen":"00:00","weekendClose":"23:59","holidayOpen":"00:00","holidayClose":"23:59","feeInfo":"무료","phone":"053-665-3012","updatedAt":"2025-07-23","sido":"대구광역시","sigungu":"북구","dong":"대현동"},{"name":"중앙대로118길인근","type":"공영","category":"노상","address":"대구광역시 북구 중앙대로118길 46","lat":35.88338799,"lng":128.5987608,"totalSpaces":19,"isFree":true,"operatingDays":"평일+토요일+공휴일","weekdayOpen":"00:00","weekdayClose":"23:59","weekendOpen":"00:00","weekendClose":"23:59","holidayOpen":"00:00","holidayClose":"23:59","feeInfo":"무료","phone":"053-665-3012","updatedAt":"2025-07-23","sido":"대구광역시","sigungu":"북구","dong":"침산동"},{"name":"오봉로7길인근","type":"공영","category":"노상","address":"대구광역시 북구 노원동2가 1","lat":35.88778066,"lng":128.5743938,"totalSpaces":19,"isFree":true,"operatingDays":"평일+토요일+공휴일","weekdayOpen":"00:00","weekdayClose":"23:59","weekendOpen":"00:00","weekendClose":"23:59","holidayOpen":"00:00","holidayClose":"23:59","feeInfo":"무료","phone":"053-665-3012","updatedAt":"2025-07-23","sido":"대구광역시","sigungu":"북구","dong":"노원동2가"},{"name":"동천교인근","type":"공영","category":"노상","address":"대구광역시 북구 구암동 761-2","lat":35.93168424,"lng":128.5550631,"totalSpaces":19,"isFree":true,"operatingDays":"평일+토요일+공휴일","weekdayOpen":"00:00","weekdayClose":"23:59","weekendOpen":"00:00","weekendClose":"23:59","holidayOpen":"00:00","holidayClose":"23:59","feeInfo":"무료","phone":"053-803-4882","updatedAt":"2025-07-23","sido":"대구광역시","sigungu":"북구","dong":"구암동"},{"name":"대학로25길인근","type":"공영","category":"노상","address":"대구광역시 북구 산격동 1499-1","lat":35.89377375,"lng":128.6090629,"totalSpaces":19,"isFree":true,"operatingDays":"평일+토요일+공휴일","weekdayOpen":"00:00","weekdayClose":"23:59","weekendOpen":"00:00","weekendClose":"23:59","holidayOpen":"00:00","holidayClose":"23:59","feeInfo":"무료","phone":"053-665-3012","updatedAt":"2025-07-23","sido":"대구광역시","sigungu":"북구","dong":"산격동"},{"name":"칠성동2가(공영)","type":"공영","category":"노외","address":"대구광역시 북구 칠성로19길 4","lat":35.879228,"lng":128.600019,"totalSpaces":19,"isFree":true,"operatingDays":"평일+토요일+공휴일","weekdayOpen":"08:00","weekdayClose":"20:00","weekendOpen":"08:00","weekendClose":"20:00","holidayOpen":"08:00","holidayClose":"20:00","feeInfo":"무료","phone":"053-665-3012","updatedAt":"2025-07-23","sido":"대구광역시","sigungu":"북구","dong":"칠성동2가"},{"name":"침산남로39길인근","type":"공영","category":"노상","address":"대구광역시 북구 침산남로 195","lat":35.8872637,"lng":128.596993,"totalSpaces":18,"isFree":true,"operatingDays":"평일+토요일+공휴일","weekdayOpen":"00:00","weekdayClose":"23:59","weekendOpen":"00:00","weekendClose":"23:59","holidayOpen":"00:00","holidayClose":"23:59","feeInfo":"무료","phone":"053-665-3012","updatedAt":"2025-07-23","sido":"대구광역시","sigungu":"북구","dong":"침산동"},{"name":"오봉로6길인근","type":"공영","category":"노상","address":"대구광역시 북구 노원동1가 273","lat":35.88989334,"lng":128.5776761,"totalSpaces":18,"isFree":true,"operatingDays":"평일+토요일+공휴일","weekdayOpen":"00:00","weekdayClose":"23:59","weekendOpen":"00:00","weekendClose":"23:59","holidayOpen":"00:00","holidayClose":"23:59","feeInfo":"무료","phone":"053-665-3012","updatedAt":"2025-07-23","sido":"대구광역시","sigungu":"북구","dong":"노원동1가"},{"name":"대구체육관로11길인근","type":"공영","category":"노상","address":"대구광역시 북구 산격동 1499-3","lat":35.89256712,"lng":128.6047409,"totalSpaces":17,"isFree":true,"operatingDays":"평일+토요일+공휴일","weekdayOpen":"00:00","weekdayClose":"23:59","weekendOpen":"00:00","weekendClose":"23:59","holidayOpen":"00:00","holidayClose":"23:59","feeInfo":"무료","phone":"053-665-3012","updatedAt":"2025-07-23","sido":"대구광역시","sigungu":"북구","dong":"산격동"},{"name":"경진로남1길인근","type":"공영","category":"노상","address":"대구광역시 북구 동북로50길 17","lat":35.89378323,"lng":128.616552,"totalSpaces":17,"isFree":true,"operatingDays":"평일+토요일+공휴일","weekdayOpen":"00:00","weekdayClose":"23:59","weekendOpen":"00:00","weekendClose":"23:59","holidayOpen":"00:00","holidayClose":"23:59","feeInfo":"무료","phone":"053-665-3012","updatedAt":"2025-07-23","sido":"대구광역시","sigungu":"북구","dong":"복현동"},{"name":"칠곡중앙대로91길인근","type":"공영","category":"노상","address":"대구광역시 북구 관음동 1359","lat":35.93717123,"lng":128.5447664,"totalSpaces":17,"isFree":true,"operatingDays":"평일+토요일+공휴일","weekdayOpen":"00:00","weekdayClose":"23:59","weekendOpen":"00:00","weekendClose":"23:59","holidayOpen":"00:00","holidayClose":"23:59","feeInfo":"무료","phone":"053-665-3012","updatedAt":"2025-07-23","sido":"대구광역시","sigungu":"북구","dong":"관음동"},{"name":"중앙대로105길인근","type":"공영","category":"노상","address":"대구광역시 북구 칠성동2가 351-9","lat":35.88028319,"lng":128.5948636,"totalSpaces":17,"isFree":true,"operatingDays":"평일+토요일+공휴일","weekdayOpen":"00:00","weekdayClose":"23:59","weekendOpen":"00:00","weekendClose":"23:59","holidayOpen":"00:00","holidayClose":"23:59","feeInfo":"무료","phone":"053-665-3012","updatedAt":"2025-07-23","sido":"대구광역시","sigungu":"북구","dong":"칠성동2가"},{"name":"동북로37길인근","type":"공영","category":"노상","address":"대구광역시 북구 산격동 493-4","lat":35.90025864,"lng":128.6138234,"totalSpaces":17,"isFree":true,"operatingDays":"평일+토요일+공휴일","weekdayOpen":"00:00","weekdayClose":"23:59","weekendOpen":"00:00","weekendClose":"23:59","holidayOpen":"00:00","holidayClose":"23:59","feeInfo":"무료","phone":"053-665-3012","updatedAt":"2025-07-23","sido":"대구광역시","sigungu":"북구","dong":"산격동"},{"name":"임시공영(침산1동)","type":"공영","category":"노외","address":"대구광역시 북구 오봉로18길 39-21","lat":35.89532315,"lng":128.5829465,"totalSpaces":17,"isFree":true,"operatingDays":"평일+토요일+공휴일","weekdayOpen":"00:00","weekdayClose":"23:59","weekendOpen":"00:00","weekendClose":"23:59","holidayOpen":"00:00","holidayClose":"23:59","feeInfo":"무료","phone":"053-665-3012","updatedAt":"2025-07-23","sido":"대구광역시","sigungu":"북구","dong":"침산동"},{"name":"임시공영(팔달동)","type":"공영","category":"노외","address":"대구광역시 북구 작원1길 17-14","lat":35.89818443,"lng":128.5512569,"totalSpaces":17,"isFree":true,"operatingDays":"평일+토요일+공휴일","weekdayOpen":"00:00","weekdayClose":"23:59","weekendOpen":"00:00","weekendClose":"23:59","holidayOpen":"00:00","holidayClose":"23:59","feeInfo":"무료","phone":"053-665-3012","updatedAt":"2025-07-23","sido":"대구광역시","sigungu":"북구","dong":"팔달동"},{"name":"북침산네거리(북편)","type":"공영","category":"노상","address":"대구광역시 북구 침산동 543-4","lat":35.8933016,"lng":128.589964,"totalSpaces":16,"isFree":true,"operatingDays":"평일+토요일+공휴일","weekdayOpen":"00:00","weekdayClose":"23:59","weekendOpen":"00:00","weekendClose":"23:59","holidayOpen":"00:00","holidayClose":"23:59","feeInfo":"무료","phone":"053-803-4882","updatedAt":"2025-07-23","sido":"대구광역시","sigungu":"북구","dong":"침산동"},{"name":"연암공원로10길인근","type":"공영","category":"노상","address":"대구광역시 북구 산격동 1436-10","lat":35.89419058,"lng":128.6011669,"totalSpaces":16,"isFree":true,"operatingDays":"평일+토요일+공휴일","weekdayOpen":"00:00","weekdayClose":"23:59","weekendOpen":"00:00","weekendClose":"23:59","holidayOpen":"00:00","holidayClose":"23:59","feeInfo":"무료","phone":"053-665-3012","updatedAt":"2025-07-23","sido":"대구광역시","sigungu":"북구","dong":"산격동"},{"name":"경진로1길인근","type":"공영","category":"노상","address":"대구광역시 북구 복현동 623","lat":35.89526277,"lng":128.6213799,"totalSpaces":15,"isFree":true,"operatingDays":"평일+토요일+공휴일","weekdayOpen":"00:00","weekdayClose":"23:59","weekendOpen":"00:00","weekendClose":"23:59","holidayOpen":"00:00","holidayClose":"23:59","feeInfo":"무료","phone":"053-665-3012","updatedAt":"2025-07-23","sido":"대구광역시","sigungu":"북구","dong":"복현동"},{"name":"고성북로10길인근","type":"공영","category":"노상","address":"대구광역시 북구 고성북로 50-2","lat":35.88408994,"lng":128.5841447,"totalSpaces":15,"isFree":true,"operatingDays":"평일+토요일+공휴일","weekdayOpen":"00:00","weekdayClose":"23:59","weekendOpen":"00:00","weekendClose":"23:59","holidayOpen":"00:00","holidayClose":"23:59","feeInfo":"무료","phone":"053-665-3012","updatedAt":"2025-07-23","sido":"대구광역시","sigungu":"북구","dong":"고성동3가"},{"name":"칠곡중앙대로75길인근","type":"공영","category":"노상","address":"대구광역시 북구 태전동 962","lat":35.92943275,"lng":128.5458958,"totalSpaces":15,"isFree":true,"operatingDays":"평일+토요일+공휴일","weekdayOpen":"00:00","weekdayClose":"23:59","weekendOpen":"00:00","weekendClose":"23:59","holidayOpen":"00:00","holidayClose":"23:59","feeInfo":"무료","phone":"053-665-3012","updatedAt":"2025-07-23","sido":"대구광역시","sigungu":"북구","dong":"태전동"},{"name":"산격로8길인근","type":"공영","category":"노상","address":"대구광역시 북구 산격동 1499-1","lat":35.89377375,"lng":128.6090629,"totalSpaces":15,"isFree":true,"operatingDays":"평일+토요일+공휴일","weekdayOpen":"00:00","weekdayClose":"23:59","weekendOpen":"00:00","weekendClose":"23:59","holidayOpen":"00:00","holidayClose":"23:59","feeInfo":"무료","phone":"053-665-3012","updatedAt":"2025-07-23","sido":"대구광역시","sigungu":"북구","dong":"산격동"},{"name":"신천동로148길인근","type":"공영","category":"노상","address":"대구광역시 북구 대현동 524","lat":35.88431226,"lng":128.6043496,"totalSpaces":15,"isFree":true,"operatingDays":"평일+토요일+공휴일","weekdayOpen":"00:00","weekdayClose":"23:59","weekendOpen":"00:00","weekendClose":"23:59","holidayOpen":"00:00","holidayClose":"23:59","feeInfo":"무료","phone":"053-665-3012","updatedAt":"2025-07-23","sido":"대구광역시","sigungu":"북구","dong":"대현동"},{"name":"연암공원로인근","type":"공영","category":"노상","address":"대구광역시 북구 산격동 975-2","lat":35.89154926,"lng":128.5959824,"totalSpaces":15,"isFree":true,"operatingDays":"평일+토요일+공휴일","weekdayOpen":"00:00","weekdayClose":"23:59","weekendOpen":"00:00","weekendClose":"23:59","holidayOpen":"00:00","holidayClose":"23:59","feeInfo":"무료","phone":"053-665-3012","updatedAt":"2025-07-23","sido":"대구광역시","sigungu":"북구","dong":"산격동"},{"name":"대현남로8길인근","type":"공영","category":"노상","address":"대구광역시 북구 대현동 272-27","lat":35.88180651,"lng":128.6069871,"totalSpaces":15,"isFree":true,"operatingDays":"평일+토요일+공휴일","weekdayOpen":"00:00","weekdayClose":"23:59","weekendOpen":"00:00","weekendClose":"23:59","holidayOpen":"00:00","holidayClose":"23:59","feeInfo":"무료","phone":"053-665-3012","updatedAt":"2025-07-23","sido":"대구광역시","sigungu":"북구","dong":"대현동"},{"name":"대구체육관로10길인근","type":"공영","category":"노상","address":"대구광역시 북구 대구체육관로10길 26","lat":35.8914535,"lng":128.6038566,"totalSpaces":14,"isFree":true,"operatingDays":"평일+토요일+공휴일","weekdayOpen":"00:00","weekdayClose":"23:59","weekendOpen":"00:00","weekendClose":"23:59","holidayOpen":"00:00","holidayClose":"23:59","feeInfo":"무료","phone":"053-665-3012","updatedAt":"2025-07-23","sido":"대구광역시","sigungu":"북구","dong":"산격동"},{"name":"대불로5길인근","type":"공영","category":"노상","address":"대구광역시 북구 산격동 산9-28","lat":35.90238032,"lng":128.6117032,"totalSpaces":14,"isFree":true,"operatingDays":"평일+토요일+공휴일","weekdayOpen":"00:00","weekdayClose":"23:59","weekendOpen":"00:00","weekendClose":"23:59","holidayOpen":"00:00","holidayClose":"23:59","feeInfo":"무료","phone":"053-665-3012","updatedAt":"2025-07-23","sido":"대구광역시","sigungu":"북구","dong":"산격동"},{"name":"침산남로31길인근","type":"공영","category":"노상","address":"대구광역시 북구 침산남로31길 11","lat":35.88869225,"lng":128.5929184,"totalSpaces":14,"isFree":true,"operatingDays":"평일+토요일+공휴일","weekdayOpen":"00:00","weekdayClose":"23:59","weekendOpen":"00:00","weekendClose":"23:59","holidayOpen":"00:00","holidayClose":"23:59","feeInfo":"무료","phone":"053-665-3012","updatedAt":"2025-07-23","sido":"대구광역시","sigungu":"북구","dong":"침산동"},{"name":"대현남로9길인근","type":"공영","category":"노상","address":"대구광역시 북구 대현동 272-27","lat":35.88180651,"lng":128.6069871,"totalSpaces":14,"isFree":true,"operatingDays":"평일+토요일+공휴일","weekdayOpen":"00:00","weekdayClose":"23:59","weekendOpen":"00:00","weekendClose":"23:59","holidayOpen":"00:00","holidayClose":"23:59","feeInfo":"무료","phone":"053-665-3012","updatedAt":"2025-07-23","sido":"대구광역시","sigungu":"북구","dong":"대현동"},{"name":"대현로13길인근","type":"공영","category":"노상","address":"대구광역시 북구 대현동 526","lat":35.88659565,"lng":128.6055917,"totalSpaces":14,"isFree":true,"operatingDays":"평일+토요일+공휴일","weekdayOpen":"00:00","weekdayClose":"23:59","weekendOpen":"00:00","weekendClose":"23:59","holidayOpen":"00:00","holidayClose":"23:59","feeInfo":"무료","phone":"053-665-3012","updatedAt":"2025-07-23","sido":"대구광역시","sigungu":"북구","dong":"대현동"},{"name":"동북로26길인근","type":"공영","category":"노상","address":"대구광역시 북구 산격동 1203-64","lat":35.90049559,"lng":128.6068257,"totalSpaces":14,"isFree":true,"operatingDays":"평일+토요일+공휴일","weekdayOpen":"00:00","weekdayClose":"23:59","weekendOpen":"00:00","weekendClose":"23:59","holidayOpen":"00:00","holidayClose":"23:59","feeInfo":"무료","phone":"053-665-3012","updatedAt":"2025-07-23","sido":"대구광역시","sigungu":"북구","dong":"산격동"},{"name":"복현로북2길인근","type":"공영","category":"노상","address":"대구광역시 북구 복현동 623","lat":35.89526277,"lng":128.6213799,"totalSpaces":14,"isFree":true,"operatingDays":"평일+토요일+공휴일","weekdayOpen":"00:00","weekdayClose":"23:59","weekendOpen":"00:00","weekendClose":"23:59","holidayOpen":"00:00","holidayClose":"23:59","feeInfo":"무료","phone":"053-665-3012","updatedAt":"2025-07-23","sido":"대구광역시","sigungu":"북구","dong":"복현동"},{"name":"대동로9길인근","type":"공영","category":"노상","address":"대구광역시 북구 동북로36길 17-8","lat":35.89720335,"lng":128.6110785,"totalSpaces":13,"isFree":true,"operatingDays":"평일+토요일+공휴일","weekdayOpen":"00:00","weekdayClose":"23:59","weekendOpen":"00:00","weekendClose":"23:59","holidayOpen":"00:00","holidayClose":"23:59","feeInfo":"무료","phone":"053-665-3012","updatedAt":"2025-07-23","sido":"대구광역시","sigungu":"북구","dong":"산격동"},{"name":"오봉로10길인근","type":"공영","category":"노상","address":"대구광역시 북구 노원동1가 273","lat":35.88989334,"lng":128.5776761,"totalSpaces":13,"isFree":true,"operatingDays":"평일+토요일+공휴일","weekdayOpen":"00:00","weekdayClose":"23:59","weekendOpen":"00:00","weekendClose":"23:59","holidayOpen":"00:00","holidayClose":"23:59","feeInfo":"무료","phone":"053-665-3012","updatedAt":"2025-07-23","sido":"대구광역시","sigungu":"북구","dong":"노원동1가"},{"name":"노원로40길인근","type":"공영","category":"노상","address":"대구광역시 북구 침산동 1208","lat":35.89836118,"lng":128.5793092,"totalSpaces":12,"isFree":true,"operatingDays":"평일+토요일+공휴일","weekdayOpen":"00:00","weekdayClose":"23:59","weekendOpen":"00:00","weekendClose":"23:59","holidayOpen":"00:00","holidayClose":"23:59","feeInfo":"무료","phone":"053-665-3012","updatedAt":"2025-07-23","sido":"대구광역시","sigungu":"북구","dong":"침산동"},{"name":"대동로8길인근","type":"공영","category":"노상","address":"대구광역시 북구 대동로8길 9","lat":35.89652368,"lng":128.610032,"totalSpaces":12,"isFree":true,"operatingDays":"평일+토요일+공휴일","weekdayOpen":"00:00","weekdayClose":"23:59","weekendOpen":"00:00","weekendClose":"23:59","holidayOpen":"00:00","holidayClose":"23:59","feeInfo":"무료","phone":"053-665-3012","updatedAt":"2025-07-23","sido":"대구광역시","sigungu":"북구","dong":"산격동"},{"name":"관음동1284-5공영","type":"공영","category":"노외","address":"대구광역시 북구 관음동 1284-5","lat":35.94424575,"lng":128.5471319,"totalSpaces":12,"isFree":true,"operatingDays":"평일+토요일+공휴일","weekdayOpen":"00:00","weekdayClose":"23:59","weekendOpen":"00:00","weekendClose":"23:59","holidayOpen":"00:00","holidayClose":"23:59","feeInfo":"무료","phone":"053-665-3012","updatedAt":"2025-07-23","sido":"대구광역시","sigungu":"북구","dong":"관음동"},{"name":"원대로21길인근","type":"공영","category":"노상","address":"대구광역시 북구 노원동1가 529","lat":35.88623358,"lng":128.5824381,"totalSpaces":12,"isFree":true,"operatingDays":"평일+토요일+공휴일","weekdayOpen":"00:00","weekdayClose":"23:59","weekendOpen":"00:00","weekendClose":"23:59","holidayOpen":"00:00","holidayClose":"23:59","feeInfo":"무료","phone":"053-665-3012","updatedAt":"2025-07-23","sido":"대구광역시","sigungu":"북구","dong":"노원동1가"},{"name":"오봉로1길인근","type":"공영","category":"노상","address":"대구광역시 북구 노원동2가 1","lat":35.88778066,"lng":128.5743938,"totalSpaces":12,"isFree":true,"operatingDays":"평일+토요일+공휴일","weekdayOpen":"00:00","weekdayClose":"23:59","weekendOpen":"00:00","weekendClose":"23:59","holidayOpen":"00:00","holidayClose":"23:59","feeInfo":"무료","phone":"053-665-3012","updatedAt":"2025-07-23","sido":"대구광역시","sigungu":"북구","dong":"노원동2가"},{"name":"신천동로146길인근","type":"공영","category":"노상","address":"대구광역시 북구 대현동 524","lat":35.88431226,"lng":128.6043496,"totalSpaces":12,"isFree":true,"operatingDays":"평일+토요일+공휴일","weekdayOpen":"00:00","weekdayClose":"23:59","weekendOpen":"00:00","weekendClose":"23:59","holidayOpen":"00:00","holidayClose":"23:59","feeInfo":"무료","phone":"053-665-3012","updatedAt":"2025-07-23","sido":"대구광역시","sigungu":"북구","dong":"대현동"},{"name":"관음중앙로7길인근","type":"공영","category":"노상","address":"대구광역시 북구 관음동 1322","lat":35.93823471,"lng":128.5429464,"totalSpaces":11,"isFree":true,"operatingDays":"평일+토요일+공휴일","weekdayOpen":"00:00","weekdayClose":"23:59","weekendOpen":"00:00","weekendClose":"23:59","holidayOpen":"00:00","holidayClose":"23:59","feeInfo":"무료","phone":"053-665-3012","updatedAt":"2025-07-23","sido":"대구광역시","sigungu":"북구","dong":"관음동"},{"name":"노원동로7길","type":"공영","category":"노상","address":"대구광역시 북구 노원동로7길 18","lat":35.89538603,"lng":128.575828,"totalSpaces":11,"isFree":true,"operatingDays":"평일+토요일+공휴일","weekdayOpen":"00:00","weekdayClose":"23:59","weekendOpen":"00:00","weekendClose":"23:59","holidayOpen":"00:00","holidayClose":"23:59","feeInfo":"무료","phone":"053-665-3012","updatedAt":"2025-07-23","sido":"대구광역시","sigungu":"북구","dong":"노원동3가"},{"name":"오봉로1길인근(보성아파트)","type":"공영","category":"노상","address":"대구광역시 북구 노원동2가 1","lat":35.88778066,"lng":128.5743938,"totalSpaces":11,"isFree":true,"operatingDays":"평일+토요일+공휴일","weekdayOpen":"00:00","weekdayClose":"23:59","weekendOpen":"00:00","weekendClose":"23:59","holidayOpen":"00:00","holidayClose":"23:59","feeInfo":"무료","phone":"053-665-3012","updatedAt":"2025-07-23","sido":"대구광역시","sigungu":"북구","dong":"노원동2가"},{"name":"신천동로(대현동)","type":"공영","category":"노상","address":"대구광역시 북구 대현동 524","lat":35.88431226,"lng":128.6043496,"totalSpaces":11,"isFree":true,"operatingDays":"평일+토요일+공휴일","weekdayOpen":"00:00","weekdayClose":"23:59","weekendOpen":"00:00","weekendClose":"23:59","holidayOpen":"00:00","holidayClose":"23:59","feeInfo":"무료","phone":"053-803-4882","updatedAt":"2025-07-23","sido":"대구광역시","sigungu":"북구","dong":"대현동"},{"name":"태전1동임시공영","type":"공영","category":"노외","address":"대구광역시 북구 태전로19길 7-10","lat":35.92703788,"lng":128.5412594,"totalSpaces":11,"isFree":true,"operatingDays":"평일+토요일+공휴일","weekdayOpen":"00:00","weekdayClose":"23:59","weekendOpen":"00:00","weekendClose":"23:59","holidayOpen":"00:00","holidayClose":"23:59","feeInfo":"무료","phone":"053-665-3012","updatedAt":"2025-07-23","sido":"대구광역시","sigungu":"북구","dong":"태전동"},{"name":"동호동(공영)","type":"공영","category":"노외","address":"대구광역시 북구 동호길 70","lat":35.96363513,"lng":128.5568502,"totalSpaces":10,"isFree":true,"operatingDays":"평일+토요일+공휴일","weekdayOpen":"00:00","weekdayClose":"23:59","weekendOpen":"00:00","weekendClose":"23:59","holidayOpen":"00:00","holidayClose":"23:59","feeInfo":"무료","phone":"053-665-3012","updatedAt":"2025-07-23","sido":"대구광역시","sigungu":"북구","dong":"동호동"},{"name":"읍내동임시공영","type":"공영","category":"노외","address":"대구광역시 북구 동암로7길 75-4","lat":35.9528191,"lng":128.5554145,"totalSpaces":10,"isFree":true,"operatingDays":"평일+토요일+공휴일","weekdayOpen":"00:00","weekdayClose":"23:59","weekendOpen":"00:00","weekendClose":"23:59","holidayOpen":"00:00","holidayClose":"23:59","feeInfo":"무료","phone":"053-665-3012","updatedAt":"2025-07-23","sido":"대구광역시","sigungu":"북구","dong":"읍내동"},{"name":"침산로48길인근","type":"공영","category":"노상","address":"대구광역시 북구 침산로48길 6","lat":35.89698438,"lng":128.5900278,"totalSpaces":10,"isFree":true,"operatingDays":"평일+토요일+공휴일","weekdayOpen":"00:00","weekdayClose":"23:59","weekendOpen":"00:00","weekendClose":"23:59","holidayOpen":"00:00","holidayClose":"23:59","feeInfo":"무료","phone":"053-665-3012","updatedAt":"2025-07-23","sido":"대구광역시","sigungu":"북구","dong":"침산동"},{"name":"침산남로9길인근","type":"공영","category":"노상","address":"대구광역시 북구 침산남로9길 65-4","lat":35.8938443,"lng":128.5833779,"totalSpaces":10,"isFree":true,"operatingDays":"평일+토요일+공휴일","weekdayOpen":"00:00","weekdayClose":"23:59","weekendOpen":"00:00","weekendClose":"23:59","holidayOpen":"00:00","holidayClose":"23:59","feeInfo":"무료","phone":"053-665-3012","updatedAt":"2025-07-23","sido":"대구광역시","sigungu":"북구","dong":"침산동"},{"name":"칠성교북편","type":"공영","category":"노상","address":"대구광역시 북구 대현동 389","lat":35.87744154,"lng":128.6054199,"totalSpaces":10,"isFree":true,"operatingDays":"평일+토요일+공휴일","weekdayOpen":"00:00","weekdayClose":"23:59","weekendOpen":"00:00","weekendClose":"23:59","holidayOpen":"00:00","holidayClose":"23:59","feeInfo":"무료","phone":"053-665-3012","updatedAt":"2025-07-23","sido":"대구광역시","sigungu":"북구","dong":"대현동"},{"name":"오봉로3길인근","type":"공영","category":"노상","address":"대구광역시 북구 노원동2가 1","lat":35.88778066,"lng":128.5743938,"totalSpaces":10,"isFree":true,"operatingDays":"평일+토요일+공휴일","weekdayOpen":"00:00","weekdayClose":"23:59","weekendOpen":"00:00","weekendClose":"23:59","holidayOpen":"00:00","holidayClose":"23:59","feeInfo":"무료","phone":"053-665-3012","updatedAt":"2025-07-23","sido":"대구광역시","sigungu":"북구","dong":"노원동2가"},{"name":"옥산로3길인근","type":"공영","category":"노상","address":"대구광역시 북구 노원동1가 271","lat":35.88723663,"lng":128.5783228,"totalSpaces":10,"isFree":true,"operatingDays":"평일+토요일+공휴일","weekdayOpen":"00:00","weekdayClose":"23:59","weekendOpen":"00:00","weekendClose":"23:59","holidayOpen":"00:00","holidayClose":"23:59","feeInfo":"무료","phone":"053-665-3012","updatedAt":"2025-07-23","sido":"대구광역시","sigungu":"북구","dong":"노원동1가"},{"name":"산격로10길인근","type":"공영","category":"노상","address":"대구광역시 북구 산격동 1499-1","lat":35.89377375,"lng":128.6090629,"totalSpaces":10,"isFree":true,"operatingDays":"평일+토요일+공휴일","weekdayOpen":"00:00","weekdayClose":"23:59","weekendOpen":"00:00","weekendClose":"23:59","holidayOpen":"00:00","holidayClose":"23:59","feeInfo":"무료","phone":"053-665-3012","updatedAt":"2025-07-23","sido":"대구광역시","sigungu":"북구","dong":"산격동"},{"name":"성북로13길인근","type":"공영","category":"노상","address":"대구광역시 북구 침산동 333-3","lat":35.8920346,"lng":128.5912566,"totalSpaces":10,"isFree":true,"operatingDays":"평일+토요일+공휴일","weekdayOpen":"00:00","weekdayClose":"23:59","weekendOpen":"00:00","weekendClose":"23:59","holidayOpen":"00:00","holidayClose":"23:59","feeInfo":"무료","phone":"053-665-3012","updatedAt":"2025-07-23","sido":"대구광역시","sigungu":"북구","dong":"침산동"},{"name":"연암공원로14길인근","type":"공영","category":"노상","address":"대구광역시 북구 산격동 1186-111","lat":35.89678912,"lng":128.6016434,"totalSpaces":10,"isFree":true,"operatingDays":"평일+토요일+공휴일","weekdayOpen":"00:00","weekdayClose":"23:59","weekendOpen":"00:00","weekendClose":"23:59","holidayOpen":"00:00","holidayClose":"23:59","feeInfo":"무료","phone":"053-665-3012","updatedAt":"2025-07-23","sido":"대구광역시","sigungu":"북구","dong":"산격동"},{"name":"동북로50길인근","type":"공영","category":"노상","address":"대구광역시 북구 복현동 623","lat":35.89526277,"lng":128.6213799,"totalSpaces":10,"isFree":true,"operatingDays":"평일+토요일+공휴일","weekdayOpen":"00:00","weekdayClose":"23:59","weekendOpen":"00:00","weekendClose":"23:59","holidayOpen":"00:00","holidayClose":"23:59","feeInfo":"무료","phone":"053-665-3012","updatedAt":"2025-07-23","sido":"대구광역시","sigungu":"북구","dong":"복현동"},{"name":"동북로55길인근","type":"공영","category":"노상","address":"대구광역시 북구 복현동 623","lat":35.89526277,"lng":128.6213799,"totalSpaces":10,"isFree":true,"operatingDays":"평일+토요일+공휴일","weekdayOpen":"00:00","weekdayClose":"23:59","weekendOpen":"00:00","weekendClose":"23:59","holidayOpen":"00:00","holidayClose":"23:59","feeInfo":"무료","phone":"053-665-3012","updatedAt":"2025-07-23","sido":"대구광역시","sigungu":"북구","dong":"복현동"},{"name":"대학로9길인근","type":"공영","category":"노상","address":"대구광역시 북구 산격동 1417-40","lat":35.89093933,"lng":128.6065984,"totalSpaces":10,"isFree":true,"operatingDays":"평일+토요일+공휴일","weekdayOpen":"00:00","weekdayClose":"23:59","weekendOpen":"00:00","weekendClose":"23:59","holidayOpen":"00:00","holidayClose":"23:59","feeInfo":"무료","phone":"053-665-3012","updatedAt":"2025-07-23","sido":"대구광역시","sigungu":"북구","dong":"산격동"},{"name":"관음동로인근","type":"공영","category":"노상","address":"대구광역시 북구 읍내동 1311","lat":35.94232272,"lng":128.5477636,"totalSpaces":9,"isFree":true,"operatingDays":"평일+토요일+공휴일","weekdayOpen":"00:00","weekdayClose":"23:59","weekendOpen":"00:00","weekendClose":"23:59","holidayOpen":"00:00","holidayClose":"23:59","feeInfo":"무료","phone":"053-665-3012","updatedAt":"2025-07-23","sido":"대구광역시","sigungu":"북구","dong":"읍내동"},{"name":"고성로34길인근","type":"공영","category":"노상","address":"대구광역시 북구 고성동2가 130","lat":35.87927027,"lng":128.5835611,"totalSpaces":9,"isFree":true,"operatingDays":"평일+토요일+공휴일","weekdayOpen":"00:00","weekdayClose":"23:59","weekendOpen":"00:00","weekendClose":"23:59","holidayOpen":"00:00","holidayClose":"23:59","feeInfo":"무료","phone":"053-665-3012","updatedAt":"2025-07-23","sido":"대구광역시","sigungu":"북구","dong":"고성동2가"},{"name":"대현로3길인근","type":"공영","category":"노상","address":"대구광역시 북구 대현로9길 33-10","lat":35.88713607,"lng":128.6038791,"totalSpaces":9,"isFree":true,"operatingDays":"평일+토요일+공휴일","weekdayOpen":"00:00","weekdayClose":"23:59","weekendOpen":"00:00","weekendClose":"23:59","holidayOpen":"00:00","holidayClose":"23:59","feeInfo":"무료","phone":"053-665-3012","updatedAt":"2025-07-23","sido":"대구광역시","sigungu":"북구","dong":"대현동"},{"name":"대동로4길인근","type":"공영","category":"노상","address":"대구광역시 북구 산격동 1499-2","lat":35.89104648,"lng":128.6059248,"totalSpaces":8,"isFree":true,"operatingDays":"평일+토요일+공휴일","weekdayOpen":"00:00","weekdayClose":"23:59","weekendOpen":"00:00","weekendClose":"23:59","holidayOpen":"00:00","holidayClose":"23:59","feeInfo":"무료","phone":"053-665-3012","updatedAt":"2025-07-23","sido":"대구광역시","sigungu":"북구","dong":"산격동"},{"name":"관음동로9길인근","type":"공영","category":"노상","address":"대구광역시 북구 관음동 1357","lat":35.93740911,"lng":128.5452115,"totalSpaces":8,"isFree":true,"operatingDays":"평일+토요일+공휴일","weekdayOpen":"00:00","weekdayClose":"23:59","weekendOpen":"00:00","weekendClose":"23:59","holidayOpen":"00:00","holidayClose":"23:59","feeInfo":"무료","phone":"053-665-3012","updatedAt":"2025-07-23","sido":"대구광역시","sigungu":"북구","dong":"관음동"},{"name":"경대로27길인근","type":"공영","category":"노상","address":"대구광역시 북구 경진로남1길 33","lat":35.89380025,"lng":128.6173543,"totalSpaces":8,"isFree":true,"operatingDays":"평일+토요일+공휴일","weekdayOpen":"00:00","weekdayClose":"23:59","weekendOpen":"00:00","weekendClose":"23:59","holidayOpen":"00:00","holidayClose":"23:59","feeInfo":"무료","phone":"053-665-3012","updatedAt":"2025-07-23","sido":"대구광역시","sigungu":"북구","dong":"복현동"},{"name":"복현동임시공영주차장","type":"공영","category":"노외","address":"대구광역시 북구 복현로20길 8","lat":35.90003894,"lng":128.6222779,"totalSpaces":8,"isFree":true,"operatingDays":"평일+토요일+공휴일","weekdayOpen":"00:00","weekdayClose":"23:59","weekendOpen":"00:00","weekendClose":"23:59","holidayOpen":"00:00","holidayClose":"23:59","feeInfo":"무료","phone":"053-665-3012","updatedAt":"2025-07-23","sido":"대구광역시","sigungu":"북구","dong":"복현동"},{"name":"태암로1길인근","type":"공영","category":"노상","address":"대구광역시 북구 태전동 1004","lat":35.92970697,"lng":128.5485495,"totalSpaces":8,"isFree":true,"operatingDays":"평일+토요일+공휴일","weekdayOpen":"00:00","weekdayClose":"23:59","weekendOpen":"00:00","weekendClose":"23:59","holidayOpen":"00:00","holidayClose":"23:59","feeInfo":"무료","phone":"053-665-3012","updatedAt":"2025-07-23","sido":"대구광역시","sigungu":"북구","dong":"태전동"},{"name":"영송로인근","type":"공영","category":"노상","address":"대구광역시 북구 태전동 950","lat":35.92990667,"lng":128.5449716,"totalSpaces":8,"isFree":true,"operatingDays":"평일+토요일+공휴일","weekdayOpen":"00:00","weekdayClose":"23:59","weekendOpen":"00:00","weekendClose":"23:59","holidayOpen":"00:00","holidayClose":"23:59","feeInfo":"무료","phone":"053-665-3012","updatedAt":"2025-07-23","sido":"대구광역시","sigungu":"북구","dong":"태전동"},{"name":"대학로17길인근","type":"공영","category":"노상","address":"대구광역시 북구 산격동 1499-1","lat":35.89377375,"lng":128.6090629,"totalSpaces":8,"isFree":true,"operatingDays":"평일+토요일+공휴일","weekdayOpen":"00:00","weekdayClose":"23:59","weekendOpen":"00:00","weekendClose":"23:59","holidayOpen":"00:00","holidayClose":"23:59","feeInfo":"무료","phone":"053-665-3012","updatedAt":"2025-07-23","sido":"대구광역시","sigungu":"북구","dong":"산격동"},{"name":"대천로7길인근","type":"공영","category":"노상","address":"대구광역시 북구 읍내동 1348","lat":35.941073,"lng":128.5543727,"totalSpaces":7,"isFree":true,"operatingDays":"평일+토요일+공휴일","weekdayOpen":"00:00","weekdayClose":"23:59","weekendOpen":"00:00","weekendClose":"23:59","holidayOpen":"00:00","holidayClose":"23:59","feeInfo":"무료","phone":"053-665-3012","updatedAt":"2025-07-23","sido":"대구광역시","sigungu":"북구","dong":"읍내동"},{"name":"침산로42길인근","type":"공영","category":"노상","address":"대구광역시 북구 침산로 208","lat":35.89462057,"lng":128.5900122,"totalSpaces":7,"isFree":true,"operatingDays":"평일+토요일+공휴일","weekdayOpen":"00:00","weekdayClose":"23:59","weekendOpen":"00:00","weekendClose":"23:59","holidayOpen":"00:00","holidayClose":"23:59","feeInfo":"무료","phone":"053-665-3012","updatedAt":"2025-07-23","sido":"대구광역시","sigungu":"북구","dong":"침산동"},{"name":"청운로인근","type":"공영","category":"노상","address":"대구광역시 북구 침산동 1693-1","lat":35.89031801,"lng":128.5872373,"totalSpaces":7,"isFree":true,"operatingDays":"평일+토요일+공휴일","weekdayOpen":"00:00","weekdayClose":"23:59","weekendOpen":"00:00","weekendClose":"23:59","holidayOpen":"00:00","holidayClose":"23:59","feeInfo":"무료","phone":"053-803-4882","updatedAt":"2025-07-23","sido":"대구광역시","sigungu":"북구","dong":"침산동"},{"name":"산격로19길인근","type":"공영","category":"노상","address":"대구광역시 북구 산격동 1499-2","lat":35.89104648,"lng":128.6059248,"totalSpaces":7,"isFree":true,"operatingDays":"평일+토요일+공휴일","weekdayOpen":"00:00","weekdayClose":"23:59","weekendOpen":"00:00","weekendClose":"23:59","holidayOpen":"00:00","holidayClose":"23:59","feeInfo":"무료","phone":"053-665-3012","updatedAt":"2025-07-23","sido":"대구광역시","sigungu":"북구","dong":"산격동"},{"name":"관음동로31길인근","type":"공영","category":"노상","address":"대구광역시 북구 관음동 1240","lat":35.94531367,"lng":128.546259,"totalSpaces":6,"isFree":true,"operatingDays":"평일+토요일+공휴일","weekdayOpen":"00:00","weekdayClose":"23:59","weekendOpen":"00:00","weekendClose":"23:59","holidayOpen":"00:00","holidayClose":"23:59","feeInfo":"무료","phone":"053-665-3012","updatedAt":"2025-07-23","sido":"대구광역시","sigungu":"북구","dong":"관음동"},{"name":"3공단로25길인근","type":"공영","category":"노상","address":"대구광역시 북구 3공단로 123","lat":35.89777007,"lng":128.5654103,"totalSpaces":6,"isFree":true,"operatingDays":"평일+토요일+공휴일","weekdayOpen":"00:00","weekdayClose":"23:59","weekendOpen":"00:00","weekendClose":"23:59","holidayOpen":"00:00","holidayClose":"23:59","feeInfo":"무료","phone":"053-665-3012","updatedAt":"2025-07-23","sido":"대구광역시","sigungu":"북구","dong":"노원동3가"},{"name":"관음동 1255-14공영","type":"공영","category":"노외","address":"대구광역시 북구 관음동 1255-14","lat":35.94386972,"lng":128.5445986,"totalSpaces":6,"isFree":true,"operatingDays":"평일+토요일+공휴일","weekdayOpen":"00:00","weekdayClose":"23:59","weekendOpen":"00:00","weekendClose":"23:59","holidayOpen":"00:00","holidayClose":"23:59","feeInfo":"무료","phone":"053-665-3012","updatedAt":"2025-07-23","sido":"대구광역시","sigungu":"북구","dong":"관음동"},{"name":"관음동1275-27공영","type":"공영","category":"노외","address":"대구광역시 북구 관음동 1275-27","lat":35.94410063,"lng":128.5456678,"totalSpaces":6,"isFree":true,"operatingDays":"평일+토요일+공휴일","weekdayOpen":"00:00","weekdayClose":"23:59","weekendOpen":"00:00","weekendClose":"23:59","holidayOpen":"00:00","holidayClose":"23:59","feeInfo":"무료","phone":"053-665-3012","updatedAt":"2025-07-23","sido":"대구광역시","sigungu":"북구","dong":"관음동"},{"name":"칠성남로31길인근","type":"공영","category":"노상","address":"대구광역시 북구 칠성남로 167","lat":35.8773027,"lng":128.5987311,"totalSpaces":6,"isFree":true,"operatingDays":"평일+토요일+공휴일","weekdayOpen":"00:00","weekdayClose":"23:59","weekendOpen":"00:00","weekendClose":"23:59","holidayOpen":"00:00","holidayClose":"23:59","feeInfo":"무료","phone":"053-665-3012","updatedAt":"2025-07-23","sido":"대구광역시","sigungu":"북구","dong":"칠성동2가"},{"name":"대구체육관로인근","type":"공영","category":"노상","address":"대구광역시 북구 산격동 1444-1","lat":35.89004501,"lng":128.6013523,"totalSpaces":5,"isFree":true,"operatingDays":"평일+토요일+공휴일","weekdayOpen":"00:00","weekdayClose":"23:59","weekendOpen":"00:00","weekendClose":"23:59","holidayOpen":"00:00","holidayClose":"23:59","feeInfo":"무료","phone":"053-665-3012","updatedAt":"2025-07-23","sido":"대구광역시","sigungu":"북구","dong":"산격동"},{"name":"경대로23길인근","type":"공영","category":"노상","address":"대구광역시 북구 경대로23길 79","lat":35.89263537,"lng":128.6160279,"totalSpaces":5,"isFree":true,"operatingDays":"평일+토요일+공휴일","weekdayOpen":"00:00","weekdayClose":"23:59","weekendOpen":"00:00","weekendClose":"23:59","holidayOpen":"00:00","holidayClose":"23:59","feeInfo":"무료","phone":"053-665-3012","updatedAt":"2025-07-23","sido":"대구광역시","sigungu":"북구","dong":"복현동"},{"name":"대현로10길인근","type":"공영","category":"노상","address":"대구광역시 북구 대현동 439-4","lat":35.88242711,"lng":128.6037488,"totalSpaces":5,"isFree":true,"operatingDays":"평일+토요일+공휴일","weekdayOpen":"00:00","weekdayClose":"23:59","weekendOpen":"00:00","weekendClose":"23:59","holidayOpen":"00:00","holidayClose":"23:59","feeInfo":"무료","phone":"053-665-3012","updatedAt":"2025-07-23","sido":"대구광역시","sigungu":"북구","dong":"대현동"},{"name":"미니","type":"민영","category":"노외","address":"대구광역시 북구 칠성남로31길 12-5","lat":35.87766279,"lng":128.5985705,"totalSpaces":5,"isFree":true,"operatingDays":"평일+토요일+공휴일","weekdayOpen":"00:00","weekdayClose":"23:59","weekendOpen":"00:00","weekendClose":"23:59","holidayOpen":"00:00","holidayClose":"23:59","feeInfo":"무료","phone":"053-665-3012","updatedAt":"2025-07-23","sido":"대구광역시","sigungu":"북구","dong":"칠성동2가"},{"name":"침산로40길인근","type":"공영","category":"노상","address":"대구광역시 북구 침산로 198","lat":35.89371938,"lng":128.5900286,"totalSpaces":4,"isFree":true,"operatingDays":"평일+토요일+공휴일","weekdayOpen":"00:00","weekdayClose":"23:59","weekendOpen":"00:00","weekendClose":"23:59","holidayOpen":"00:00","holidayClose":"23:59","feeInfo":"무료","phone":"053-665-3012","updatedAt":"2025-07-23","sido":"대구광역시","sigungu":"북구","dong":"침산동"},{"name":"원대로23길인근","type":"공영","category":"노상","address":"대구광역시 북구 노원동1가 19-9","lat":35.88781541,"lng":128.5802848,"totalSpaces":4,"isFree":true,"operatingDays":"평일+토요일+공휴일","weekdayOpen":"00:00","weekdayClose":"23:59","weekendOpen":"00:00","weekendClose":"23:59","holidayOpen":"00:00","holidayClose":"23:59","feeInfo":"무료","phone":"053-665-3012","updatedAt":"2025-07-23","sido":"대구광역시","sigungu":"북구","dong":"노원동1가"},{"name":"연암공원로28길인근","type":"공영","category":"노상","address":"대구광역시 북구 산격동 1499-2","lat":35.89104648,"lng":128.6059248,"totalSpaces":4,"isFree":true,"operatingDays":"평일+토요일+공휴일","weekdayOpen":"00:00","weekdayClose":"23:59","weekendOpen":"00:00","weekendClose":"23:59","holidayOpen":"00:00","holidayClose":"23:59","feeInfo":"무료","phone":"053-665-3012","updatedAt":"2025-07-23","sido":"대구광역시","sigungu":"북구","dong":"산격동"},{"name":"대학로15길인근","type":"공영","category":"노상","address":"대구광역시 북구 산격동 1499-1","lat":35.89377375,"lng":128.6090629,"totalSpaces":3,"isFree":true,"operatingDays":"평일+토요일+공휴일","weekdayOpen":"00:00","weekdayClose":"23:59","weekendOpen":"00:00","weekendClose":"23:59","holidayOpen":"00:00","holidayClose":"23:59","feeInfo":"무료","phone":"053-665-3012","updatedAt":"2025-07-23","sido":"대구광역시","sigungu":"북구","dong":"산격동"},{"name":"노원로10길인근","type":"공영","category":"노상","address":"대구광역시 북구 노원동2가 1","lat":35.88778066,"lng":128.5743938,"totalSpaces":3,"isFree":true,"operatingDays":"평일+토요일+공휴일","weekdayOpen":"00:00","weekdayClose":"23:59","weekendOpen":"00:00","weekendClose":"23:59","holidayOpen":"00:00","holidayClose":"23:59","feeInfo":"무료","phone":"053-665-3012","updatedAt":"2025-07-23","sido":"대구광역시","sigungu":"북구","dong":"노원동2가"},{"name":"침산로46길인근","type":"공영","category":"노상","address":"대구광역시 북구 성북로5길 68","lat":35.8965438,"lng":128.5890978,"totalSpaces":3,"isFree":true,"operatingDays":"평일+토요일+공휴일","weekdayOpen":"00:00","weekdayClose":"23:59","weekendOpen":"00:00","weekendClose":"23:59","holidayOpen":"00:00","holidayClose":"23:59","feeInfo":"무료","phone":"053-665-3012","updatedAt":"2025-07-23","sido":"대구광역시","sigungu":"북구","dong":"침산동"},{"name":"산격로13길인근","type":"공영","category":"노상","address":"대구광역시 북구 산격동 1185-38","lat":35.89722774,"lng":128.6027042,"totalSpaces":3,"isFree":true,"operatingDays":"평일+토요일+공휴일","weekdayOpen":"00:00","weekdayClose":"23:59","weekendOpen":"00:00","weekendClose":"23:59","holidayOpen":"00:00","holidayClose":"23:59","feeInfo":"무료","phone":"053-665-3012","updatedAt":"2025-07-23","sido":"대구광역시","sigungu":"북구","dong":"산격동"},{"name":"대학로23길인근","type":"공영","category":"노상","address":"대구광역시 북구 산격동 1499-1","lat":35.89377375,"lng":128.6090629,"totalSpaces":2,"isFree":true,"operatingDays":"평일+토요일+공휴일","weekdayOpen":"00:00","weekdayClose":"23:59","weekendOpen":"00:00","weekendClose":"23:59","holidayOpen":"00:00","holidayClose":"23:59","feeInfo":"무료","phone":"053-665-3012","updatedAt":"2025-07-23","sido":"대구광역시","sigungu":"북구","dong":"산격동"},{"name":"신천둔치(공영)","type":"공영","category":"노외","address":"대구광역시 북구 칠성시장로 28","lat":35.87656655,"lng":128.6043009,"totalSpaces":437,"isFree":false,"operatingDays":"평일+토요일+공휴일","weekdayOpen":"00:00","weekdayClose":"23:59","weekendOpen":"00:00","weekendClose":"23:59","holidayOpen":"00:00","holidayClose":"23:59","feeInfo":"기본 30분 500원 / 추가 10분당 250원","phone":"1577-6446","updatedAt":"2025-07-23","sido":"대구광역시","sigungu":"북구","dong":"칠성동1가"},{"name":"신천둔치주차장","type":"공영","category":"노외","address":"대구광역시 북구 칠성시장로 54","lat":35.87877436,"lng":128.6030915,"totalSpaces":412,"isFree":false,"operatingDays":"평일+토요일+공휴일","weekdayOpen":"00:00","weekdayClose":"23:59","weekendOpen":"00:00","weekendClose":"23:59","holidayOpen":"00:00","holidayClose":"23:59","feeInfo":"기본 10분 300원 / 추가 10분당 300원","phone":"053-421-7114","updatedAt":"2025-08-01","sido":"대구광역시","sigungu":"북구","dong":"칠성동2가"},{"name":"관음(공영)","type":"공영","category":"노외","address":"대구광역시 북구 관음중앙로 80","lat":35.94104819,"lng":128.5446936,"totalSpaces":169,"isFree":false,"operatingDays":"평일+토요일+공휴일","weekdayOpen":"00:00","weekdayClose":"23:59","weekendOpen":"00:00","weekendClose":"23:59","holidayOpen":"00:00","holidayClose":"23:59","feeInfo":"기본 30분 600원 / 추가 10분당 300원","phone":"053-665-3012","updatedAt":"2025-07-23","sido":"대구광역시","sigungu":"북구","dong":"관음동"},{"name":"칠성(공영)","type":"공영","category":"노외","address":"대구광역시 북구 칠성남로 196","lat":35.87610607,"lng":128.6016615,"totalSpaces":165,"isFree":false,"operatingDays":"평일+토요일+공휴일","weekdayOpen":"00:00","weekdayClose":"23:59","weekendOpen":"00:00","weekendClose":"23:59","holidayOpen":"00:00","holidayClose":"23:59","feeInfo":"기본 30분 500원 / 추가 10분당 250원","phone":"1577-6446","updatedAt":"2025-07-23","sido":"대구광역시","sigungu":"북구","dong":"칠성동1가"},{"name":"팔달신시장(공영)","type":"공영","category":"노외","address":"대구광역시 북구 노원로 28","lat":35.89155443,"lng":128.5660515,"totalSpaces":164,"isFree":false,"operatingDays":"평일+토요일+공휴일","weekdayOpen":"00:00","weekdayClose":"23:59","weekendOpen":"00:00","weekendClose":"23:59","holidayOpen":"00:00","holidayClose":"23:59","feeInfo":"기본 30분 300원 / 추가 10분당 150원","phone":"1577-6446","updatedAt":"2025-07-23","sido":"대구광역시","sigungu":"북구","dong":"노원동3가"},{"name":"팔달신시장주차장","type":"공영","category":"노외","address":"대구광역시 북구 노원로 32","lat":35.8915511,"lng":128.5664937,"totalSpaces":158,"isFree":false,"operatingDays":"평일+토요일+공휴일","weekdayOpen":"00:00","weekdayClose":"23:59","weekendOpen":"00:00","weekendClose":"23:59","holidayOpen":"00:00","holidayClose":"23:59","feeInfo":"기본 10분 180원 / 추가 10분당 180원","phone":"053-353-8969","updatedAt":"2025-08-01","sido":"대구광역시","sigungu":"북구","dong":"노원동3가"},{"name":"칠성공영주차장","type":"공영","category":"노외","address":"대구광역시 북구 칠성남로 196","lat":35.8761528,"lng":128.6016615,"totalSpaces":150,"isFree":false,"operatingDays":"평일+토요일+공휴일","weekdayOpen":"00:00","weekdayClose":"23:59","weekendOpen":"00:00","weekendClose":"23:59","holidayOpen":"00:00","holidayClose":"23:59","feeInfo":"기본 10분 300원 / 추가 10분당 300원","phone":"053-421-9405","updatedAt":"2025-08-01","sido":"대구광역시","sigungu":"북구","dong":"칠성동1가"},{"name":"운암지 공영주차장(노외)","type":"공영","category":"노외","address":"대구광역시 북구 구암동 615-13","lat":35.93129001,"lng":128.564128,"totalSpaces":140,"isFree":false,"operatingDays":"평일","weekdayOpen":"09:00","weekdayClose":"18:00","weekendOpen":"00:00","weekendClose":"00:00","holidayOpen":"00:00","holidayClose":"00:00","feeInfo":"기본 30분 400원 / 추가 10분당 200원","phone":"053-665-3012","updatedAt":"2025-07-23","sido":"대구광역시","sigungu":"북구","dong":"구암동"},{"name":"오봉로인근","type":"공영","category":"노상","address":"대구광역시 북구 노원동3가 1208","lat":35.89872725,"lng":128.5788096,"totalSpaces":135,"isFree":false,"operatingDays":"평일+토요일","weekdayOpen":"09:00","weekdayClose":"18:00","weekendOpen":"09:00","weekendClose":"18:00","holidayOpen":"00:00","holidayClose":"00:00","feeInfo":"기본 30분 600원 / 추가 10분당 300원","phone":"1577-6446","updatedAt":"2025-07-23","sido":"대구광역시","sigungu":"북구","dong":"노원동3가"},{"name":"COSTCO서편주차장","type":"공영","category":"노외","address":"대구광역시 북구 유통단지로 24길 42","lat":35.905999,"lng":128.6171313,"totalSpaces":108,"isFree":false,"operatingDays":"평일+토요일+공휴일","weekdayOpen":"08:00","weekdayClose":"18:00","weekendOpen":"08:00","weekendClose":"18:00","holidayOpen":"08:00","holidayClose":"18:00","feeInfo":"기본 10분 175원 / 추가 10분당 175원","phone":"053-382-6446","updatedAt":"2025-08-01","sido":"대구광역시","sigungu":"북구","dong":"산격동"},{"name":"노원로10길(대구산업-노원새마을금고)","type":"공영","category":"노상","address":"대구광역시 북구 노원동2가 1","lat":35.88778066,"lng":128.5743938,"totalSpaces":102,"isFree":false,"operatingDays":"평일+토요일","weekdayOpen":"08:30","weekdayClose":"19:00","weekendOpen":"08:30","weekendClose":"19:00","holidayOpen":"00:00","holidayClose":"00:00","feeInfo":"기본 30분 600원 / 추가 10분당 300원","phone":"053-665-3012","updatedAt":"2025-07-23","sido":"대구광역시","sigungu":"북구","dong":"노원동2가"},{"name":"NC아울렛주차장","type":"공영","category":"노외","address":"대구광역시 북구 유통단지로8길 33","lat":35.9040048,"lng":128.6086279,"totalSpaces":99,"isFree":false,"operatingDays":"평일+토요일+공휴일","weekdayOpen":"08:00","weekdayClose":"18:00","weekendOpen":"08:00","weekendClose":"18:00","holidayOpen":"08:00","holidayClose":"18:00","feeInfo":"기본 10분 175원 / 추가 10분당 175원","phone":"053-382-6446","updatedAt":"2025-08-01","sido":"대구광역시","sigungu":"북구","dong":"산격동"},{"name":"산업용재관남측주차장","type":"공영","category":"노외","address":"대구광역시 북구 유통단지로8길 26","lat":35.90302861,"lng":128.6070075,"totalSpaces":97,"isFree":false,"operatingDays":"평일+토요일+공휴일","weekdayOpen":"08:00","weekdayClose":"18:00","weekendOpen":"08:00","weekendClose":"18:00","holidayOpen":"08:00","holidayClose":"18:00","feeInfo":"유료","phone":"053-803-5342","updatedAt":"2025-08-01","sido":"대구광역시","sigungu":"북구","dong":"산격동"},{"name":"복현장미공원 공영주차장","type":"공영","category":"노외","address":"대구광역시 북구 경진로남1길 40","lat":35.89336757,"lng":128.6173123,"totalSpaces":96,"isFree":false,"operatingDays":"평일+토요일+공휴일","weekdayOpen":"06:00","weekdayClose":"23:59","weekendOpen":"06:00","weekendClose":"23:59","holidayOpen":"06:00","holidayClose":"23:59","feeInfo":"기본 30분 500원 / 추가 10분당 100원","phone":"053-665-3012","updatedAt":"2025-07-23","sido":"대구광역시","sigungu":"북구","dong":"복현동"},{"name":"서변2(공영)","type":"공영","category":"노외","address":"대구광역시 북구 호국로43길 17","lat":35.9209007,"lng":128.5971581,"totalSpaces":95,"isFree":false,"operatingDays":"평일+토요일+공휴일","weekdayOpen":"10:00","weekdayClose":"19:00","weekendOpen":"00:00","weekendClose":"23:59","holidayOpen":"00:00","holidayClose":"23:59","feeInfo":"기본 30분 400원 / 추가 10분당 200원","phone":"1577-6446","updatedAt":"2025-07-23","sido":"대구광역시","sigungu":"북구","dong":"서변동"},{"name":"서변1(공영)","type":"공영","category":"노외","address":"대구광역시 북구 호국로43길 20","lat":35.9213327,"lng":128.5970475,"totalSpaces":91,"isFree":false,"operatingDays":"평일+토요일+공휴일","weekdayOpen":"10:00","weekdayClose":"19:00","weekendOpen":"00:00","weekendClose":"23:59","holidayOpen":"00:00","holidayClose":"23:59","feeInfo":"기본 30분 400원 / 추가 10분당 200원","phone":"1577-6446","updatedAt":"2025-07-23","sido":"대구광역시","sigungu":"북구","dong":"서변동"},{"name":"서변2주차장","type":"공영","category":"노외","address":"대구광역시 북구 호국로 43길 17","lat":35.9209007,"lng":128.5971581,"totalSpaces":85,"isFree":false,"operatingDays":"평일","weekdayOpen":"09:00","weekdayClose":"18:00","weekendOpen":"00:00","weekendClose":"00:00","holidayOpen":"00:00","holidayClose":"00:00","feeInfo":"기본 10분 200원 / 추가 10분당 200원","phone":"053-603-4064","updatedAt":"2025-08-01","sido":"대구광역시","sigungu":"북구","dong":"서변동"},{"name":"서변1주차장","type":"공영","category":"노외","address":"대구광역시 북구 호국로 43길 20","lat":35.9213327,"lng":128.5970475,"totalSpaces":82,"isFree":false,"operatingDays":"평일","weekdayOpen":"09:00","weekdayClose":"18:00","weekendOpen":"00:00","weekendClose":"00:00","holidayOpen":"00:00","holidayClose":"00:00","feeInfo":"기본 10분 200원 / 추가 10분당 200원","phone":"053-603-4064","updatedAt":"2025-08-01","sido":"대구광역시","sigungu":"북구","dong":"서변동"},{"name":"칠성시장고가도로밑","type":"공영","category":"노상","address":"대구광역시 북구 침산동 78-7","lat":35.88408481,"lng":128.6009608,"totalSpaces":76,"isFree":false,"operatingDays":"평일+토요일+공휴일","weekdayOpen":"07:00","weekdayClose":"18:00","weekendOpen":"07:00","weekendClose":"18:00","holidayOpen":"07:00","holidayClose":"18:00","feeInfo":"기본 30분 500원 / 추가 10분당 250원","phone":"1577-6446","updatedAt":"2025-07-23","sido":"대구광역시","sigungu":"북구","dong":"침산동"},{"name":"칠성시장광로주차장","type":"공영","category":"노상","address":"대구광역시 북구 칠성시장로 28","lat":35.87656655,"lng":128.6043009,"totalSpaces":66,"isFree":false,"operatingDays":"평일","weekdayOpen":"07:00","weekdayClose":"17:00","weekendOpen":"00:00","weekendClose":"00:00","holidayOpen":"00:00","holidayClose":"00:00","feeInfo":"기본 10분 300원 / 추가 10분당 300원","phone":"053-603-4064","updatedAt":"2025-08-01","sido":"대구광역시","sigungu":"북구","dong":"칠성동1가"},{"name":"산격4동공영주차장","type":"공영","category":"노외","address":"대구광역시 북구 산격로19길 4","lat":35.89900362,"lng":128.606822,"totalSpaces":63,"isFree":false,"operatingDays":"평일+토요일+공휴일","weekdayOpen":"06:00","weekdayClose":"23:59","weekendOpen":"06:00","weekendClose":"23:59","holidayOpen":"06:00","holidayClose":"23:59","feeInfo":"기본 30분 600원 / 추가 10분당 300원","phone":"053-665-3012","updatedAt":"2025-07-23","sido":"대구광역시","sigungu":"북구","dong":"산격동"},{"name":"시민","type":"민영","category":"노외","address":"대구광역시 북구 옥산로17길 10","lat":35.884999,"lng":128.5859113,"totalSpaces":62,"isFree":false,"operatingDays":"평일","weekdayOpen":"08:00","weekdayClose":"22:00","weekendOpen":"00:00","weekendClose":"00:00","holidayOpen":"00:00","holidayClose":"00:00","feeInfo":"기본 30분 1,000원 / 추가 60분당 1,000원","phone":"053-665-3012","updatedAt":"2025-07-23","sido":"대구광역시","sigungu":"북구","dong":"칠성동2가"},{"name":"시체육회앞","type":"공영","category":"노상","address":"대구광역시 북구 고성로 191","lat":35.88301806,"lng":128.5861564,"totalSpaces":59,"isFree":false,"operatingDays":"평일+토요일","weekdayOpen":"09:00","weekdayClose":"19:00","weekendOpen":"09:00","weekendClose":"19:00","holidayOpen":"00:00","holidayClose":"00:00","feeInfo":"기본 30분 1,000원 / 추가 10분당 500원","phone":"1577-6446","updatedAt":"2025-07-23","sido":"대구광역시","sigungu":"북구","dong":"고성동3가"},{"name":"한국패션센터주차장","type":"공영","category":"노외","address":"대구광역시 북구 유통단지로14길 17","lat":35.9061485,"lng":128.6117408,"totalSpaces":55,"isFree":false,"operatingDays":"평일+토요일+공휴일","weekdayOpen":"08:00","weekdayClose":"18:00","weekendOpen":"08:00","weekendClose":"18:00","holidayOpen":"08:00","holidayClose":"18:00","feeInfo":"기본 10분 175원 / 추가 10분당 175원","phone":"053-382-6446","updatedAt":"2025-08-01","sido":"대구광역시","sigungu":"북구","dong":"산격동"},{"name":"유통단지공원 공영주차장","type":"공영","category":"노외","address":"대구광역시 북구 유통단지 13길 13-11","lat":35.90804051,"lng":128.6086299,"totalSpaces":52,"isFree":false,"operatingDays":"평일+토요일+공휴일","weekdayOpen":"08:00","weekdayClose":"18:00","weekendOpen":"08:00","weekendClose":"18:00","holidayOpen":"08:00","holidayClose":"18:00","feeInfo":"기본 10분 175원 / 추가 10분당 175원","phone":"053-603-4064","updatedAt":"2025-08-01","sido":"대구광역시","sigungu":"북구","dong":"산격동"},{"name":"가산공원 지하공영주차장","type":"공영","category":"노외","address":"대구광역시 북구 관음동로9길 11","lat":35.9371356,"lng":128.5456325,"totalSpaces":52,"isFree":false,"operatingDays":"평일+토요일+공휴일","weekdayOpen":"00:00","weekdayClose":"23:59","weekendOpen":"00:00","weekendClose":"23:59","holidayOpen":"00:00","holidayClose":"23:59","feeInfo":"기본 30분 300원 / 추가 10분당 150원","phone":"053-665-3012","updatedAt":"2025-07-23","sido":"대구광역시","sigungu":"북구","dong":"관음동"},{"name":"RGB Tower","type":"민영","category":"노외","address":"대구광역시 북구 동천로 135-7","lat":35.94355567,"lng":128.5599291,"totalSpaces":52,"isFree":false,"operatingDays":"평일+토요일+공휴일","weekdayOpen":"12:00","weekdayClose":"21:00","weekendOpen":"12:00","weekendClose":"23:59","holidayOpen":"00:00","holidayClose":"23:59","feeInfo":"기본 30분 1,000원 / 추가 60분당 1,000원","phone":"053-665-3012","updatedAt":"2025-07-23","sido":"대구광역시","sigungu":"북구","dong":"동천동"},{"name":"스마일","type":"민영","category":"노외","address":"대구광역시 북구 대학로 143","lat":35.89682125,"lng":128.6136501,"totalSpaces":52,"isFree":false,"operatingDays":"평일+토요일+공휴일","weekdayOpen":"08:00","weekdayClose":"22:00","weekendOpen":"08:00","weekendClose":"22:00","holidayOpen":"08:00","holidayClose":"22:00","feeInfo":"기본 30분 1,000원 / 추가 10분당 300원","phone":"053-665-3012","updatedAt":"2025-07-23","sido":"대구광역시","sigungu":"북구","dong":"산격동"},{"name":"무지개공영주차장","type":"공영","category":"노외","address":"대구광역시 북구 대학로17길 11","lat":35.893295,"lng":128.6085684,"totalSpaces":51,"isFree":false,"operatingDays":"평일+토요일+공휴일","weekdayOpen":"06:00","weekdayClose":"23:59","weekendOpen":"06:00","weekendClose":"23:59","holidayOpen":"06:00","holidayClose":"23:59","feeInfo":"기본 30분 600원 / 추가 10분당 300원","phone":"053-665-3012","updatedAt":"2025-07-23","sido":"대구광역시","sigungu":"북구","dong":"산격동"},{"name":"1·2","type":"민영","category":"노외","address":"대구광역시 북구 중앙대로 500","lat":35.87732409,"lng":128.5957275,"totalSpaces":50,"isFree":false,"operatingDays":"평일+토요일+공휴일","weekdayOpen":"08:00","weekdayClose":"21:00","weekendOpen":"08:00","weekendClose":"21:00","holidayOpen":"08:00","holidayClose":"21:00","feeInfo":"기본 30분 1,000원 / 추가 10분당 500원","phone":"053-665-3012","updatedAt":"2025-07-23","sido":"대구광역시","sigungu":"북구","dong":"칠성동2가"},{"name":"신천교고가도로밑주차장","type":"공영","category":"노상","address":"대구광역시 북구 칠성시장로 28","lat":35.87656655,"lng":128.6043009,"totalSpaces":48,"isFree":false,"operatingDays":"평일","weekdayOpen":"07:00","weekdayClose":"17:00","weekendOpen":"00:00","weekendClose":"00:00","holidayOpen":"00:00","holidayClose":"00:00","feeInfo":"기본 10분 300원 / 추가 10분당 300원","phone":"053-603-4064","updatedAt":"2025-08-01","sido":"대구광역시","sigungu":"북구","dong":"칠성동1가"},{"name":"대현2동주차장","type":"공영","category":"노외","address":"대구광역시 북구 대현남로10길 12","lat":35.8820402,"lng":128.6087412,"totalSpaces":48,"isFree":false,"operatingDays":"평일+토요일","weekdayOpen":"11:00","weekdayClose":"20:00","weekendOpen":"11:00","weekendClose":"20:00","holidayOpen":"00:00","holidayClose":"00:00","feeInfo":"기본 10분 175원 / 추가 10분당 175원","phone":"053-603-4064","updatedAt":"2025-08-01","sido":"대구광역시","sigungu":"북구","dong":"대현동"},{"name":"칠성시장고가도로밑주차장","type":"공영","category":"노상","address":"대구광역시 북구 칠성시장로 101","lat":35.8825979,"lng":128.600707,"totalSpaces":48,"isFree":false,"operatingDays":"평일","weekdayOpen":"07:00","weekdayClose":"17:00","weekendOpen":"00:00","weekendClose":"00:00","holidayOpen":"00:00","holidayClose":"00:00","feeInfo":"기본 10분 175원 / 추가 10분당 175원","phone":"053-603-4064","updatedAt":"2025-08-01","sido":"대구광역시","sigungu":"북구","dong":"칠성동2가"},{"name":"경대북문건너","type":"공영","category":"노상","address":"대구광역시 북구 대학로 51","lat":35.891244,"lng":128.6062891,"totalSpaces":46,"isFree":false,"operatingDays":"평일+토요일+공휴일","weekdayOpen":"09:00","weekdayClose":"19:00","weekendOpen":"09:00","weekendClose":"23:59","holidayOpen":"00:00","holidayClose":"23:59","feeInfo":"기본 30분 600원 / 추가 10분당 300원","phone":"1577-6446","updatedAt":"2025-07-23","sido":"대구광역시","sigungu":"북구","dong":"산격동"},{"name":"신천교고가도로밑","type":"공영","category":"노상","address":"대구광역시 북구 칠성동1가 287","lat":35.87486619,"lng":128.6091413,"totalSpaces":46,"isFree":false,"operatingDays":"평일+토요일+공휴일","weekdayOpen":"00:00","weekdayClose":"23:59","weekendOpen":"00:00","weekendClose":"23:59","holidayOpen":"00:00","holidayClose":"23:59","feeInfo":"기본 30분 500원 / 추가 10분당 250원","phone":"1577-6446","updatedAt":"2025-07-23","sido":"대구광역시","sigungu":"북구","dong":"칠성동1가"},{"name":"태호","type":"민영","category":"노외","address":"대구광역시 북구 동암로 102","lat":35.9440102,"lng":128.5620563,"totalSpaces":44,"isFree":false,"operatingDays":"평일+토요일+공휴일","weekdayOpen":"09:00","weekdayClose":"21:00","weekendOpen":"09:00","weekendClose":"21:00","holidayOpen":"09:00","holidayClose":"21:00","feeInfo":"기본 60분 1,000원","phone":"053-665-3012","updatedAt":"2025-07-23","sido":"대구광역시","sigungu":"북구","dong":"동천동"},{"name":"관음제2공영","type":"공영","category":"노외","address":"대구광역시 북구 관음동 185","lat":35.94286226,"lng":128.5463893,"totalSpaces":44,"isFree":false,"operatingDays":"평일+토요일+공휴일","weekdayOpen":"00:00","weekdayClose":"23:59","weekendOpen":"00:00","weekendClose":"23:59","holidayOpen":"00:00","holidayClose":"23:59","feeInfo":"기본 30분 600원 / 추가 10분당 300원","phone":"053-665-3012","updatedAt":"2025-07-23","sido":"대구광역시","sigungu":"북구","dong":"관음동"},{"name":"산격(공영)","type":"공영","category":"노외","address":"대구광역시 북구 동북로36길 14","lat":35.89796474,"lng":128.6106083,"totalSpaces":43,"isFree":false,"operatingDays":"평일+토요일+공휴일","weekdayOpen":"00:00","weekdayClose":"23:59","weekendOpen":"00:00","weekendClose":"23:59","holidayOpen":"00:00","holidayClose":"23:59","feeInfo":"기본 30분 500원 / 추가 10분당 100원","phone":"053-665-3012","updatedAt":"2025-07-23","sido":"대구광역시","sigungu":"북구","dong":"산격동"},{"name":"한국농촌공사앞주차장","type":"공영","category":"노상","address":"대구광역시 북구 구암로 158","lat":35.9313747,"lng":128.557711,"totalSpaces":40,"isFree":false,"operatingDays":"평일","weekdayOpen":"09:00","weekdayClose":"18:00","weekendOpen":"00:00","weekendClose":"00:00","holidayOpen":"00:00","holidayClose":"00:00","feeInfo":"기본 10분 350원 / 추가 10분당 350원","phone":"053-603-4064","updatedAt":"2025-08-01","sido":"대구광역시","sigungu":"북구","dong":"구암동"},{"name":"노원로인근2","type":"공영","category":"노상","address":"대구광역시 북구 팔달로 105","lat":35.8898311,"lng":128.5610742,"totalSpaces":40,"isFree":false,"operatingDays":"평일","weekdayOpen":"08:00","weekdayClose":"18:00","weekendOpen":"00:00","weekendClose":"00:00","holidayOpen":"00:00","holidayClose":"00:00","feeInfo":"기본 30분 600원 / 추가 10분당 300원","phone":"1577-6446","updatedAt":"2025-07-23","sido":"대구광역시","sigungu":"북구","dong":"노원동3가"},{"name":"운암지 공영주차장(노상)","type":"공영","category":"노상","address":"대구광역시 북구 구암동 615-13","lat":35.93129001,"lng":128.564128,"totalSpaces":40,"isFree":false,"operatingDays":"평일","weekdayOpen":"09:00","weekdayClose":"18:00","weekendOpen":"00:00","weekendClose":"00:00","holidayOpen":"00:00","holidayClose":"00:00","feeInfo":"기본 30분 400원 / 추가 10분당 200원","phone":"053-665-3012","updatedAt":"2025-07-23","sido":"대구광역시","sigungu":"북구","dong":"구암동"},{"name":"칠성시장남편","type":"공영","category":"노상","address":"대구광역시 북구 칠성가구시장로2길 12","lat":35.8748935,"lng":128.6071208,"totalSpaces":39,"isFree":false,"operatingDays":"평일+토요일+공휴일","weekdayOpen":"07:00","weekdayClose":"18:00","weekendOpen":"07:00","weekendClose":"18:00","holidayOpen":"07:00","holidayClose":"18:00","feeInfo":"기본 30분 500원 / 추가 10분당 250원","phone":"1577-6446","updatedAt":"2025-07-23","sido":"대구광역시","sigungu":"북구","dong":"칠성동1가"},{"name":"북구청인근","type":"공영","category":"노상","address":"대구광역시 북구 침산동 449-5","lat":35.88757363,"lng":128.5829464,"totalSpaces":39,"isFree":false,"operatingDays":"평일+토요일","weekdayOpen":"08:00","weekdayClose":"18:00","weekendOpen":"00:00","weekendClose":"23:59","holidayOpen":"00:00","holidayClose":"00:00","feeInfo":"기본 30분 1,000원 / 추가 10분당 500원","phone":"1577-6446","updatedAt":"2025-07-23","sido":"대구광역시","sigungu":"북구","dong":"침산동"},{"name":"칠성시장남편주차장","type":"공영","category":"노상","address":"대구광역시 북구 칠성시장로 28","lat":35.87656655,"lng":128.6043009,"totalSpaces":38,"isFree":false,"operatingDays":"평일","weekdayOpen":"07:00","weekdayClose":"17:00","weekendOpen":"00:00","weekendClose":"00:00","holidayOpen":"00:00","holidayClose":"00:00","feeInfo":"기본 10분 300원 / 추가 10분당 300원","phone":"053-603-4064","updatedAt":"2025-08-01","sido":"대구광역시","sigungu":"북구","dong":"칠성동1가"},{"name":"노원동로인근(수성전기재료백화점)","type":"공영","category":"노상","address":"대구광역시 북구 노원동로 48","lat":35.89345536,"lng":128.5762127,"totalSpaces":37,"isFree":false,"operatingDays":"평일+토요일","weekdayOpen":"08:30","weekdayClose":"19:00","weekendOpen":"08:30","weekendClose":"19:00","holidayOpen":"00:00","holidayClose":"00:00","feeInfo":"기본 30분 600원 / 추가 10분당 300원","phone":"053-665-3012","updatedAt":"2025-07-23","sido":"대구광역시","sigungu":"북구","dong":"노원동2가"},{"name":"칠성시장광로","type":"공영","category":"노상","address":"대구광역시 북구 칠성동2가 407-8","lat":35.88002784,"lng":128.6019944,"totalSpaces":37,"isFree":false,"operatingDays":"평일+토요일+공휴일","weekdayOpen":"07:00","weekdayClose":"18:00","weekendOpen":"07:00","weekendClose":"18:00","holidayOpen":"07:00","holidayClose":"18:00","feeInfo":"기본 30분 500원 / 추가 10분당 250원","phone":"1577-6446","updatedAt":"2025-07-23","sido":"대구광역시","sigungu":"북구","dong":"칠성동2가"},{"name":"경대북문건너편주차장","type":"공영","category":"노상","address":"대구광역시 북구 대학로 95","lat":35.893611,"lng":128.6101861,"totalSpaces":34,"isFree":false,"operatingDays":"평일+토요일","weekdayOpen":"09:00","weekdayClose":"19:00","weekendOpen":"09:00","weekendClose":"19:00","holidayOpen":"00:00","holidayClose":"00:00","feeInfo":"기본 10분 350원 / 추가 10분당 350원","phone":"053-603-4064","updatedAt":"2025-08-01","sido":"대구광역시","sigungu":"북구","dong":"산격동"},{"name":"만평R북편주차장","type":"공영","category":"노상","address":"대구광역시 북구 팔달로 105","lat":35.88983657,"lng":128.5610731,"totalSpaces":34,"isFree":false,"operatingDays":"평일+토요일+공휴일","weekdayOpen":"08:00","weekdayClose":"19:00","weekendOpen":"08:00","weekendClose":"19:00","holidayOpen":"08:00","holidayClose":"19:00","feeInfo":"기본 10분 350원 / 추가 10분당 350원","phone":"053-603-4064","updatedAt":"2025-08-01","sido":"대구광역시","sigungu":"북구","dong":"노원동3가"},{"name":"공단","type":"공영","category":"노외","address":"대구광역시 북구 노원로 107","lat":35.89622155,"lng":128.5726379,"totalSpaces":34,"isFree":false,"operatingDays":"평일+토요일","weekdayOpen":"07:00","weekdayClose":"20:00","weekendOpen":"07:00","weekendClose":"16:00","holidayOpen":"00:00","holidayClose":"00:00","feeInfo":"기본 60분 1,500원","phone":"1577-6446","updatedAt":"2025-07-23","sido":"대구광역시","sigungu":"북구","dong":"노원동3가"},{"name":"명성","type":"민영","category":"노외","address":"대구광역시 북구 침산남로 154","lat":35.8878395,"lng":128.5922723,"totalSpaces":33,"isFree":false,"operatingDays":"평일+토요일+공휴일","weekdayOpen":"00:00","weekdayClose":"23:59","weekendOpen":"00:00","weekendClose":"23:59","holidayOpen":"00:00","holidayClose":"23:59","feeInfo":"기본 60분 1,000원","phone":"053-665-3012","updatedAt":"2025-07-23","sido":"대구광역시","sigungu":"북구","dong":"침산동"},{"name":"칠성꽃시장앞주차장","type":"공영","category":"노상","address":"대구광역시 북구 칠성남로 233","lat":35.8761767,"lng":128.6057926,"totalSpaces":32,"isFree":false,"operatingDays":"평일","weekdayOpen":"07:00","weekdayClose":"17:00","weekendOpen":"00:00","weekendClose":"00:00","holidayOpen":"00:00","holidayClose":"00:00","feeInfo":"기본 10분 300원 / 추가 10분당 300원","phone":"053-603-4064","updatedAt":"2025-08-01","sido":"대구광역시","sigungu":"북구","dong":"칠성동1가"},{"name":"3공단로1주차장","type":"공영","category":"노상","address":"대구광역시 북구 노원로 137","lat":35.8976528,"lng":128.5756284,"totalSpaces":32,"isFree":false,"operatingDays":"평일","weekdayOpen":"07:00","weekdayClose":"16:00","weekendOpen":"00:00","weekendClose":"00:00","holidayOpen":"00:00","holidayClose":"00:00","feeInfo":"기본 10분 350원 / 추가 10분당 350원","phone":"053-603-4064","updatedAt":"2025-08-01","sido":"대구광역시","sigungu":"북구","dong":"노원동3가"},{"name":"칠성시장북편주차장","type":"공영","category":"노상","address":"대구광역시 북구 칠성시장로 42","lat":35.87781729,"lng":128.6034808,"totalSpaces":31,"isFree":false,"operatingDays":"평일","weekdayOpen":"07:00","weekdayClose":"17:00","weekendOpen":"00:00","weekendClose":"00:00","holidayOpen":"00:00","holidayClose":"00:00","feeInfo":"기본 10분 300원 / 추가 10분당 300원","phone":"053-603-4064","updatedAt":"2025-08-01","sido":"대구광역시","sigungu":"북구","dong":"칠성동1가"},{"name":"대구시체육회앞주차장","type":"공영","category":"노상","address":"대구광역시 북구 고성로 182","lat":35.8802592,"lng":128.5857137,"totalSpaces":31,"isFree":false,"operatingDays":"평일+토요일","weekdayOpen":"09:00","weekdayClose":"19:00","weekendOpen":"09:00","weekendClose":"19:00","holidayOpen":"00:00","holidayClose":"00:00","feeInfo":"기본 10분 350원 / 추가 10분당 350원","phone":"053-603-4064","updatedAt":"2025-08-01","sido":"대구광역시","sigungu":"북구","dong":"고성동2가"},{"name":"구마니 유료주차장","type":"민영","category":"노외","address":"대구광역시 북구 칠성남로30길 9","lat":35.87695476,"lng":128.5962597,"totalSpaces":31,"isFree":false,"operatingDays":"평일+토요일+공휴일","weekdayOpen":"00:00","weekdayClose":"23:59","weekendOpen":"00:00","weekendClose":"23:59","holidayOpen":"00:00","holidayClose":"23:59","feeInfo":"기본 30분 1,000원 / 추가 10분당 500원","phone":"053-665-3012","updatedAt":"2025-07-23","sido":"대구광역시","sigungu":"북구","dong":"칠성동2가"},{"name":"한국농촌공사","type":"공영","category":"노상","address":"대구광역시 북구 구암로 158","lat":35.9313747,"lng":128.557711,"totalSpaces":30,"isFree":false,"operatingDays":"평일+토요일","weekdayOpen":"09:00","weekdayClose":"18:00","weekendOpen":"09:00","weekendClose":"18:00","holidayOpen":"00:00","holidayClose":"00:00","feeInfo":"기본 10분 350원 / 추가 10분당 350원","phone":"1577-6446","updatedAt":"2025-07-23","sido":"대구광역시","sigungu":"북구","dong":"구암동"},{"name":"칠성시장서편도로","type":"공영","category":"노상","address":"대구광역시 북구 칠성동1가 236-1","lat":35.87695983,"lng":128.6017572,"totalSpaces":30,"isFree":false,"operatingDays":"평일+토요일+공휴일","weekdayOpen":"07:00","weekdayClose":"18:00","weekendOpen":"17:00","weekendClose":"18:00","holidayOpen":"07:00","holidayClose":"18:00","feeInfo":"기본 30분 500원 / 추가 10분당 250원","phone":"1577-6446","updatedAt":"2025-07-23","sido":"대구광역시","sigungu":"북구","dong":"칠성동1가"},{"name":"칠성농협앞","type":"공영","category":"노상","address":"대구광역시 북구 칠성시장로 29","lat":35.8766329,"lng":128.6035994,"totalSpaces":30,"isFree":false,"operatingDays":"평일+토요일+공휴일","weekdayOpen":"07:00","weekdayClose":"18:00","weekendOpen":"07:00","weekendClose":"18:00","holidayOpen":"07:00","holidayClose":"18:00","feeInfo":"기본 30분 500원 / 추가 10분당 250원","phone":"1577-6446","updatedAt":"2025-07-23","sido":"대구광역시","sigungu":"북구","dong":"칠성동1가"},{"name":"3공단로2주차장","type":"공영","category":"노상","address":"대구광역시 북구 3공단로 23","lat":35.8933243,"lng":128.5555699,"totalSpaces":28,"isFree":false,"operatingDays":"평일","weekdayOpen":"08:00","weekdayClose":"18:00","weekendOpen":"00:00","weekendClose":"00:00","holidayOpen":"00:00","holidayClose":"00:00","feeInfo":"기본 10분 200원 / 추가 10분당 200원","phone":"053-603-4064","updatedAt":"2025-08-01","sido":"대구광역시","sigungu":"북구","dong":"노원동3가"},{"name":"대진","type":"민영","category":"노외","address":"대구광역시 북구 노원로 14-4","lat":35.89060717,"lng":128.5648608,"totalSpaces":28,"isFree":false,"operatingDays":"평일+토요일+공휴일","weekdayOpen":"04:30","weekdayClose":"18:30","weekendOpen":"04:30","weekendClose":"18:30","holidayOpen":"04:30","holidayClose":"18:30","feeInfo":"기본 30분 1,000원 / 추가 60분당 1,000원","phone":"053-665-3012","updatedAt":"2025-07-23","sido":"대구광역시","sigungu":"북구","dong":"노원동3가"},{"name":"신천교","type":"공영","category":"노상","address":"대구광역시 북구 칠성동2가 409-6","lat":35.87963102,"lng":128.6026753,"totalSpaces":27,"isFree":false,"operatingDays":"평일+토요일+공휴일","weekdayOpen":"07:00","weekdayClose":"18:30","weekendOpen":"07:00","weekendClose":"18:30","holidayOpen":"07:00","holidayClose":"18:30","feeInfo":"기본 30분 500원 / 추가 10분당 250원","phone":"1577-6446","updatedAt":"2025-07-23","sido":"대구광역시","sigungu":"북구","dong":"칠성동2가"},{"name":"우편집중국주차장","type":"공영","category":"노외","address":"대구광역시 북구 유통단지로 115","lat":35.9103850341,"lng":128.6146770028,"totalSpaces":25,"isFree":false,"operatingDays":"평일+토요일+공휴일","weekdayOpen":"08:00","weekdayClose":"18:00","weekendOpen":"08:00","weekendClose":"18:00","holidayOpen":"08:00","holidayClose":"18:00","feeInfo":"기본 10분 175원 / 추가 10분당 175원","phone":"053-382-6446","updatedAt":"2025-08-01","sido":"대구광역시","sigungu":"북구","dong":"산격동"},{"name":"칠성농협앞주차장","type":"공영","category":"노상","address":"대구광역시 북구 칠성시장로 29","lat":35.8766329,"lng":128.6035994,"totalSpaces":25,"isFree":false,"operatingDays":"평일","weekdayOpen":"07:00","weekdayClose":"17:00","weekendOpen":"00:00","weekendClose":"00:00","holidayOpen":"00:00","holidayClose":"00:00","feeInfo":"기본 10분 300원 / 추가 10분당 300원","phone":"053-603-4064","updatedAt":"2025-08-01","sido":"대구광역시","sigungu":"북구","dong":"칠성동1가"},{"name":"칠성시장서편주차장","type":"공영","category":"노상","address":"대구광역시 북구 공평로 144-8","lat":35.8770217,"lng":128.6017623,"totalSpaces":25,"isFree":false,"operatingDays":"평일","weekdayOpen":"07:00","weekdayClose":"17:00","weekendOpen":"00:00","weekendClose":"00:00","holidayOpen":"00:00","holidayClose":"00:00","feeInfo":"기본 10분 300원 / 추가 10분당 300원","phone":"053-603-4064","updatedAt":"2025-08-01","sido":"대구광역시","sigungu":"북구","dong":"칠성동1가"},{"name":"도성","type":"민영","category":"노외","address":"대구광역시 북구 옥산로 53","lat":35.88553119,"lng":128.5814603,"totalSpaces":25,"isFree":false,"operatingDays":"평일+토요일+공휴일","weekdayOpen":"09:00","weekdayClose":"22:00","weekendOpen":"09:00","weekendClose":"22:00","holidayOpen":"09:00","holidayClose":"22:00","feeInfo":"기본 30분 1,000원 / 추가 10분당 500원","phone":"053-665-3012","updatedAt":"2025-07-23","sido":"대구광역시","sigungu":"북구","dong":"노원동1가"},{"name":"광양","type":"민영","category":"노외","address":"대구광역시 북구 팔달로27길 81","lat":35.89220587,"lng":128.5679626,"totalSpaces":25,"isFree":false,"operatingDays":"평일+토요일+공휴일","weekdayOpen":"00:00","weekdayClose":"23:59","weekendOpen":"00:00","weekendClose":"23:59","holidayOpen":"00:00","holidayClose":"23:59","feeInfo":"기본 30분 500원 / 추가 60분당 1,000원","phone":"053-665-3012","updatedAt":"2025-07-23","sido":"대구광역시","sigungu":"북구","dong":"노원동3가"},{"name":"칠성시장방범초소","type":"공영","category":"노상","address":"대구광역시 북구 칠성동2가 409-24","lat":35.87924963,"lng":128.6026119,"totalSpaces":24,"isFree":false,"operatingDays":"평일+토요일+공휴일","weekdayOpen":"06:30","weekdayClose":"18:30","weekendOpen":"06:30","weekendClose":"18:30","holidayOpen":"06:30","holidayClose":"18:30","feeInfo":"기본 30분 500원 / 추가 10분당 250원","phone":"1577-6446","updatedAt":"2025-07-23","sido":"대구광역시","sigungu":"북구","dong":"칠성동2가"},{"name":"빵빵주차장","type":"민영","category":"노외","address":"대구광역시 북구 칠곡중앙대로 440","lat":35.9349066,"lng":128.5492023,"totalSpaces":24,"isFree":false,"operatingDays":"평일+토요일+공휴일","weekdayOpen":"00:00","weekdayClose":"23:59","weekendOpen":"00:00","weekendClose":"23:59","holidayOpen":"00:00","holidayClose":"23:59","feeInfo":"기본 30분 800원 / 추가 10분당 300원","phone":"053-665-3012","updatedAt":"2025-07-23","sido":"대구광역시","sigungu":"북구","dong":"읍내동"},{"name":"대륙","type":"민영","category":"노외","address":"대구광역시 북구 칠성남로37길 23","lat":35.87770358,"lng":128.6006471,"totalSpaces":24,"isFree":false,"operatingDays":"평일+토요일+공휴일","weekdayOpen":"08:00","weekdayClose":"19:00","weekendOpen":"08:00","weekendClose":"19:00","holidayOpen":"08:00","holidayClose":"19:00","feeInfo":"기본 30분 1,000원 / 추가 60분당 1,500원","phone":"053-665-3012","updatedAt":"2025-07-23","sido":"대구광역시","sigungu":"북구","dong":"칠성동2가"},{"name":"대흥","type":"민영","category":"노외","address":"대구광역시 북구 노원동3가 73-6","lat":35.89725996,"lng":128.5703747,"totalSpaces":24,"isFree":false,"operatingDays":"평일+토요일+공휴일","weekdayOpen":"00:00","weekdayClose":"23:59","weekendOpen":"00:00","weekendClose":"23:59","holidayOpen":"00:00","holidayClose":"23:59","feeInfo":"기본 30분 1,000원","phone":"053-665-3012","updatedAt":"2025-07-23","sido":"대구광역시","sigungu":"북구","dong":"노원동3가"},{"name":"풍국","type":"민영","category":"노외","address":"대구광역시 북구 노원로 19","lat":35.89212138,"lng":128.5648666,"totalSpaces":23,"isFree":false,"operatingDays":"평일+토요일+공휴일","weekdayOpen":"07:00","weekdayClose":"17:00","weekendOpen":"07:00","weekendClose":"17:00","holidayOpen":"07:00","holidayClose":"17:00","feeInfo":"기본 60분 1,000원","phone":"053-665-3012","updatedAt":"2025-07-23","sido":"대구광역시","sigungu":"북구","dong":"노원동3가"},{"name":"칠성꽃시장","type":"공영","category":"노상","address":"대구광역시 북구 중앙대로 484","lat":35.87634379,"lng":128.5972152,"totalSpaces":23,"isFree":false,"operatingDays":"평일+토요일+공휴일","weekdayOpen":"08:00","weekdayClose":"18:00","weekendOpen":"08:00","weekendClose":"18:00","holidayOpen":"08:00","holidayClose":"18:00","feeInfo":"기본 30분 500원 / 추가 10분당 250원","phone":"1577-6446","updatedAt":"2025-07-23","sido":"대구광역시","sigungu":"북구","dong":"칠성동2가"},{"name":"북구청앞1주차장","type":"공영","category":"노상","address":"대구광역시 북구 원대로 110","lat":35.88717773,"lng":128.583152,"totalSpaces":21,"isFree":false,"operatingDays":"평일","weekdayOpen":"08:00","weekdayClose":"18:00","weekendOpen":"00:00","weekendClose":"00:00","holidayOpen":"00:00","holidayClose":"00:00","feeInfo":"기본 10분 300원 / 추가 10분당 300원","phone":"053-603-4064","updatedAt":"2025-08-01","sido":"대구광역시","sigungu":"북구","dong":"침산동"},{"name":"역후","type":"민영","category":"노외","address":"대구광역시 북구 칠성남로30길 8-1","lat":35.87688665,"lng":128.5951518,"totalSpaces":21,"isFree":false,"operatingDays":"평일+토요일","weekdayOpen":"08:00","weekdayClose":"20:00","weekendOpen":"08:00","weekendClose":"20:00","holidayOpen":"00:00","holidayClose":"00:00","feeInfo":"기본 30분 1,000원 / 추가 60분당 2,000원","phone":"053-665-3012","updatedAt":"2025-07-23","sido":"대구광역시","sigungu":"북구","dong":"칠성동2가"},{"name":"청신","type":"민영","category":"노외","address":"대구광역시 북구 팔달로27길 45","lat":35.89122502,"lng":128.5664349,"totalSpaces":20,"isFree":false,"operatingDays":"평일+토요일+공휴일","weekdayOpen":"05:00","weekdayClose":"19:00","weekendOpen":"05:00","weekendClose":"19:00","holidayOpen":"00:00","holidayClose":"23:59","feeInfo":"기본 30분 1,000원","phone":"053-665-3012","updatedAt":"2025-07-23","sido":"대구광역시","sigungu":"북구","dong":"노원동3가"},{"name":"오렌지유료주차장(이옥분)","type":"민영","category":"노외","address":"대구광역시 북구 동천로23길 18","lat":35.94248568,"lng":128.5589261,"totalSpaces":18,"isFree":false,"operatingDays":"평일+토요일+공휴일","weekdayOpen":"00:00","weekdayClose":"23:59","weekendOpen":"00:00","weekendClose":"23:59","holidayOpen":"00:00","holidayClose":"23:59","feeInfo":"기본 30분 600원","phone":"053-665-3012","updatedAt":"2025-07-23","sido":"대구광역시","sigungu":"북구","dong":"동천동"},{"name":"EXPO","type":"민영","category":"노외","address":"대구광역시 북구 복현동 478-5","lat":35.89213231,"lng":128.6214481,"totalSpaces":18,"isFree":false,"operatingDays":"평일+토요일+공휴일","weekdayOpen":"08:00","weekdayClose":"20:00","weekendOpen":"08:00","weekendClose":"20:00","holidayOpen":"08:00","holidayClose":"20:00","feeInfo":"기본 30분 1,000원 / 추가 60분당 2,000원","phone":"053-665-3012","updatedAt":"2025-07-23","sido":"대구광역시","sigungu":"북구","dong":"복현동"},{"name":"동서","type":"민영","category":"노외","address":"대구광역시 북구 노원동2가 275-2","lat":35.88780656,"lng":128.5746524,"totalSpaces":18,"isFree":false,"operatingDays":"평일+토요일","weekdayOpen":"09:00","weekdayClose":"18:00","weekendOpen":"19:00","weekendClose":"23:59","holidayOpen":"00:00","holidayClose":"00:00","feeInfo":"기본 60분 1,000원","phone":"053-665-3012","updatedAt":"2025-07-23","sido":"대구광역시","sigungu":"북구","dong":"노원동2가"},{"name":"대현","type":"민영","category":"노외","address":"대구광역시 북구 신암로 99","lat":35.87990804,"lng":128.6104856,"totalSpaces":18,"isFree":false,"operatingDays":"평일+토요일","weekdayOpen":"09:00","weekdayClose":"22:00","weekendOpen":"09:00","weekendClose":"22:00","holidayOpen":"00:00","holidayClose":"00:00","feeInfo":"기본 30분 1,000원 / 추가 60분당 2,000원","phone":"053-665-3012","updatedAt":"2025-07-23","sido":"대구광역시","sigungu":"북구","dong":"대현동"},{"name":"아진","type":"민영","category":"노외","address":"대구광역시 북구 팔달로 159","lat":35.88926955,"lng":128.5675428,"totalSpaces":17,"isFree":false,"operatingDays":"평일+토요일","weekdayOpen":"09:00","weekdayClose":"19:00","weekendOpen":"09:00","weekendClose":"19:00","holidayOpen":"00:00","holidayClose":"00:00","feeInfo":"기본 60분 1,000원","phone":"053-665-3012","updatedAt":"2025-07-23","sido":"대구광역시","sigungu":"북구","dong":"노원동3가"},{"name":"풍국면앞","type":"공영","category":"노상","address":"대구광역시 북구 팔달로 105","lat":35.8898311,"lng":128.5610742,"totalSpaces":16,"isFree":false,"operatingDays":"평일","weekdayOpen":"07:00","weekdayClose":"16:00","weekendOpen":"00:00","weekendClose":"00:00","holidayOpen":"00:00","holidayClose":"00:00","feeInfo":"기본 30분 600원 / 추가 10분당 300원","phone":"1577-6446","updatedAt":"2025-07-23","sido":"대구광역시","sigungu":"북구","dong":"노원동3가"},{"name":"강북","type":"민영","category":"노외","address":"대구광역시 북구 구암로32길 6-20","lat":35.93131704,"lng":128.5559931,"totalSpaces":16,"isFree":false,"operatingDays":"평일+토요일+공휴일","weekdayOpen":"06:00","weekdayClose":"21:00","weekendOpen":"06:00","weekendClose":"21:00","holidayOpen":"06:00","holidayClose":"21:00","feeInfo":"기본 30분 1,500원 / 추가 10분당 200원","phone":"053-665-3012","updatedAt":"2025-07-23","sido":"대구광역시","sigungu":"북구","dong":"구암동"},{"name":"칠성시장동편","type":"공영","category":"노상","address":"대구광역시 북구 칠성가구시장로2길 12","lat":35.8748935,"lng":128.6071208,"totalSpaces":16,"isFree":false,"operatingDays":"평일+토요일+공휴일","weekdayOpen":"07:00","weekdayClose":"18:00","weekendOpen":"07:00","weekendClose":"18:00","holidayOpen":"07:00","holidayClose":"18:00","feeInfo":"기본 30분 500원 / 추가 10분당 250원","phone":"1577-6446","updatedAt":"2025-07-23","sido":"대구광역시","sigungu":"북구","dong":"칠성동1가"},{"name":"만평","type":"민영","category":"노외","address":"대구광역시 북구 팔달로 155-1","lat":35.88939489,"lng":128.5671873,"totalSpaces":16,"isFree":false,"operatingDays":"평일+토요일+공휴일","weekdayOpen":"00:00","weekdayClose":"23:59","weekendOpen":"00:00","weekendClose":"23:59","holidayOpen":"00:00","holidayClose":"23:59","feeInfo":"기본 30분 1,000원 / 추가 10분당 500원","phone":"053-665-3012","updatedAt":"2025-07-23","sido":"대구광역시","sigungu":"북구","dong":"노원동3가"},{"name":"영덕","type":"민영","category":"노외","address":"대구광역시 북구 팔달로27길 71","lat":35.89181778,"lng":128.5674167,"totalSpaces":16,"isFree":false,"operatingDays":"평일","weekdayOpen":"08:00","weekdayClose":"18:00","weekendOpen":"00:00","weekendClose":"00:00","holidayOpen":"00:00","holidayClose":"00:00","feeInfo":"기본 60분 1,000원","phone":"053-665-3012","updatedAt":"2025-07-23","sido":"대구광역시","sigungu":"북구","dong":"노원동3가"},{"name":"북구청앞2주차장","type":"공영","category":"노상","address":"대구광역시 북구 원대로 101","lat":35.886335,"lng":128.5820012,"totalSpaces":15,"isFree":false,"operatingDays":"평일","weekdayOpen":"08:00","weekdayClose":"18:00","weekendOpen":"00:00","weekendClose":"00:00","holidayOpen":"00:00","holidayClose":"00:00","feeInfo":"기본 10분 300원 / 추가 10분당 300원","phone":"053-603-4064","updatedAt":"2025-08-01","sido":"대구광역시","sigungu":"북구","dong":"노원동1가"},{"name":"구남","type":"민영","category":"노외","address":"대구광역시 북구 구암로17길 3","lat":35.93292828,"lng":128.5503945,"totalSpaces":15,"isFree":false,"operatingDays":"평일+토요일+공휴일","weekdayOpen":"00:00","weekdayClose":"23:59","weekendOpen":"00:00","weekendClose":"23:59","holidayOpen":"00:00","holidayClose":"23:59","feeInfo":"기본 30분 1,000원 / 추가 60분당 2,000원","phone":"053-665-3012","updatedAt":"2025-07-23","sido":"대구광역시","sigungu":"북구","dong":"읍내동"},{"name":"노원로인근1","type":"공영","category":"노상","address":"대구광역시 북구 팔달로 105","lat":35.8898311,"lng":128.5610742,"totalSpaces":14,"isFree":false,"operatingDays":"평일","weekdayOpen":"07:00","weekdayClose":"16:00","weekendOpen":"00:00","weekendClose":"00:00","holidayOpen":"00:00","holidayClose":"00:00","feeInfo":"기본 30분 600원 / 추가 10분당 300원","phone":"1577-6446","updatedAt":"2025-07-23","sido":"대구광역시","sigungu":"북구","dong":"노원동3가"},{"name":"삼성주차장(박문웅)","type":"민영","category":"노외","address":"대구광역시 북구 동천로23길 18","lat":35.94245761,"lng":128.5589261,"totalSpaces":14,"isFree":false,"operatingDays":"평일+토요일+공휴일","weekdayOpen":"00:00","weekdayClose":"23:59","weekendOpen":"00:00","weekendClose":"23:59","holidayOpen":"00:00","holidayClose":"23:59","feeInfo":"기본 30분 600원","phone":"053-665-3012","updatedAt":"2025-07-23","sido":"대구광역시","sigungu":"북구","dong":"동천동"},{"name":"벧엘","type":"민영","category":"노외","address":"대구광역시 북구 대현로9길 2","lat":35.88518404,"lng":128.6049054,"totalSpaces":13,"isFree":false,"operatingDays":"평일+토요일+공휴일","weekdayOpen":"00:00","weekdayClose":"23:59","weekendOpen":"00:00","weekendClose":"23:59","holidayOpen":"00:00","holidayClose":"23:59","feeInfo":"기본 60분 1,000원","phone":"053-665-3012","updatedAt":"2025-07-23","sido":"대구광역시","sigungu":"북구","dong":"대현동"},{"name":"신만평","type":"민영","category":"노외","address":"대구광역시 북구 팔달로 133","lat":35.88970924,"lng":128.5646922,"totalSpaces":13,"isFree":false,"operatingDays":"평일+토요일+공휴일","weekdayOpen":"09:00","weekdayClose":"19:00","weekendOpen":"09:00","weekendClose":"19:00","holidayOpen":"09:00","holidayClose":"19:00","feeInfo":"기본 30분 800원 / 추가 60분당 1,500원","phone":"053-665-3012","updatedAt":"2025-07-23","sido":"대구광역시","sigungu":"북구","dong":"노원동3가"},{"name":"신태경","type":"민영","category":"노외","address":"대구광역시 북구 호국로51길 5","lat":35.92433357,"lng":128.5986496,"totalSpaces":13,"isFree":false,"operatingDays":"평일+토요일+공휴일","weekdayOpen":"00:00","weekdayClose":"23:59","weekendOpen":"00:00","weekendClose":"23:59","holidayOpen":"00:00","holidayClose":"23:59","feeInfo":"기본 60분 2,000원","phone":"053-665-3012","updatedAt":"2025-07-23","sido":"대구광역시","sigungu":"북구","dong":"서변동"},{"name":"칠성시장 동편","type":"공영","category":"노상","address":"대구광역시 북구 칠성남로 232","lat":35.87579278,"lng":128.605587,"totalSpaces":12,"isFree":false,"operatingDays":"평일","weekdayOpen":"07:00","weekdayClose":"17:00","weekendOpen":"00:00","weekendClose":"00:00","holidayOpen":"00:00","holidayClose":"00:00","feeInfo":"기본 10분 300원 / 추가 10분당 300원","phone":"053-603-4064","updatedAt":"2025-08-01","sido":"대구광역시","sigungu":"북구","dong":"칠성동1가"},{"name":"풍국면앞주차장","type":"공영","category":"노상","address":"대구광역시 북구 노원로 31","lat":35.89224086,"lng":128.565938,"totalSpaces":12,"isFree":false,"operatingDays":"평일","weekdayOpen":"07:00","weekdayClose":"16:00","weekendOpen":"00:00","weekendClose":"00:00","holidayOpen":"00:00","holidayClose":"00:00","feeInfo":"기본 10분 200원 / 추가 10분당 200원","phone":"053-603-4064","updatedAt":"2025-08-01","sido":"대구광역시","sigungu":"북구","dong":"노원동3가"},{"name":"산격유료주차장","type":"민영","category":"노외","address":"대구광역시 북구 연암공원로 26","lat":35.89322494,"lng":128.5976695,"totalSpaces":11,"isFree":false,"operatingDays":"평일+토요일+공휴일","weekdayOpen":"00:00","weekdayClose":"23:59","weekendOpen":"00:00","weekendClose":"23:59","holidayOpen":"00:00","holidayClose":"23:59","feeInfo":"기본 30분 1,000원","phone":"053-665-3012","updatedAt":"2025-07-23","sido":"대구광역시","sigungu":"북구","dong":"산격동"},{"name":"칠성전자상가주차장","type":"공영","category":"노상","address":"대구광역시 북구 칠성가구시장로2길 8","lat":35.87486678,"lng":128.6071208,"totalSpaces":10,"isFree":false,"operatingDays":"평일","weekdayOpen":"07:00","weekdayClose":"17:00","weekendOpen":"00:00","weekendClose":"00:00","holidayOpen":"00:00","holidayClose":"00:00","feeInfo":"기본 10분 300원 / 추가 10분당 300원","phone":"053-603-4064","updatedAt":"2025-08-01","sido":"대구광역시","sigungu":"북구","dong":"칠성동1가"},{"name":"통일로","type":"민영","category":"노외","address":"대구광역시 북구 침산남로 209","lat":35.8869306,"lng":128.5985068,"totalSpaces":10,"isFree":false,"operatingDays":"평일","weekdayOpen":"12:00","weekdayClose":"17:00","weekendOpen":"00:00","weekendClose":"00:00","holidayOpen":"00:00","holidayClose":"00:00","feeInfo":"기본 30분 1,000원 / 추가 60분당 1,000원","phone":"053-665-3012","updatedAt":"2025-07-23","sido":"대구광역시","sigungu":"북구","dong":"침산동"},{"name":"뉴욕","type":"민영","category":"노외","address":"대구광역시 북구 칠성남로 230","lat":35.875613,"lng":128.6053331,"totalSpaces":10,"isFree":false,"operatingDays":"평일+토요일+공휴일","weekdayOpen":"00:00","weekdayClose":"23:59","weekendOpen":"00:00","weekendClose":"23:59","holidayOpen":"00:00","holidayClose":"23:59","feeInfo":"기본 60분 1,000원","phone":"053-665-3012","updatedAt":"2025-07-23","sido":"대구광역시","sigungu":"북구","dong":"칠성동1가"},{"name":"대광","type":"민영","category":"노외","address":"대구광역시 북구 오봉로 12","lat":35.88880316,"lng":128.5764994,"totalSpaces":10,"isFree":false,"operatingDays":"평일+토요일","weekdayOpen":"07:00","weekdayClose":"21:00","weekendOpen":"07:00","weekendClose":"21:00","holidayOpen":"00:00","holidayClose":"00:00","feeInfo":"기본 30분 1,000원 / 추가 60분당 1,500원","phone":"053-665-3012","updatedAt":"2025-07-23","sido":"대구광역시","sigungu":"북구","dong":"노원동1가"},{"name":"칠성시장북편","type":"공영","category":"노상","address":"대구광역시 북구 칠성가구시장로2길 12","lat":35.8748935,"lng":128.6071208,"totalSpaces":9,"isFree":false,"operatingDays":"평일+토요일+공휴일","weekdayOpen":"07:00","weekdayClose":"18:00","weekendOpen":"07:00","weekendClose":"18:00","holidayOpen":"07:00","holidayClose":"18:00","feeInfo":"기본 30분 500원 / 추가 10분당 250원","phone":"1577-6446","updatedAt":"2025-07-23","sido":"대구광역시","sigungu":"북구","dong":"칠성동1가"},{"name":"지하철대구역인근","type":"민영","category":"노외","address":"대구광역시 북구 칠성동2가 302-338","lat":35.87604689,"lng":128.599077,"totalSpaces":9,"isFree":false,"operatingDays":"평일+토요일+공휴일","weekdayOpen":"00:00","weekdayClose":"23:59","weekendOpen":"00:00","weekendClose":"23:59","holidayOpen":"00:00","holidayClose":"23:59","feeInfo":"기본 30분 1,000원 / 추가 10분당 500원","phone":"053-665-3012","updatedAt":"2025-07-23","sido":"대구광역시","sigungu":"북구","dong":"칠성동2가"},{"name":"대보","type":"민영","category":"노외","address":"대구광역시 북구 칠성남로30길 8-1","lat":35.87688665,"lng":128.5951518,"totalSpaces":9,"isFree":false,"operatingDays":"평일+토요일","weekdayOpen":"09:00","weekdayClose":"20:00","weekendOpen":"09:00","weekendClose":"20:00","holidayOpen":"00:00","holidayClose":"00:00","feeInfo":"기본 30분 1,000원 / 추가 60분당 2,000원","phone":"053-665-3012","updatedAt":"2025-07-23","sido":"대구광역시","sigungu":"북구","dong":"칠성동2가"},{"name":"화성","type":"민영","category":"노외","address":"대구광역시 북구 중앙대로 580","lat":35.8846168,"lng":128.5975673,"totalSpaces":8,"isFree":false,"operatingDays":"평일+토요일+공휴일","weekdayOpen":"06:00","weekdayClose":"23:59","weekendOpen":"06:00","weekendClose":"23:59","holidayOpen":"06:00","holidayClose":"23:59","feeInfo":"기본 30분 600원 / 추가 10분당 100원","phone":"053-665-3012","updatedAt":"2025-07-23","sido":"대구광역시","sigungu":"북구","dong":"침산동"},{"name":"칠성공구상가앞","type":"공영","category":"노상","address":"대구광역시 북구 칠성가구시장로2길 12","lat":35.8748935,"lng":128.6071208,"totalSpaces":8,"isFree":false,"operatingDays":"평일+토요일+공휴일","weekdayOpen":"07:00","weekdayClose":"18:00","weekendOpen":"07:00","weekendClose":"18:00","holidayOpen":"07:00","holidayClose":"18:00","feeInfo":"기본 30분 500원 / 추가 10분당 250원","phone":"1577-6446","updatedAt":"2025-07-23","sido":"대구광역시","sigungu":"북구","dong":"칠성동1가"},{"name":"칠성전자상가앞","type":"공영","category":"노상","address":"대구광역시 북구 칠성가구시장로2길 12","lat":35.8748935,"lng":128.6071208,"totalSpaces":7,"isFree":false,"operatingDays":"평일+토요일+공휴일","weekdayOpen":"07:00","weekdayClose":"18:00","weekendOpen":"17:00","weekendClose":"18:00","holidayOpen":"07:00","holidayClose":"18:00","feeInfo":"기본 30분 500원 / 추가 10분당 250원","phone":"1577-6446","updatedAt":"2025-07-23","sido":"대구광역시","sigungu":"북구","dong":"칠성동1가"},{"name":"보근","type":"민영","category":"노외","address":"대구광역시 북구 공평로 155-2","lat":35.87792093,"lng":128.6010181,"totalSpaces":7,"isFree":false,"operatingDays":"평일+토요일","weekdayOpen":"09:00","weekdayClose":"20:00","weekendOpen":"09:00","weekendClose":"20:00","holidayOpen":"00:00","holidayClose":"00:00","feeInfo":"기본 30분 1,000원 / 추가 60분당 2,000원","phone":"053-665-3012","updatedAt":"2025-07-23","sido":"대구광역시","sigungu":"북구","dong":"칠성동2가"},{"name":"우정","type":"민영","category":"노외","address":"대구광역시 북구 노원로10길 35","lat":35.8920819,"lng":128.5693763,"totalSpaces":4,"isFree":false,"operatingDays":"평일","weekdayOpen":"07:30","weekdayClose":"21:00","weekendOpen":"00:00","weekendClose":"00:00","holidayOpen":"00:00","holidayClose":"00:00","feeInfo":"기본 30분 1,000원","phone":"053-665-3012","updatedAt":"2025-07-23","sido":"대구광역시","sigungu":"북구","dong":"노원동3가"}]}