{"sido":"대구광역시","sigungu":"수성구","totalCount":41,"validCount":41,"items":[{"name":"외환들공영주차장","type":"공영","category":"노외","address":"대구광역시 수성구 미술관로 40","lat":35.82702838,"lng":128.674339,"totalSpaces":643,"isFree":true,"operatingDays":"평일+토요일+공휴일","weekdayOpen":"00:00","weekdayClose":"23:59","weekendOpen":"00:00","weekendClose":"23:59","holidayOpen":"00:00","holidayClose":"23:59","feeInfo":"무료","phone":"053-603-4064","updatedAt":"2025-08-01","sido":"대구광역시","sigungu":"수성구","dong":"삼덕동"},{"name":"욱수골공영주차장","type":"공영","category":"노외","address":"대구광역시 수성구 욱수동 694","lat":35.82769164,"lng":128.708738,"totalSpaces":224,"isFree":true,"operatingDays":"평일+토요일+공휴일","weekdayOpen":"00:00","weekdayClose":"23:59","weekendOpen":"00:00","weekendClose":"23:59","holidayOpen":"00:00","holidayClose":"23:59","feeInfo":"무료","phone":"053-666-3043","updatedAt":"2025-11-07","sido":"대구광역시","sigungu":"수성구","dong":"욱수동"},{"name":"노변공영주차장","type":"공영","category":"노외","address":"대구광역시 수성구 시지동 490","lat":35.83945966,"lng":128.6942741,"totalSpaces":64,"isFree":true,"operatingDays":"평일+토요일+공휴일","weekdayOpen":"00:00","weekdayClose":"23:59","weekendOpen":"00:00","weekendClose":"23:59","holidayOpen":"00:00","holidayClose":"23:59","feeInfo":"무료","phone":"053-666-3043","updatedAt":"2025-11-07","sido":"대구광역시","sigungu":"수성구","dong":"시지동"},{"name":"진밭골 공영주차장","type":"공영","category":"노외","address":"대구광역시 수성구 범물동 1221-26","lat":35.8151825576,"lng":128.652068,"totalSpaces":48,"isFree":true,"operatingDays":"평일+토요일+공휴일","weekdayOpen":"00:00","weekdayClose":"23:59","weekendOpen":"00:00","weekendClose":"23:59","holidayOpen":"00:00","holidayClose":"23:59","feeInfo":"무료","phone":"053-666-3043","updatedAt":"2025-11-07","sido":"대구광역시","sigungu":"수성구","dong":"범물동"},{"name":"매호동임시공영주차장","type":"공영","category":"노외","address":"대구광역시 수성구 매호동 314-1","lat":35.8519284673,"lng":128.708576,"totalSpaces":46,"isFree":true,"operatingDays":"평일+토요일+공휴일","weekdayOpen":"00:00","weekdayClose":"23:59","weekendOpen":"00:00","weekendClose":"23:59","holidayOpen":"00:00","holidayClose":"23:59","feeInfo":"무료","phone":"053-666-3043","updatedAt":"2025-11-07","sido":"대구광역시","sigungu":"수성구","dong":"매호동"},{"name":"파동교네거리주차장","type":"공영","category":"노외","address":"대구광역시 수성구 파동 274","lat":35.8114119946,"lng":128.6220538332,"totalSpaces":31,"isFree":true,"operatingDays":"평일+토요일+공휴일","weekdayOpen":"00:00","weekdayClose":"23:59","weekendOpen":"00:00","weekendClose":"23:59","holidayOpen":"00:00","holidayClose":"23:59","feeInfo":"무료","phone":"053-666-3043","updatedAt":"2025-11-07","sido":"대구광역시","sigungu":"수성구","dong":"파동"},{"name":"황금동공영주차장2","type":"공영","category":"노외","address":"대구광역시 수성구 황금동 953-4","lat":35.84193089,"lng":128.6253674,"totalSpaces":28,"isFree":true,"operatingDays":"평일+토요일+공휴일","weekdayOpen":"00:00","weekdayClose":"23:59","weekendOpen":"00:00","weekendClose":"23:59","holidayOpen":"00:00","holidayClose":"23:59","feeInfo":"무료","phone":"053-666-3043","updatedAt":"2025-11-07","sido":"대구광역시","sigungu":"수성구","dong":"황금동"},{"name":"황금동공영주차장1","type":"공영","category":"노외","address":"대구광역시 수성구 황금동 720-4","lat":35.84932257,"lng":128.6187236,"totalSpaces":22,"isFree":true,"operatingDays":"평일+토요일+공휴일","weekdayOpen":"00:00","weekdayClose":"23:59","weekendOpen":"00:00","weekendClose":"23:59","holidayOpen":"00:00","holidayClose":"23:59","feeInfo":"무료","phone":"053-666-3043","updatedAt":"2025-11-07","sido":"대구광역시","sigungu":"수성구","dong":"황금동"},{"name":"모명재공영주차장","type":"공영","category":"노외","address":"대구광역시 수성구 만촌동 726-4","lat":35.85811954,"lng":128.6508145,"totalSpaces":18,"isFree":true,"operatingDays":"평일+토요일+공휴일","weekdayOpen":"00:00","weekdayClose":"23:59","weekendOpen":"00:00","weekendClose":"23:59","holidayOpen":"00:00","holidayClose":"23:59","feeInfo":"무료","phone":"053-666-3043","updatedAt":"2025-11-07","sido":"대구광역시","sigungu":"수성구","dong":"만촌동"},{"name":"만촌동공영주차장3","type":"공영","category":"노외","address":"대구광역시 수성구 만촌동 970-14","lat":35.8663694,"lng":128.6445992,"totalSpaces":17,"isFree":true,"operatingDays":"평일+토요일+공휴일","weekdayOpen":"00:00","weekdayClose":"23:59","weekendOpen":"00:00","weekendClose":"23:59","holidayOpen":"00:00","holidayClose":"23:59","feeInfo":"무료","phone":"053-666-3043","updatedAt":"2025-11-07","sido":"대구광역시","sigungu":"수성구","dong":"만촌동"},{"name":"두산동 끝동공영주차장","type":"공영","category":"노외","address":"대구광역시 수성구 두산동 157-19, 22","lat":35.83225509,"lng":128.6186974,"totalSpaces":16,"isFree":true,"operatingDays":"평일+토요일+공휴일","weekdayOpen":"00:00","weekdayClose":"23:59","weekendOpen":"00:00","weekendClose":"23:59","holidayOpen":"00:00","holidayClose":"23:59","feeInfo":"무료","phone":"053-666-3043","updatedAt":"2025-11-07","sido":"대구광역시","sigungu":"수성구","dong":"두산동"},{"name":"범어2동 공영주차장(수성명품 단독주택지 내)","type":"공영","category":"노외","address":"대구광역시 수성구 범어동 427-1","lat":35.8659749,"lng":128.6366051,"totalSpaces":14,"isFree":true,"operatingDays":"평일+토요일+공휴일","weekdayOpen":"00:00","weekdayClose":"23:59","weekendOpen":"00:00","weekendClose":"23:59","holidayOpen":"00:00","holidayClose":"23:59","feeInfo":"무료","phone":"053-666-3043","updatedAt":"2025-11-07","sido":"대구광역시","sigungu":"수성구","dong":"범어동"},{"name":"파동강촌1공영주차장","type":"공영","category":"노외","address":"대구광역시 수성구 파동 110-147","lat":35.8188277403,"lng":128.6144437002,"totalSpaces":12,"isFree":true,"operatingDays":"평일+토요일+공휴일","weekdayOpen":"00:00","weekdayClose":"23:59","weekendOpen":"00:00","weekendClose":"23:59","holidayOpen":"00:00","holidayClose":"23:59","feeInfo":"무료","phone":"053-666-3043","updatedAt":"2025-11-07","sido":"대구광역시","sigungu":"수성구","dong":"파동"},{"name":"상동덕화공영주차장","type":"공영","category":"노외","address":"대구광역시 수성구 상동 334-3","lat":35.83372981,"lng":128.6137199,"totalSpaces":12,"isFree":true,"operatingDays":"평일+토요일+공휴일","weekdayOpen":"00:00","weekdayClose":"23:59","weekendOpen":"00:00","weekendClose":"23:59","holidayOpen":"00:00","holidayClose":"23:59","feeInfo":"무료","phone":"053-666-3043","updatedAt":"2025-11-07","sido":"대구광역시","sigungu":"수성구","dong":"상동"},{"name":"두산동 공영주차장","type":"공영","category":"노외","address":"대구광역시 수성구 들안로20길 12","lat":35.83785394,"lng":128.6183597,"totalSpaces":11,"isFree":true,"operatingDays":"평일+토요일+공휴일","weekdayOpen":"00:00","weekdayClose":"23:59","weekendOpen":"00:00","weekendClose":"23:59","holidayOpen":"00:00","holidayClose":"23:59","feeInfo":"무료","phone":"053-666-3043","updatedAt":"2025-11-07","sido":"대구광역시","sigungu":"수성구","dong":"두산동"},{"name":"만촌역제2주차장","type":"공영","category":"노외","address":"대구광역시 수성구 만촌동 1061","lat":35.8555888345,"lng":128.6462557146,"totalSpaces":10,"isFree":true,"operatingDays":"평일+토요일+공휴일","weekdayOpen":"00:00","weekdayClose":"23:59","weekendOpen":"00:00","weekendClose":"23:59","holidayOpen":"00:00","holidayClose":"23:59","feeInfo":"무료","phone":"053-666-3043","updatedAt":"2025-11-07","sido":"대구광역시","sigungu":"수성구","dong":"만촌동"},{"name":"만촌동공영주차장2","type":"공영","category":"노외","address":"대구광역시 수성구 만촌동 961-9","lat":35.86412548,"lng":128.6430646,"totalSpaces":10,"isFree":true,"operatingDays":"평일+토요일+공휴일","weekdayOpen":"00:00","weekdayClose":"23:59","weekendOpen":"00:00","weekendClose":"23:59","holidayOpen":"00:00","holidayClose":"23:59","feeInfo":"무료","phone":"053-666-3043","updatedAt":"2025-11-07","sido":"대구광역시","sigungu":"수성구","dong":"만촌동"},{"name":"만촌역제1주차장","type":"공영","category":"노외","address":"대구광역시 수성구 만촌동 1052-3","lat":35.85662274,"lng":128.646439,"totalSpaces":9,"isFree":true,"operatingDays":"평일+토요일+공휴일","weekdayOpen":"00:00","weekdayClose":"23:59","weekendOpen":"00:00","weekendClose":"23:59","holidayOpen":"00:00","holidayClose":"23:59","feeInfo":"무료","phone":"053-666-3043","updatedAt":"2025-11-07","sido":"대구광역시","sigungu":"수성구","dong":"만촌동"},{"name":"파동강촌2공영주차장","type":"공영","category":"노외","address":"대구광역시 수성구 파동 110-127","lat":35.8186368138,"lng":128.6149849698,"totalSpaces":7,"isFree":true,"operatingDays":"평일+토요일+공휴일","weekdayOpen":"00:00","weekdayClose":"23:59","weekendOpen":"00:00","weekendClose":"23:59","holidayOpen":"00:00","holidayClose":"23:59","feeInfo":"무료","phone":"053-666-3043","updatedAt":"2025-11-07","sido":"대구광역시","sigungu":"수성구","dong":"파동"},{"name":"만촌동공영주차장1","type":"공영","category":"노외","address":"대구광역시 수성구 만촌동 668-16","lat":35.8683326,"lng":128.6440333,"totalSpaces":5,"isFree":true,"operatingDays":"평일+토요일+공휴일","weekdayOpen":"00:00","weekdayClose":"23:59","weekendOpen":"00:00","weekendClose":"23:59","holidayOpen":"00:00","holidayClose":"23:59","feeInfo":"무료","phone":"053-666-3043","updatedAt":"2025-11-07","sido":"대구광역시","sigungu":"수성구","dong":"만촌동"},{"name":"만촌동공영주차장4","type":"공영","category":"노외","address":"대구광역시 수성구 만촌동 863-53","lat":35.8521087726,"lng":128.6514653709,"totalSpaces":4,"isFree":true,"operatingDays":"평일+토요일+공휴일","weekdayOpen":"00:00","weekdayClose":"23:59","weekendOpen":"00:00","weekendClose":"23:59","holidayOpen":"00:00","holidayClose":"23:59","feeInfo":"무료","phone":"053-666-3043","updatedAt":"2025-11-07","sido":"대구광역시","sigungu":"수성구","dong":"만촌동"},{"name":"만촌역공영주차장","type":"공영","category":"노외","address":"대구광역시 수성구 만촌동 849-35","lat":35.8571625458,"lng":128.6484071652,"totalSpaces":3,"isFree":true,"operatingDays":"평일+토요일+공휴일","weekdayOpen":"00:00","weekdayClose":"23:59","weekendOpen":"00:00","weekendClose":"23:59","holidayOpen":"00:00","holidayClose":"23:59","feeInfo":"무료","phone":"053-666-3043","updatedAt":"2025-11-07","sido":"대구광역시","sigungu":"수성구","dong":"만촌동"},{"name":"어린이세상역앞 공영주차장","type":"공영","category":"노외","address":"대구광역시 수성구 동대구로 194","lat":35.8476818,"lng":128.6253323,"totalSpaces":199,"isFree":false,"operatingDays":"평일+토요일+공휴일","weekdayOpen":"07:00","weekdayClose":"19:00","weekendOpen":"07:00","weekendClose":"19:00","holidayOpen":"07:00","holidayClose":"19:00","feeInfo":"기본 120분 1,000원 / 추가 120분당 1,000원","phone":"053-603-4064","updatedAt":"2025-08-01","sido":"대구광역시","sigungu":"수성구","dong":"황금동"},{"name":"시지근린공원주차장","type":"공영","category":"노외","address":"대구광역시 수성구 달구벌대로637길 5","lat":35.84136103,"lng":128.7060404,"totalSpaces":139,"isFree":false,"operatingDays":"평일+토요일+공휴일","weekdayOpen":"08:00","weekdayClose":"22:00","weekendOpen":"08:00","weekendClose":"22:00","holidayOpen":"08:00","holidayClose":"22:00","feeInfo":"기본 120분 1,000원","phone":"053-792-6444","updatedAt":"2025-08-01","sido":"대구광역시","sigungu":"수성구","dong":"매호동"},{"name":"지산근린공원주차장","type":"공영","category":"노외","address":"대구광역시 수성구 용학로 267","lat":35.82093452,"lng":128.6376141,"totalSpaces":133,"isFree":false,"operatingDays":"평일+토요일+공휴일","weekdayOpen":"08:00","weekdayClose":"23:00","weekendOpen":"08:00","weekendClose":"23:00","holidayOpen":"08:00","holidayClose":"23:00","feeInfo":"기본 120분 1,000원","phone":"053-782-7913","updatedAt":"2025-08-01","sido":"대구광역시","sigungu":"수성구","dong":"지산동"},{"name":"신매시장공영주차장","type":"공영","category":"노외","address":"대구광역시 수성구 신매동 571","lat":35.8388913626,"lng":128.7104468821,"totalSpaces":131,"isFree":false,"operatingDays":"평일+토요일+공휴일","weekdayOpen":"08:00","weekdayClose":"19:00","weekendOpen":"00:00","weekendClose":"23:59","holidayOpen":"00:00","holidayClose":"23:59","feeInfo":"기본 30분 600원 / 추가 10분당 300원","phone":"053-666-3043","updatedAt":"2025-11-07","sido":"대구광역시","sigungu":"수성구","dong":"신매동"},{"name":"범물근린공원주차장","type":"공영","category":"노외","address":"대구광역시 수성구 지범로 232","lat":35.818481,"lng":128.643325,"totalSpaces":129,"isFree":false,"operatingDays":"평일","weekdayOpen":"08:00","weekdayClose":"19:00","weekendOpen":"00:00","weekendClose":"00:00","holidayOpen":"00:00","holidayClose":"00:00","feeInfo":"기본 120분 1,000원","phone":"053-782-6445","updatedAt":"2025-08-01","sido":"대구광역시","sigungu":"수성구","dong":"범물동"},{"name":"범어천로노상공영3주차장","type":"공영","category":"노상","address":"대구광역시 수성구 황금동672-1","lat":35.8503722,"lng":128.6241465,"totalSpaces":122,"isFree":false,"operatingDays":"평일+토요일+공휴일","weekdayOpen":"08:00","weekdayClose":"19:30","weekendOpen":"08:00","weekendClose":"20:00","holidayOpen":"00:00","holidayClose":"23:59","feeInfo":"기본 30분 600원 / 추가 10분당 300원","phone":"053-666-3043","updatedAt":"2025-11-07","sido":"대구광역시","sigungu":"수성구","dong":""},{"name":"수성못공영주차장","type":"공영","category":"노외","address":"대구광역시 수성구 상동 481-6","lat":35.8290338531,"lng":128.6118185857,"totalSpaces":109,"isFree":false,"operatingDays":"평일+토요일+공휴일","weekdayOpen":"09:00","weekdayClose":"20:00","weekendOpen":"09:00","weekendClose":"20:00","holidayOpen":"09:00","holidayClose":"20:00","feeInfo":"기본 30분 600원 / 추가 10분당 300원","phone":"053-666-3043","updatedAt":"2025-11-07","sido":"대구광역시","sigungu":"수성구","dong":"상동"},{"name":"범어천로노상공영2주차장","type":"공영","category":"노상","address":"대구광역시 수성구 범어동 805-14","lat":35.8531685,"lng":128.6231827,"totalSpaces":89,"isFree":false,"operatingDays":"평일+토요일+공휴일","weekdayOpen":"08:00","weekdayClose":"19:30","weekendOpen":"08:00","weekendClose":"20:00","holidayOpen":"00:00","holidayClose":"23:59","feeInfo":"기본 30분 600원 / 추가 10분당 300원","phone":"053-666-3043","updatedAt":"2025-11-07","sido":"대구광역시","sigungu":"수성구","dong":"범어동"},{"name":"범어천로노상공영1주차장","type":"공영","category":"노상","address":"대구광역시 수성구 수성동4가 985-98","lat":35.8602591,"lng":128.6221646,"totalSpaces":77,"isFree":false,"operatingDays":"평일+토요일+공휴일","weekdayOpen":"08:00","weekdayClose":"19:30","weekendOpen":"08:00","weekendClose":"20:00","holidayOpen":"00:00","holidayClose":"23:59","feeInfo":"기본 30분 600원 / 추가 10분당 300원","phone":"053-666-3043","updatedAt":"2025-11-07","sido":"대구광역시","sigungu":"수성구","dong":"수성동4가"},{"name":"대구은행범어동지점주차장","type":"공영","category":"노상","address":"대구광역시 수성구 상록로 4","lat":35.8597457,"lng":128.6242787,"totalSpaces":72,"isFree":false,"operatingDays":"평일","weekdayOpen":"09:00","weekdayClose":"18:00","weekendOpen":"00:00","weekendClose":"00:00","holidayOpen":"00:00","holidayClose":"00:00","feeInfo":"기본 10분 600원 / 추가 10분당 600원","phone":"053-603-4064","updatedAt":"2025-08-01","sido":"대구광역시","sigungu":"수성구","dong":"범어동"},{"name":"대구여고북편노상공영주차장","type":"공영","category":"노상","address":"대구광역시 수성구 범어동 238-41","lat":35.85658816,"lng":128.6298635,"totalSpaces":71,"isFree":false,"operatingDays":"평일+토요일+공휴일","weekdayOpen":"08:00","weekdayClose":"19:30","weekendOpen":"00:00","weekendClose":"23:59","holidayOpen":"00:00","holidayClose":"23:59","feeInfo":"기본 30분 600원 / 추가 10분당 300원","phone":"053-666-3043","updatedAt":"2025-11-07","sido":"대구광역시","sigungu":"수성구","dong":"범어동"},{"name":"신매3공영주차장","type":"공영","category":"노외","address":"대구광역시 수성구 고산로 75","lat":35.8374745,"lng":128.7037829,"totalSpaces":70,"isFree":false,"operatingDays":"평일+토요일","weekdayOpen":"08:00","weekdayClose":"17:00","weekendOpen":"08:00","weekendClose":"17:00","holidayOpen":"00:00","holidayClose":"00:00","feeInfo":"기본 10분 300원 / 추가 10분당 300원","phone":"053-603-4064","updatedAt":"2025-08-01","sido":"대구광역시","sigungu":"수성구","dong":"노변동"},{"name":"울루루광장공영주차장","type":"공영","category":"노외","address":"대구광역시 수성구 두산동 696-3","lat":35.8259651387,"lng":128.624634,"totalSpaces":66,"isFree":false,"operatingDays":"평일+토요일+공휴일","weekdayOpen":"09:00","weekdayClose":"20:00","weekendOpen":"09:00","weekendClose":"20:00","holidayOpen":"09:00","holidayClose":"20:00","feeInfo":"기본 30분 600원 / 추가 10분당 300원","phone":"053-666-3043","updatedAt":"2025-11-07","sido":"대구광역시","sigungu":"수성구","dong":"두산동"},{"name":"범어공영주차장","type":"공영","category":"노외","address":"대구광역시 수성구 범어동 248-1","lat":35.8570448,"lng":128.6333995,"totalSpaces":62,"isFree":false,"operatingDays":"평일+토요일+공휴일","weekdayOpen":"08:00","weekdayClose":"19:30","weekendOpen":"00:00","weekendClose":"23:59","holidayOpen":"00:00","holidayClose":"23:59","feeInfo":"기본 30분 600원 / 추가 10분당 300원","phone":"053-666-3043","updatedAt":"2025-11-07","sido":"대구광역시","sigungu":"수성구","dong":"범어동"},{"name":"신매2공영주차장","type":"공영","category":"노외","address":"대구광역시 수성구 신매로19길 62","lat":35.8396854,"lng":128.7062757,"totalSpaces":55,"isFree":false,"operatingDays":"평일+토요일","weekdayOpen":"10:00","weekdayClose":"21:00","weekendOpen":"10:00","weekendClose":"21:00","holidayOpen":"00:00","holidayClose":"00:00","feeInfo":"기본 10분 300원 / 추가 10분당 300원","phone":"053-603-4064","updatedAt":"2025-08-01","sido":"대구광역시","sigungu":"수성구","dong":"신매동"},{"name":"지산한라공영주차장","type":"공영","category":"노외","address":"대구광역시 수성구 용학로40길 10","lat":35.82108495,"lng":128.6297303,"totalSpaces":51,"isFree":false,"operatingDays":"평일+토요일+공휴일","weekdayOpen":"09:00","weekdayClose":"18:00","weekendOpen":"00:00","weekendClose":"23:59","holidayOpen":"00:00","holidayClose":"23:59","feeInfo":"기본 30분 400원 / 추가 10분당 200원","phone":"053-666-3043","updatedAt":"2025-11-07","sido":"대구광역시","sigungu":"수성구","dong":"지산동"},{"name":"신매1공영주차장","type":"공영","category":"노외","address":"대구광역시 수성구 신매로19길 40","lat":35.8394418,"lng":128.707541,"totalSpaces":37,"isFree":false,"operatingDays":"평일+토요일","weekdayOpen":"10:00","weekdayClose":"21:00","weekendOpen":"10:00","weekendClose":"21:00","holidayOpen":"00:00","holidayClose":"00:00","feeInfo":"기본 10분 300원 / 추가 10분당 300원","phone":"053-603-4064","updatedAt":"2025-08-01","sido":"대구광역시","sigungu":"수성구","dong":"신매동"},{"name":"중동시장앞주차장","type":"공영","category":"노상","address":"대구광역시 수성구 청수로 29","lat":35.8411758,"lng":128.6114873,"totalSpaces":32,"isFree":false,"operatingDays":"평일","weekdayOpen":"09:00","weekdayClose":"18:00","weekendOpen":"00:00","weekendClose":"00:00","holidayOpen":"00:00","holidayClose":"00:00","feeInfo":"기본 10분 175원 / 추가 10분당 175원","phone":"053-603-4064","updatedAt":"2025-08-01","sido":"대구광역시","sigungu":"수성구","dong":"중동"},{"name":"범어천로노상공영4주차장","type":"공영","category":"노상","address":"대구광역시 수성구 범어동881-7","lat":35.8588171,"lng":128.6221434,"totalSpaces":31,"isFree":false,"operatingDays":"평일+토요일+공휴일","weekdayOpen":"08:00","weekdayClose":"19:30","weekendOpen":"08:00","weekendClose":"20:00","holidayOpen":"00:00","holidayClose":"23:59","feeInfo":"기본 30분 600원 / 추가 10분당 300원","phone":"053-666-3043","updatedAt":"2025-11-07","sido":"대구광역시","sigungu":"수성구","dong":""}]}