{"sido":"대구광역시","sigungu":"중구","totalCount":152,"validCount":152,"items":[{"name":"서문주차빌딩 주차장","type":"공영","category":"노외","address":"대구광역시 중구 큰장로26길 45","lat":35.86890863,"lng":128.580781,"totalSpaces":640,"isFree":false,"operatingDays":"평일+토요일+공휴일","weekdayOpen":"07:00","weekdayClose":"22:00","weekendOpen":"07:00","weekendClose":"22:00","holidayOpen":"07:00","holidayClose":"22:00","feeInfo":"기본 10분 300원 / 추가 10분당 300원","phone":"053-255-4451","updatedAt":"2025-08-01","sido":"대구광역시","sigungu":"중구","dong":"대신동"},{"name":"국채보상운동기념공원주차장","type":"공영","category":"노외","address":"대구광역시 중구 공평로10길 25","lat":35.86930105,"lng":128.601702,"totalSpaces":502,"isFree":false,"operatingDays":"평일+토요일+공휴일","weekdayOpen":"00:00","weekdayClose":"23:59","weekendOpen":"00:00","weekendClose":"23:59","holidayOpen":"00:00","holidayClose":"23:59","feeInfo":"기본 10분 360원 / 추가 10분당 360원","phone":"053-426-7840","updatedAt":"2025-08-01","sido":"대구광역시","sigungu":"중구","dong":"동인동2가"},{"name":"동성로중앙유료주차장","type":"민영","category":"노외","address":"대구광역시 중구 동성로2길 80","lat":35.8692142,"lng":128.5971828,"totalSpaces":305,"isFree":false,"operatingDays":"평일+토요일","weekdayOpen":"00:00","weekdayClose":"23:59","weekendOpen":"00:00","weekendClose":"23:59","holidayOpen":"00:00","holidayClose":"00:00","feeInfo":"기본 30분 800원","phone":"053-252-2193","updatedAt":"2025-07-02","sido":"대구광역시","sigungu":"중구","dong":"공평동"},{"name":"계산문화관유료주차장","type":"민영","category":"노외","address":"대구광역시 중구 서성로 10","lat":35.87332422,"lng":128.5870614,"totalSpaces":300,"isFree":false,"operatingDays":"평일+토요일+공휴일","weekdayOpen":"00:00","weekdayClose":"23:59","weekendOpen":"00:00","weekendClose":"23:59","holidayOpen":"00:00","holidayClose":"23:59","feeInfo":"기본 30분 800원","phone":"053-251-1680","updatedAt":"2025-07-02","sido":"대구광역시","sigungu":"중구","dong":"계산동2가"},{"name":"약령시유료주차장","type":"민영","category":"노외","address":"대구광역시 중구 달구벌대로415길 15","lat":35.86732928,"lng":128.5895546,"totalSpaces":300,"isFree":false,"operatingDays":"평일+토요일","weekdayOpen":"10:00","weekdayClose":"22:00","weekendOpen":"10:00","weekendClose":"22:00","holidayOpen":"00:00","holidayClose":"00:00","feeInfo":"기본 30분 1,000원","phone":"053-245-2064","updatedAt":"2025-07-02","sido":"대구광역시","sigungu":"중구","dong":"계산동2가"},{"name":"공평유료주차장","type":"민영","category":"노외","address":"대구광역시 중구 공평동 58-1","lat":35.86902798,"lng":128.5983569,"totalSpaces":297,"isFree":false,"operatingDays":"평일+토요일+공휴일","weekdayOpen":"00:00","weekdayClose":"23:59","weekendOpen":"00:00","weekendClose":"23:59","holidayOpen":"00:00","holidayClose":"23:59","feeInfo":"기본 30분 1,200원 / 추가 10분당 500원","phone":"053-423-3348","updatedAt":"2025-07-02","sido":"대구광역시","sigungu":"중구","dong":"공평동"},{"name":"동아쇼핑별관유료주차장","type":"민영","category":"노외","address":"대구광역시 중구 남성로 41-2","lat":35.86747737,"lng":128.5914102,"totalSpaces":282,"isFree":false,"operatingDays":"평일+토요일+공휴일","weekdayOpen":"10:00","weekdayClose":"21:30","weekendOpen":"10:00","weekendClose":"21:30","holidayOpen":"10:00","holidayClose":"21:30","feeInfo":"기본 30분 1,000원","phone":"053-123-4567","updatedAt":"2025-07-02","sido":"대구광역시","sigungu":"중구","dong":""},{"name":"교동공영주차장","type":"공영","category":"노외","address":"대구광역시 중구 교동2길 11","lat":35.87370057,"lng":128.598366,"totalSpaces":208,"isFree":false,"operatingDays":"평일+토요일+공휴일","weekdayOpen":"08:00","weekdayClose":"22:00","weekendOpen":"08:00","weekendClose":"22:00","holidayOpen":"08:00","holidayClose":"22:00","feeInfo":"기본 30분 500원 / 추가 10분당 250원","phone":"053-661-3173","updatedAt":"2025-07-02","sido":"대구광역시","sigungu":"중구","dong":"교동"},{"name":"달성빌딩유료주차장","type":"민영","category":"노외","address":"대구광역시 중구 달성동 259-15","lat":35.87372097,"lng":128.5809276,"totalSpaces":200,"isFree":false,"operatingDays":"평일+토요일+공휴일","weekdayOpen":"00:00","weekdayClose":"23:59","weekendOpen":"00:00","weekendClose":"23:59","holidayOpen":"00:00","holidayClose":"23:59","feeInfo":"기본 30분 1,000원 / 추가 30분당 1,000원","phone":"053-554-1176","updatedAt":"2025-07-02","sido":"대구광역시","sigungu":"중구","dong":"달성동"},{"name":"계명대학교 동산병원주차장","type":"민영","category":"노외","address":"대구광역시 중구 달성로 56","lat":35.87017964,"lng":128.5825231,"totalSpaces":194,"isFree":false,"operatingDays":"평일+토요일","weekdayOpen":"08:00","weekdayClose":"20:00","weekendOpen":"08:00","weekendClose":"20:00","holidayOpen":"00:00","holidayClose":"00:00","feeInfo":"기본 30분 800원 / 추가 10분당 300원","phone":"053-123-4567","updatedAt":"2025-07-02","sido":"대구광역시","sigungu":"중구","dong":"동산동"},{"name":"신우유료주차장","type":"민영","category":"노외","address":"대구광역시 중구 공평로 46(삼덕동2가)","lat":35.86810214,"lng":128.600061,"totalSpaces":170,"isFree":false,"operatingDays":"평일+토요일","weekdayOpen":"00:00","weekdayClose":"23:59","weekendOpen":"00:00","weekendClose":"23:59","holidayOpen":"00:00","holidayClose":"00:00","feeInfo":"기본 30분 1,000원","phone":"053-424-3807","updatedAt":"2025-07-02","sido":"대구광역시","sigungu":"중구","dong":"삼덕동2가"},{"name":"시청광장공영주차장","type":"공영","category":"부설","address":"대구광역시 중구 국채보상로131길 17","lat":35.8706474,"lng":128.6018016,"totalSpaces":146,"isFree":false,"operatingDays":"평일","weekdayOpen":"07:00","weekdayClose":"22:00","weekendOpen":"00:00","weekendClose":"00:00","holidayOpen":"00:00","holidayClose":"00:00","feeInfo":"기본 10분 500원 / 추가 10분당 500원","phone":"053-803-5604","updatedAt":"2025-08-01","sido":"대구광역시","sigungu":"중구","dong":"동인동2가"},{"name":"북성공영주차장","type":"공영","category":"노외","address":"대구광역시 중구 종로 99","lat":35.87487924,"lng":128.5908207,"totalSpaces":123,"isFree":false,"operatingDays":"평일+토요일+공휴일","weekdayOpen":"08:00","weekdayClose":"22:00","weekendOpen":"08:00","weekendClose":"22:00","holidayOpen":"08:00","holidayClose":"22:00","feeInfo":"기본 30분 500원 / 추가 10분당 250원","phone":"053-661-3173","updatedAt":"2025-07-02","sido":"대구광역시","sigungu":"중구","dong":"태평로3가"},{"name":"제일유료주차장-01","type":"민영","category":"노외","address":"대구광역시 중구 경상감영길 216","lat":35.871482,"lng":128.599232,"totalSpaces":100,"isFree":false,"operatingDays":"평일+토요일","weekdayOpen":"00:30","weekdayClose":"22:30","weekendOpen":"08:30","weekendClose":"22:30","holidayOpen":"00:00","holidayClose":"00:00","feeInfo":"기본 30분 1,000원 / 추가 30분당 1,000원","phone":"053-424-7994","updatedAt":"2025-07-02","sido":"대구광역시","sigungu":"중구","dong":"동문동"},{"name":"달성공원주변노상주차장","type":"공영","category":"노상","address":"대구광역시 중구 달성공원로 35","lat":35.87339884,"lng":128.5759201,"totalSpaces":95,"isFree":false,"operatingDays":"평일+토요일+공휴일","weekdayOpen":"08:00","weekdayClose":"20:00","weekendOpen":"08:00","weekendClose":"20:00","holidayOpen":"08:00","holidayClose":"20:00","feeInfo":"기본 30분 1,000원 / 추가 10분당 500원","phone":"053-661-3173","updatedAt":"2025-07-02","sido":"대구광역시","sigungu":"중구","dong":"달성동"},{"name":"GS타임즈유료주차장","type":"민영","category":"노외","address":"대구광역시 중구 공평로10길 42","lat":35.867687,"lng":128.602098,"totalSpaces":88,"isFree":false,"operatingDays":"평일+토요일+공휴일","weekdayOpen":"00:00","weekdayClose":"23:59","weekendOpen":"00:00","weekendClose":"23:59","holidayOpen":"00:00","holidayClose":"23:59","feeInfo":"기본 30분 600원 / 추가 30분당 600원","phone":"053-425-0415","updatedAt":"2025-07-02","sido":"대구광역시","sigungu":"중구","dong":"삼덕동2가"},{"name":"센트로팰리스 부근 노상주차장","type":"공영","category":"노상","address":"대구광역시 중구 이천로 246","lat":35.86310836,"lng":128.5995976,"totalSpaces":84,"isFree":false,"operatingDays":"평일","weekdayOpen":"08:00","weekdayClose":"20:00","weekendOpen":"00:00","weekendClose":"00:00","holidayOpen":"00:00","holidayClose":"00:00","feeInfo":"기본 30분 1,000원 / 추가 10분당 500원","phone":"053-661-3173","updatedAt":"2025-07-02","sido":"대구광역시","sigungu":"중구","dong":"봉산동"},{"name":"김광석길공영주차장","type":"공영","category":"노외","address":"대구광역시 중구 동덕로 8길 34-20","lat":35.8598188,"lng":128.6066217,"totalSpaces":81,"isFree":false,"operatingDays":"평일+토요일+공휴일","weekdayOpen":"08:00","weekdayClose":"00:00","weekendOpen":"08:00","weekendClose":"00:00","holidayOpen":"08:00","holidayClose":"00:00","feeInfo":"기본 30분 500원 / 추가 10분당 250원","phone":"053-661-3173","updatedAt":"2025-07-02","sido":"대구광역시","sigungu":"중구","dong":"대봉동"},{"name":"계성유료주차장","type":"민영","category":"노외","address":"대구광역시 중구 대신동 259-5","lat":35.86845042,"lng":128.5818726,"totalSpaces":78,"isFree":false,"operatingDays":"평일+토요일","weekdayOpen":"08:00","weekdayClose":"20:00","weekendOpen":"08:00","weekendClose":"20:00","holidayOpen":"00:00","holidayClose":"00:00","feeInfo":"기본 30분 1,500원 / 추가 30분당 1,500원","phone":"053-123-4567","updatedAt":"2025-07-02","sido":"대구광역시","sigungu":"중구","dong":"대신동"},{"name":"대성유료주차장","type":"민영","category":"노외","address":"대구광역시 중구 동성로1길 85","lat":35.8652083,"lng":128.5979348,"totalSpaces":75,"isFree":false,"operatingDays":"평일+토요일+공휴일","weekdayOpen":"06:00","weekdayClose":"01:00","weekendOpen":"06:00","weekendClose":"01:00","holidayOpen":"06:00","holidayClose":"01:00","feeInfo":"기본 30분 1,000원","phone":"053-423-3360","updatedAt":"2025-07-02","sido":"대구광역시","sigungu":"중구","dong":"삼덕동1가"},{"name":"예술유료주차장","type":"민영","category":"노외","address":"대구광역시 중구 봉산문화1길 17","lat":35.8630543,"lng":128.5982674,"totalSpaces":75,"isFree":false,"operatingDays":"평일+토요일","weekdayOpen":"07:30","weekdayClose":"21:30","weekendOpen":"07:30","weekendClose":"21:30","holidayOpen":"00:00","holidayClose":"00:00","feeInfo":"기본 30분 1,000원","phone":"053-123-4567","updatedAt":"2025-07-02","sido":"대구광역시","sigungu":"중구","dong":"봉산동"},{"name":"대원유료주차장","type":"민영","category":"노외","address":"대구광역시 중구 동성로1길 15","lat":35.86700879,"lng":128.5946495,"totalSpaces":73,"isFree":false,"operatingDays":"평일+토요일","weekdayOpen":"10:00","weekdayClose":"23:00","weekendOpen":"10:00","weekendClose":"22:00","holidayOpen":"00:00","holidayClose":"00:00","feeInfo":"기본 30분 1,000원 / 추가 15분당 500원","phone":"053-123-4567","updatedAt":"2025-07-02","sido":"대구광역시","sigungu":"중구","dong":"동성로3가"},{"name":"대구유료주차장-02","type":"민영","category":"노외","address":"대구광역시 중구 봉산문화길 101","lat":35.86440636,"lng":128.596336,"totalSpaces":64,"isFree":false,"operatingDays":"평일+토요일","weekdayOpen":"07:00","weekdayClose":"23:00","weekendOpen":"07:00","weekendClose":"23:00","holidayOpen":"00:00","holidayClose":"00:00","feeInfo":"기본 30분 1,000원","phone":"053-123-4567","updatedAt":"2025-07-02","sido":"대구광역시","sigungu":"중구","dong":"봉산동"},{"name":"시민유료주차장","type":"민영","category":"노외","address":"대구광역시 중구 북성로 103(북성로1가)","lat":35.87459648,"lng":128.593606,"totalSpaces":63,"isFree":false,"operatingDays":"평일+토요일","weekdayOpen":"08:00","weekdayClose":"18:00","weekendOpen":"08:00","weekendClose":"18:00","holidayOpen":"00:00","holidayClose":"00:00","feeInfo":"기본 30분 1,000원 / 추가 30분당 1,000원","phone":"053-252-4957","updatedAt":"2025-07-02","sido":"대구광역시","sigungu":"중구","dong":"북성로1가"},{"name":"경상감영공원주차장","type":"공영","category":"노외","address":"대구광역시 중구 경상감영길 99","lat":35.87267548,"lng":128.5916854,"totalSpaces":61,"isFree":false,"operatingDays":"평일+토요일+공휴일","weekdayOpen":"07:30","weekdayClose":"23:00","weekendOpen":"07:30","weekendClose":"23:00","holidayOpen":"07:30","holidayClose":"23:00","feeInfo":"기본 10분 480원 / 추가 10분당 480원","phone":"053-253-6444","updatedAt":"2025-08-01","sido":"대구광역시","sigungu":"중구","dong":"포정동"},{"name":"남산공영주차장","type":"공영","category":"노외","address":"대구광역시 중구 명덕로35길 44(남산동)","lat":35.8587307,"lng":128.5890952,"totalSpaces":61,"isFree":false,"operatingDays":"평일+토요일","weekdayOpen":"08:00","weekdayClose":"20:00","weekendOpen":"08:00","weekendClose":"20:00","holidayOpen":"00:00","holidayClose":"00:00","feeInfo":"기본 30분 500원 / 추가 10분당 250원","phone":"053-661-3173","updatedAt":"2025-07-02","sido":"대구광역시","sigungu":"중구","dong":"남산동"},{"name":"해주유료주차장","type":"민영","category":"노외","address":"대구광역시 중구 문화동 11-2","lat":35.87087862,"lng":128.5961382,"totalSpaces":60,"isFree":false,"operatingDays":"평일+토요일","weekdayOpen":"08:00","weekdayClose":"23:00","weekendOpen":"08:00","weekendClose":"23:00","holidayOpen":"00:00","holidayClose":"00:00","feeInfo":"기본 30분 1,000원 / 추가 30분당 1,000원","phone":"053-428-3841","updatedAt":"2025-07-02","sido":"대구광역시","sigungu":"중구","dong":"문화동"},{"name":"중앙시네마유료주차장","type":"민영","category":"노외","address":"대구광역시 중구 남일동 131-2","lat":35.8690788,"lng":128.5925715,"totalSpaces":60,"isFree":false,"operatingDays":"평일+토요일","weekdayOpen":"08:00","weekdayClose":"23:00","weekendOpen":"08:00","weekendClose":"23:00","holidayOpen":"00:00","holidayClose":"00:00","feeInfo":"기본 60분 1,500원 / 추가 60분당 1,500원","phone":"053-123-4567","updatedAt":"2025-07-02","sido":"대구광역시","sigungu":"중구","dong":"남일동"},{"name":"대백프라자 주변 노상주차장","type":"공영","category":"노상","address":"대구광역시 중구 명덕로 333","lat":35.85571524,"lng":128.6063962,"totalSpaces":57,"isFree":false,"operatingDays":"평일+토요일","weekdayOpen":"08:00","weekdayClose":"20:00","weekendOpen":"08:00","weekendClose":"20:00","holidayOpen":"00:00","holidayClose":"00:00","feeInfo":"기본 30분 1,000원 / 추가 10분당 500원","phone":"053-661-3173","updatedAt":"2025-07-02","sido":"대구광역시","sigungu":"중구","dong":"대봉동"},{"name":"명성유료주차장-01","type":"민영","category":"노외","address":"대구광역시 중구 경상감영길 106(전동)","lat":35.87180703,"lng":128.5932977,"totalSpaces":55,"isFree":false,"operatingDays":"평일+토요일","weekdayOpen":"08:00","weekdayClose":"23:00","weekendOpen":"08:00","weekendClose":"23:00","holidayOpen":"00:00","holidayClose":"00:00","feeInfo":"기본 30분 1,000원 / 추가 30분당 1,000원","phone":"053-255-0525","updatedAt":"2025-07-02","sido":"대구광역시","sigungu":"중구","dong":"전동"},{"name":"삼덕네거리남편주차장","type":"공영","category":"노상","address":"대구광역시 중구 동덕로 80","lat":35.861918,"lng":128.6035616,"totalSpaces":54,"isFree":false,"operatingDays":"평일","weekdayOpen":"09:00","weekdayClose":"18:00","weekendOpen":"00:00","weekendClose":"00:00","holidayOpen":"00:00","holidayClose":"00:00","feeInfo":"기본 10분 600원 / 추가 10분당 600원","phone":"053-603-4064","updatedAt":"2025-08-01","sido":"대구광역시","sigungu":"중구","dong":"대봉동"},{"name":"대일유료주차장","type":"민영","category":"노외","address":"대구광역시 중구 공평로 76(동인동2가)","lat":35.8706326,"lng":128.6008383,"totalSpaces":50,"isFree":false,"operatingDays":"평일+토요일","weekdayOpen":"07:00","weekdayClose":"23:59","weekendOpen":"07:00","weekendClose":"23:59","holidayOpen":"00:00","holidayClose":"00:00","feeInfo":"기본 30분 1,000원 / 추가 30분당 1,000원","phone":"053-424-2635","updatedAt":"2025-07-02","sido":"대구광역시","sigungu":"중구","dong":"동인동2가"},{"name":"동산유료주차장-01","type":"민영","category":"노외","address":"대구광역시 중구 대신동 1527","lat":35.86653875,"lng":128.5761695,"totalSpaces":50,"isFree":false,"operatingDays":"평일+토요일","weekdayOpen":"07:30","weekdayClose":"18:00","weekendOpen":"07:30","weekendClose":"18:00","holidayOpen":"00:00","holidayClose":"00:00","feeInfo":"기본 30분 1,000원 / 추가 30분당 1,000원","phone":"053-123-4567","updatedAt":"2025-07-02","sido":"대구광역시","sigungu":"중구","dong":"대신동"},{"name":"대우유료주차장","type":"민영","category":"노외","address":"대구광역시 중구 북성로 96","lat":35.874125,"lng":128.592826,"totalSpaces":50,"isFree":false,"operatingDays":"평일+토요일","weekdayOpen":"08:00","weekdayClose":"21:00","weekendOpen":"08:00","weekendClose":"21:00","holidayOpen":"00:00","holidayClose":"00:00","feeInfo":"기본 30분 1,000원 / 추가 30분당 1,000원","phone":"053-253-2399","updatedAt":"2025-07-02","sido":"대구광역시","sigungu":"중구","dong":"북성로1가"},{"name":"남일유료주차장","type":"민영","category":"노외","address":"대구광역시 중구 남일동 127-2","lat":35.86931986,"lng":128.5929657,"totalSpaces":50,"isFree":false,"operatingDays":"평일+토요일","weekdayOpen":"08:00","weekdayClose":"23:00","weekendOpen":"08:00","weekendClose":"23:00","holidayOpen":"00:00","holidayClose":"00:00","feeInfo":"기본 60분 1,500원 / 추가 60분당 1,500원","phone":"053-254-3326","updatedAt":"2025-07-02","sido":"대구광역시","sigungu":"중구","dong":"남일동"},{"name":"대보유료주차장","type":"민영","category":"노외","address":"대구광역시 중구 포정동 17-1","lat":35.87262622,"lng":128.5936265,"totalSpaces":50,"isFree":false,"operatingDays":"평일+토요일","weekdayOpen":"09:00","weekdayClose":"21:00","weekendOpen":"09:00","weekendClose":"21:00","holidayOpen":"00:00","holidayClose":"00:00","feeInfo":"기본 60분 1,000원 / 추가 60분당 1,000원","phone":"053-254-5498","updatedAt":"2025-07-02","sido":"대구광역시","sigungu":"중구","dong":"포정동"},{"name":"국제유료주차장-01","type":"민영","category":"노외","address":"대구광역시 중구 동성로6길 12-13","lat":35.868463,"lng":128.595812,"totalSpaces":50,"isFree":false,"operatingDays":"평일+토요일+공휴일","weekdayOpen":"07:00","weekdayClose":"23:00","weekendOpen":"07:00","weekendClose":"23:00","holidayOpen":"07:00","holidayClose":"23:00","feeInfo":"기본 30분 1,000원 / 추가 30분당 1,000원","phone":"053-422-3600","updatedAt":"2025-07-02","sido":"대구광역시","sigungu":"중구","dong":"공평동"},{"name":"현대유료주차장-01","type":"민영","category":"노외","address":"대구광역시 중구 동문동 40","lat":35.87177174,"lng":128.5985915,"totalSpaces":50,"isFree":false,"operatingDays":"평일+토요일","weekdayOpen":"09:30","weekdayClose":"22:30","weekendOpen":"09:30","weekendClose":"22:30","holidayOpen":"00:00","holidayClose":"00:00","feeInfo":"기본 30분 1,000원 / 추가 30분당 1,000원","phone":"053-426-6336","updatedAt":"2025-07-02","sido":"대구광역시","sigungu":"중구","dong":"동문동"},{"name":"은성유료주차장","type":"민영","category":"노외","address":"대구광역시 중구 국채보상로 540-1(상서동)","lat":35.87015601,"lng":128.5897705,"totalSpaces":50,"isFree":false,"operatingDays":"평일+토요일","weekdayOpen":"07:30","weekdayClose":"20:30","weekendOpen":"07:30","weekendClose":"20:30","holidayOpen":"00:00","holidayClose":"00:00","feeInfo":"기본 30분 1,000원 / 추가 30분당 1,000원","phone":"053-253-1157","updatedAt":"2025-07-02","sido":"대구광역시","sigungu":"중구","dong":"상서동"},{"name":"경북유료주차장-02","type":"민영","category":"노외","address":"대구광역시 중구 태평로 192","lat":35.8740097,"lng":128.598653,"totalSpaces":48,"isFree":false,"operatingDays":"평일+토요일","weekdayOpen":"09:30","weekdayClose":"19:00","weekendOpen":"09:30","weekendClose":"19:00","holidayOpen":"00:00","holidayClose":"00:00","feeInfo":"기본 30분 1,000원 / 추가 30분당 1,000원","phone":"053-424-6846","updatedAt":"2025-07-02","sido":"대구광역시","sigungu":"중구","dong":"태평로1가"},{"name":"덕영유료주차장-01","type":"민영","category":"노외","address":"대구광역시 중구 북성로4길 67-11(인교동)","lat":35.87158584,"lng":128.5860436,"totalSpaces":46,"isFree":false,"operatingDays":"평일+토요일","weekdayOpen":"07:00","weekdayClose":"22:00","weekendOpen":"07:00","weekendClose":"22:00","holidayOpen":"00:00","holidayClose":"00:00","feeInfo":"기본 30분 1,000원 / 추가 30분당 1,000원","phone":"053-256-9869","updatedAt":"2025-07-02","sido":"대구광역시","sigungu":"중구","dong":"인교동"},{"name":"콘서트하우스 서편 노상주차장","type":"공영","category":"노상","address":"대구광역시 중구 태평로 141","lat":35.8760471,"lng":128.5936973,"totalSpaces":46,"isFree":false,"operatingDays":"평일","weekdayOpen":"08:00","weekdayClose":"20:00","weekendOpen":"00:00","weekendClose":"00:00","holidayOpen":"00:00","holidayClose":"00:00","feeInfo":"기본 30분 1,000원 / 추가 10분당 500원","phone":"053-661-3173","updatedAt":"2025-07-02","sido":"대구광역시","sigungu":"중구","dong":"태평로2가"},{"name":"매일유료주차장","type":"민영","category":"노외","address":"대구광역시 중구 공평로 19","lat":35.86586625,"lng":128.5997103,"totalSpaces":45,"isFree":false,"operatingDays":"평일+토요일","weekdayOpen":"08:30","weekdayClose":"02:00","weekendOpen":"08:30","weekendClose":"02:00","holidayOpen":"00:00","holidayClose":"00:00","feeInfo":"기본 30분 1,000원","phone":"053-425-8650","updatedAt":"2025-07-02","sido":"대구광역시","sigungu":"중구","dong":"삼덕동1가"},{"name":"신명고 주변 외 1개소 노상주차장","type":"공영","category":"노상","address":"대구광역시 중구 국채보상로102길 7","lat":35.87008274,"lng":128.5855108,"totalSpaces":45,"isFree":false,"operatingDays":"평일+토요일","weekdayOpen":"08:00","weekdayClose":"20:00","weekendOpen":"08:00","weekendClose":"20:00","holidayOpen":"00:00","holidayClose":"00:00","feeInfo":"기본 30분 1,000원 / 추가 10분당 500원","phone":"053-661-3173","updatedAt":"2025-07-02","sido":"대구광역시","sigungu":"중구","dong":"계산동1가"},{"name":"동양유료주차장","type":"민영","category":"노외","address":"대구광역시 중구 종로2가 87","lat":35.867646,"lng":128.5928615,"totalSpaces":43,"isFree":false,"operatingDays":"평일+토요일","weekdayOpen":"08:30","weekdayClose":"21:00","weekendOpen":"08:30","weekendClose":"21:00","holidayOpen":"00:00","holidayClose":"00:00","feeInfo":"기본 30분 1,000원 / 추가 30분당 1,000원","phone":"053-252-3105","updatedAt":"2025-07-02","sido":"대구광역시","sigungu":"중구","dong":"종로2가"},{"name":"중앙유료주차장-01","type":"민영","category":"노외","address":"대구광역시 중구 경상감영길 80(포정동)","lat":35.87143012,"lng":128.5918199,"totalSpaces":42,"isFree":false,"operatingDays":"평일+토요일","weekdayOpen":"08:00","weekdayClose":"20:00","weekendOpen":"08:00","weekendClose":"20:00","holidayOpen":"00:00","holidayClose":"00:00","feeInfo":"기본 30분 1,000원 / 추가 30분당 1,000원","phone":"053-123-4567","updatedAt":"2025-07-02","sido":"대구광역시","sigungu":"중구","dong":"포정동"},{"name":"삼덕유료주차장-02","type":"민영","category":"노외","address":"대구광역시 중구 공평로10길 16","lat":35.86793134,"lng":128.6006754,"totalSpaces":42,"isFree":false,"operatingDays":"평일+토요일","weekdayOpen":"09:00","weekdayClose":"23:59","weekendOpen":"09:00","weekendClose":"23:59","holidayOpen":"00:00","holidayClose":"00:00","feeInfo":"기본 30분 600원 / 추가 30분당 600원","phone":"053-424-6770","updatedAt":"2025-07-02","sido":"대구광역시","sigungu":"중구","dong":"삼덕동2가"},{"name":"삼영유료주차장","type":"민영","category":"노외","address":"대구광역시 중구 대신동 97-1","lat":35.8715973,"lng":128.5816258,"totalSpaces":42,"isFree":false,"operatingDays":"평일+토요일","weekdayOpen":"08:00","weekdayClose":"21:00","weekendOpen":"08:00","weekendClose":"21:00","holidayOpen":"00:00","holidayClose":"00:00","feeInfo":"기본 30분 1,000원","phone":"053-564-8972","updatedAt":"2025-07-02","sido":"대구광역시","sigungu":"중구","dong":"대신동"},{"name":"덕성유료주차장","type":"민영","category":"노외","address":"대구광역시 중구 달성로 10","lat":35.8659894,"lng":128.582753,"totalSpaces":41,"isFree":false,"operatingDays":"평일+토요일","weekdayOpen":"08:00","weekdayClose":"20:00","weekendOpen":"08:00","weekendClose":"20:00","holidayOpen":"00:00","holidayClose":"00:00","feeInfo":"기본 60분 1,200원 / 추가 10분당 200원","phone":"053-717-7520","updatedAt":"2025-07-02","sido":"대구광역시","sigungu":"중구","dong":"동산동"},{"name":"동덕유료주차장","type":"민영","category":"노외","address":"대구광역시 중구 동덕로 114-11","lat":35.8648496,"lng":128.603883,"totalSpaces":40,"isFree":false,"operatingDays":"평일+토요일","weekdayOpen":"08:00","weekdayClose":"20:00","weekendOpen":"08:00","weekendClose":"20:00","holidayOpen":"00:00","holidayClose":"00:00","feeInfo":"기본 60분 2,000원 / 추가 60분당 1,000원","phone":"053-123-4567","updatedAt":"2025-07-02","sido":"대구광역시","sigungu":"중구","dong":"삼덕동2가"},{"name":"창조유료주차장","type":"민영","category":"노외","address":"대구광역시 중구 남산동 911-14","lat":35.86476224,"lng":128.5941204,"totalSpaces":40,"isFree":false,"operatingDays":"평일+토요일","weekdayOpen":"09:00","weekdayClose":"21:00","weekendOpen":"09:00","weekendClose":"21:00","holidayOpen":"00:00","holidayClose":"00:00","feeInfo":"기본 30분 1,000원","phone":"053-123-4567","updatedAt":"2025-07-02","sido":"대구광역시","sigungu":"중구","dong":"남산동"},{"name":"메트로유료주차장","type":"민영","category":"노외","address":"대구광역시 중구 삼덕동2가 149-39","lat":35.86528231,"lng":128.6006673,"totalSpaces":40,"isFree":false,"operatingDays":"평일+토요일","weekdayOpen":"07:30","weekdayClose":"22:00","weekendOpen":"07:30","weekendClose":"22:00","holidayOpen":"00:00","holidayClose":"00:00","feeInfo":"기본 60분 1,500원 / 추가 60분당 1,500원","phone":"053-123-4567","updatedAt":"2025-07-02","sido":"대구광역시","sigungu":"중구","dong":"삼덕동2가"},{"name":"평화유료주차장-01","type":"민영","category":"노외","address":"대구광역시 중구 대안동 50-8","lat":35.87314723,"lng":128.5914803,"totalSpaces":38,"isFree":false,"operatingDays":"평일+토요일","weekdayOpen":"09:00","weekdayClose":"19:00","weekendOpen":"09:00","weekendClose":"19:00","holidayOpen":"00:00","holidayClose":"00:00","feeInfo":"기본 60분 1,000원 / 추가 60분당 1,000원","phone":"053-123-4567","updatedAt":"2025-07-02","sido":"대구광역시","sigungu":"중구","dong":"대안동"},{"name":"약령시회관유료주차장","type":"민영","category":"노외","address":"대구광역시 중구 수동 85","lat":35.86851636,"lng":128.5899085,"totalSpaces":38,"isFree":false,"operatingDays":"평일+토요일","weekdayOpen":"08:00","weekdayClose":"20:00","weekendOpen":"08:00","weekendClose":"20:00","holidayOpen":"00:00","holidayClose":"00:00","feeInfo":"기본 30분 1,000원","phone":"053-123-4567","updatedAt":"2025-07-02","sido":"대구광역시","sigungu":"중구","dong":"수동"},{"name":"거북유료주차장","type":"민영","category":"노외","address":"대구광역시 중구 동성로3길 4","lat":35.865489,"lng":128.5975771,"totalSpaces":37,"isFree":false,"operatingDays":"평일+토요일+공휴일","weekdayOpen":"09:00","weekdayClose":"23:00","weekendOpen":"09:00","weekendClose":"23:00","holidayOpen":"09:00","holidayClose":"23:00","feeInfo":"기본 30분 1,000원","phone":"053-425-3411","updatedAt":"2025-07-02","sido":"대구광역시","sigungu":"중구","dong":"삼덕동1가"},{"name":"경대병원 부근 노상주차장","type":"공영","category":"노상","address":"대구광역시 중구 동덕로 130","lat":35.8662355,"lng":128.6043147,"totalSpaces":37,"isFree":false,"operatingDays":"평일+토요일","weekdayOpen":"08:00","weekdayClose":"20:00","weekendOpen":"08:00","weekendClose":"20:00","holidayOpen":"00:00","holidayClose":"00:00","feeInfo":"기본 30분 1,000원 / 추가 10분당 500원","phone":"053-661-3173","updatedAt":"2025-07-02","sido":"대구광역시","sigungu":"중구","dong":"삼덕동2가"},{"name":"아세아유료주차장","type":"민영","category":"노외","address":"대구광역시 중구 동인동1가 330-3","lat":35.87127922,"lng":128.6055621,"totalSpaces":36,"isFree":false,"operatingDays":"평일+토요일","weekdayOpen":"06:50","weekdayClose":"18:30","weekendOpen":"06:50","weekendClose":"18:30","holidayOpen":"00:00","holidayClose":"00:00","feeInfo":"기본 30분 1,000원 / 추가 15분당 500원","phone":"053-428-1900","updatedAt":"2025-07-02","sido":"대구광역시","sigungu":"중구","dong":"동인동1가"},{"name":"남산향수길공영주차장","type":"공영","category":"노외","address":"대구광역시 중구 명륜로12길 47","lat":35.8613082,"lng":128.5874828,"totalSpaces":35,"isFree":false,"operatingDays":"평일+토요일","weekdayOpen":"08:00","weekdayClose":"20:00","weekendOpen":"08:00","weekendClose":"20:00","holidayOpen":"00:00","holidayClose":"00:00","feeInfo":"기본 30분 500원 / 추가 10분당 250원","phone":"053-661-3173","updatedAt":"2025-07-02","sido":"대구광역시","sigungu":"중구","dong":"남산동"},{"name":"대구유료주차장-01","type":"민영","category":"노외","address":"대구광역시 중구 중앙대로 354-42(남산동)","lat":35.864431,"lng":128.5942274,"totalSpaces":35,"isFree":false,"operatingDays":"평일+토요일","weekdayOpen":"09:00","weekdayClose":"23:00","weekendOpen":"09:00","weekendClose":"23:00","holidayOpen":"00:00","holidayClose":"00:00","feeInfo":"기본 30분 1,000원 / 추가 30분당 1,000원","phone":"053-123-4567","updatedAt":"2025-07-02","sido":"대구광역시","sigungu":"중구","dong":"남산동"},{"name":"향교유료주차장","type":"민영","category":"노외","address":"대구광역시 중구 남산동 735-4","lat":35.85974263,"lng":128.5956242,"totalSpaces":35,"isFree":false,"operatingDays":"평일+토요일","weekdayOpen":"00:00","weekdayClose":"23:59","weekendOpen":"00:00","weekendClose":"23:59","holidayOpen":"00:00","holidayClose":"00:00","feeInfo":"기본 30분 1,000원","phone":"053-422-8700","updatedAt":"2025-07-02","sido":"대구광역시","sigungu":"중구","dong":"남산동"},{"name":"사보이유료주차장","type":"민영","category":"노외","address":"대구광역시 중구 경상감영길 73","lat":35.8724258,"lng":128.5906869,"totalSpaces":35,"isFree":false,"operatingDays":"평일+토요일","weekdayOpen":"00:00","weekdayClose":"23:59","weekendOpen":"00:00","weekendClose":"23:59","holidayOpen":"00:00","holidayClose":"00:00","feeInfo":"기본 30분 1,000원","phone":"053-252-5795","updatedAt":"2025-07-02","sido":"대구광역시","sigungu":"중구","dong":"대안동"},{"name":"덕영유료주차장-02","type":"민영","category":"노외","address":"대구광역시 중구 큰장로12길 2","lat":35.86438876,"lng":128.574195,"totalSpaces":32,"isFree":false,"operatingDays":"평일+토요일","weekdayOpen":"06:00","weekdayClose":"23:00","weekendOpen":"06:00","weekendClose":"23:00","holidayOpen":"00:00","holidayClose":"00:00","feeInfo":"기본 30분 1,000원","phone":"053-123-4567","updatedAt":"2025-07-02","sido":"대구광역시","sigungu":"중구","dong":"대신동"},{"name":"동아유료주차장-01","type":"민영","category":"노외","address":"대구광역시 중구 동문동 38-10","lat":35.87186558,"lng":128.5969721,"totalSpaces":32,"isFree":false,"operatingDays":"평일+토요일","weekdayOpen":"09:00","weekdayClose":"21:00","weekendOpen":"09:00","weekendClose":"21:00","holidayOpen":"00:00","holidayClose":"00:00","feeInfo":"기본 30분 1,000원","phone":"053-284-4844","updatedAt":"2025-07-02","sido":"대구광역시","sigungu":"중구","dong":"동문동"},{"name":"장미유료주차장","type":"민영","category":"노외","address":"대구광역시 중구 남산동 585-1","lat":35.86212212,"lng":128.5893948,"totalSpaces":32,"isFree":false,"operatingDays":"평일+토요일","weekdayOpen":"08:00","weekdayClose":"20:30","weekendOpen":"08:00","weekendClose":"20:30","holidayOpen":"00:00","holidayClose":"00:00","feeInfo":"기본 30분 1,000원 / 추가 30분당 1,000원","phone":"053-255-6452","updatedAt":"2025-07-02","sido":"대구광역시","sigungu":"중구","dong":"남산동"},{"name":"동영유료주차장","type":"민영","category":"노외","address":"대구광역시 중구 중앙대로81길 6","lat":35.86989764,"lng":128.5932984,"totalSpaces":30,"isFree":false,"operatingDays":"평일+토요일","weekdayOpen":"09:00","weekdayClose":"23:30","weekendOpen":"09:00","weekendClose":"23:30","holidayOpen":"00:00","holidayClose":"00:00","feeInfo":"기본 30분 1,000원 / 추가 30분당 1,000원","phone":"053-255-8705","updatedAt":"2025-07-02","sido":"대구광역시","sigungu":"중구","dong":"동일동"},{"name":"경북유료주차장-01","type":"민영","category":"노외","address":"대구광역시 중구 서성로13길 31","lat":35.87206485,"lng":128.5856301,"totalSpaces":30,"isFree":false,"operatingDays":"평일+토요일","weekdayOpen":"09:00","weekdayClose":"19:00","weekendOpen":"09:00","weekendClose":"19:00","holidayOpen":"00:00","holidayClose":"00:00","feeInfo":"기본 30분 1,000원 / 추가 30분당 1,000원","phone":"053-254-5775","updatedAt":"2025-07-02","sido":"대구광역시","sigungu":"중구","dong":"인교동"},{"name":"공원유료주차장","type":"민영","category":"노외","address":"대구광역시 중구 달성공원로 50","lat":35.87490662,"lng":128.5799537,"totalSpaces":30,"isFree":false,"operatingDays":"평일+토요일","weekdayOpen":"09:00","weekdayClose":"18:00","weekendOpen":"09:00","weekendClose":"18:00","holidayOpen":"00:00","holidayClose":"00:00","feeInfo":"기본 30분 1,000원 / 추가 30분당 1,000원","phone":"053-123-4567","updatedAt":"2025-07-02","sido":"대구광역시","sigungu":"중구","dong":"달성동"},{"name":"국제유료주차장-02","type":"민영","category":"노외","address":"대구광역시 중구 국채보상로102길 18","lat":35.869597,"lng":128.5854986,"totalSpaces":30,"isFree":false,"operatingDays":"평일+토요일","weekdayOpen":"08:00","weekdayClose":"22:00","weekendOpen":"08:00","weekendClose":"22:00","holidayOpen":"00:00","holidayClose":"00:00","feeInfo":"기본 30분 1,000원 / 추가 30분당 1,000원","phone":"053-257-7037","updatedAt":"2025-07-02","sido":"대구광역시","sigungu":"중구","dong":"동산동"},{"name":"향촌유료주차장","type":"민영","category":"노외","address":"대구광역시 중구 서성로14길 111","lat":35.8733487,"lng":128.5937441,"totalSpaces":30,"isFree":false,"operatingDays":"평일+토요일","weekdayOpen":"09:00","weekdayClose":"19:00","weekendOpen":"09:00","weekendClose":"19:00","holidayOpen":"00:00","holidayClose":"00:00","feeInfo":"기본 30분 1,000원 / 추가 30분당 1,000원","phone":"053-123-4567","updatedAt":"2025-07-02","sido":"대구광역시","sigungu":"중구","dong":"향촌동"},{"name":"한성유료주차장","type":"민영","category":"노외","address":"대구광역시 중구 국채보상로 548-1","lat":35.8702589,"lng":128.5907129,"totalSpaces":30,"isFree":false,"operatingDays":"평일+토요일","weekdayOpen":"07:30","weekdayClose":"23:00","weekendOpen":"07:30","weekendClose":"23:00","holidayOpen":"00:00","holidayClose":"00:00","feeInfo":"기본 30분 1,000원 / 추가 30분당 1,000원","phone":"053-123-4567","updatedAt":"2025-07-02","sido":"대구광역시","sigungu":"중구","dong":"상서동"},{"name":"목천유료주차장","type":"민영","category":"노외","address":"대구광역시 중구 공평로20길 33(동인동1가)","lat":35.87173484,"lng":128.6027869,"totalSpaces":30,"isFree":false,"operatingDays":"평일+토요일","weekdayOpen":"08:00","weekdayClose":"19:00","weekendOpen":"08:00","weekendClose":"19:00","holidayOpen":"00:00","holidayClose":"00:00","feeInfo":"기본 30분 1,000원","phone":"053-123-4567","updatedAt":"2025-07-02","sido":"대구광역시","sigungu":"중구","dong":"동인동1가"},{"name":"무아유료주차장","type":"민영","category":"노외","address":"대구광역시 중구 종로 45-4","lat":35.869901,"lng":128.590957,"totalSpaces":30,"isFree":false,"operatingDays":"평일+토요일+공휴일","weekdayOpen":"11:00","weekdayClose":"01:00","weekendOpen":"11:00","weekendClose":"01:00","holidayOpen":"11:00","holidayClose":"01:00","feeInfo":"기본 60분 1,000원 / 추가 60분당 1,000원","phone":"053-254-6681","updatedAt":"2025-07-02","sido":"대구광역시","sigungu":"중구","dong":"종로1가"},{"name":"신동영유료주차장-01","type":"민영","category":"노외","address":"대구광역시 중구 북성로1가 80-2","lat":35.87435538,"lng":128.5942109,"totalSpaces":30,"isFree":false,"operatingDays":"평일+토요일","weekdayOpen":"09:00","weekdayClose":"20:00","weekendOpen":"09:00","weekendClose":"20:00","holidayOpen":"00:00","holidayClose":"00:00","feeInfo":"기본 30분 1,000원 / 추가 30분당 1,000원","phone":"053-123-4567","updatedAt":"2025-07-02","sido":"대구광역시","sigungu":"중구","dong":"북성로1가"},{"name":"영광유료주차장","type":"민영","category":"노외","address":"대구광역시 중구 도원동 3-2","lat":35.87632508,"lng":128.5841562,"totalSpaces":30,"isFree":false,"operatingDays":"평일+토요일","weekdayOpen":"08:00","weekdayClose":"19:00","weekendOpen":"08:00","weekendClose":"19:00","holidayOpen":"00:00","holidayClose":"00:00","feeInfo":"기본 30분 1,000원","phone":"053-123-4567","updatedAt":"2025-07-02","sido":"대구광역시","sigungu":"중구","dong":"도원동"},{"name":"오토헨즈유료주차장","type":"민영","category":"노외","address":"대구광역시 중구 국채보상로99길 54","lat":35.872833,"lng":128.582535,"totalSpaces":30,"isFree":false,"operatingDays":"평일+토요일","weekdayOpen":"08:00","weekdayClose":"20:00","weekendOpen":"08:00","weekendClose":"20:00","holidayOpen":"00:00","holidayClose":"00:00","feeInfo":"기본 30분 1,000원 / 추가 30분당 1,000원","phone":"053-254-0004","updatedAt":"2025-07-02","sido":"대구광역시","sigungu":"중구","dong":""},{"name":"덕영유료주차장-03","type":"민영","category":"노외","address":"대구광역시 중구 서내동 46","lat":35.87190775,"lng":128.5887418,"totalSpaces":28,"isFree":false,"operatingDays":"평일+토요일","weekdayOpen":"09:00","weekdayClose":"20:00","weekendOpen":"09:00","weekendClose":"20:00","holidayOpen":"00:00","holidayClose":"00:00","feeInfo":"기본 30분 1,000원 / 추가 30분당 1,000원","phone":"053-424-3348","updatedAt":"2025-07-02","sido":"대구광역시","sigungu":"중구","dong":"서내동"},{"name":"남산4동주민센터 부근 노상주차장","type":"공영","category":"노상","address":"대구광역시 중구 남산로1길 7","lat":35.85727117,"lng":128.5820197,"totalSpaces":27,"isFree":false,"operatingDays":"평일+토요일","weekdayOpen":"08:00","weekdayClose":"20:00","weekendOpen":"08:00","weekendClose":"20:00","holidayOpen":"00:00","holidayClose":"00:00","feeInfo":"기본 30분 1,000원 / 추가 10분당 500원","phone":"053-661-3173","updatedAt":"2025-07-02","sido":"대구광역시","sigungu":"중구","dong":"남산동"},{"name":"북성월드카유료주차장","type":"민영","category":"노외","address":"대구광역시 중구 경상감영1길 84","lat":35.874659,"lng":128.592781,"totalSpaces":26,"isFree":false,"operatingDays":"평일+토요일","weekdayOpen":"09:00","weekdayClose":"18:00","weekendOpen":"09:00","weekendClose":"18:00","holidayOpen":"00:00","holidayClose":"00:00","feeInfo":"기본 60분 1,000원 / 추가 60분당 1,000원","phone":"053-257-7262","updatedAt":"2025-07-02","sido":"대구광역시","sigungu":"중구","dong":"북성로1가"},{"name":"제일유료주차장-02","type":"민영","category":"노외","address":"대구광역시 중구 명륜로23길 97","lat":35.86428119,"lng":128.5946172,"totalSpaces":26,"isFree":false,"operatingDays":"평일+토요일","weekdayOpen":"01:30","weekdayClose":"22:00","weekendOpen":"01:30","weekendClose":"22:00","holidayOpen":"00:00","holidayClose":"00:00","feeInfo":"기본 30분 1,000원 / 추가 30분당 1,000원","phone":"053-423-8537","updatedAt":"2025-07-02","sido":"대구광역시","sigungu":"중구","dong":"남산동"},{"name":"동산유료주차장-02","type":"민영","category":"노외","address":"대구광역시 중구 동산동 180-20","lat":35.86920192,"lng":128.5855989,"totalSpaces":25,"isFree":false,"operatingDays":"평일+토요일","weekdayOpen":"10:00","weekdayClose":"20:00","weekendOpen":"10:00","weekendClose":"20:00","holidayOpen":"00:00","holidayClose":"00:00","feeInfo":"기본 30분 1,000원 / 추가 30분당 1,000원","phone":"053-254-4194","updatedAt":"2025-07-02","sido":"대구광역시","sigungu":"중구","dong":"동산동"},{"name":"남산유료주차장","type":"민영","category":"노외","address":"대구광역시 중구 명륜로 19","lat":35.86474268,"lng":128.5889482,"totalSpaces":25,"isFree":false,"operatingDays":"평일+토요일","weekdayOpen":"08:00","weekdayClose":"19:00","weekendOpen":"08:00","weekendClose":"19:00","holidayOpen":"00:00","holidayClose":"00:00","feeInfo":"기본 30분 1,000원 / 추가 30분당 1,000원","phone":"053-123-4567","updatedAt":"2025-07-02","sido":"대구광역시","sigungu":"중구","dong":"남산동"},{"name":"뉴대구유료주차장","type":"민영","category":"노외","address":"대구광역시 중구 국채보상로142길 33-29","lat":35.867054,"lng":128.609621,"totalSpaces":25,"isFree":false,"operatingDays":"평일+토요일","weekdayOpen":"07:00","weekdayClose":"22:00","weekendOpen":"07:00","weekendClose":"22:00","holidayOpen":"00:00","holidayClose":"00:00","feeInfo":"기본 60분 1,000원","phone":"053-123-4567","updatedAt":"2025-07-02","sido":"대구광역시","sigungu":"중구","dong":"동인동4가"},{"name":"금광유료주차장","type":"민영","category":"노외","address":"대구광역시 중구 달구벌대로393길 83","lat":35.867292,"lng":128.576754,"totalSpaces":25,"isFree":false,"operatingDays":"평일+토요일","weekdayOpen":"08:00","weekdayClose":"20:00","weekendOpen":"08:00","weekendClose":"20:00","holidayOpen":"00:00","holidayClose":"00:00","feeInfo":"기본 30분 1,000원","phone":"053-257-0132","updatedAt":"2025-07-02","sido":"대구광역시","sigungu":"중구","dong":"대신동"},{"name":"성내공영주차장","type":"공영","category":"노외","address":"대구광역시 중구 국채보상로131길 3","lat":35.87004988,"lng":128.601672,"totalSpaces":25,"isFree":false,"operatingDays":"평일","weekdayOpen":"08:00","weekdayClose":"20:00","weekendOpen":"00:00","weekendClose":"00:00","holidayOpen":"00:00","holidayClose":"00:00","feeInfo":"기본 30분 1,000원 / 추가 10분당 500원","phone":"053-661-3173","updatedAt":"2025-07-02","sido":"대구광역시","sigungu":"중구","dong":"동인동2가"},{"name":"봉산유료주차장-01","type":"민영","category":"노외","address":"대구광역시 중구 봉산동 282","lat":35.860938,"lng":128.600439,"totalSpaces":25,"isFree":false,"operatingDays":"평일+토요일","weekdayOpen":"08:00","weekdayClose":"22:00","weekendOpen":"08:00","weekendClose":"22:00","holidayOpen":"00:00","holidayClose":"00:00","feeInfo":"기본 30분 1,000원","phone":"053-215-5837","updatedAt":"2025-07-02","sido":"대구광역시","sigungu":"중구","dong":"봉산동"},{"name":"한일유료주차장-03","type":"민영","category":"노외","address":"대구광역시 중구 북성로1가 96-2","lat":35.87435183,"lng":128.5930125,"totalSpaces":24,"isFree":false,"operatingDays":"평일+토요일","weekdayOpen":"09:00","weekdayClose":"19:00","weekendOpen":"09:00","weekendClose":"19:00","holidayOpen":"00:00","holidayClose":"00:00","feeInfo":"기본 30분 1,000원 / 추가 30분당 1,000원","phone":"053-253-4910","updatedAt":"2025-07-02","sido":"대구광역시","sigungu":"중구","dong":"북성로1가"},{"name":"대지유료주차장","type":"민영","category":"노외","address":"대구광역시 중구 중앙대로79길 59","lat":35.86877454,"lng":128.5903851,"totalSpaces":23,"isFree":false,"operatingDays":"평일+토요일","weekdayOpen":"07:30","weekdayClose":"21:00","weekendOpen":"07:30","weekendClose":"21:00","holidayOpen":"00:00","holidayClose":"00:00","feeInfo":"기본 60분 1,500원 / 추가 60분당 1,500원","phone":"053-256-2478","updatedAt":"2025-07-02","sido":"대구광역시","sigungu":"중구","dong":"장관동"},{"name":"대봉1동주민센터 주변 노상주차장","type":"공영","category":"노상","address":"대구광역시 중구 달구벌대로440길 27","lat":35.86154465,"lng":128.6043921,"totalSpaces":22,"isFree":false,"operatingDays":"평일+토요일","weekdayOpen":"08:00","weekdayClose":"20:00","weekendOpen":"08:00","weekendClose":"20:00","holidayOpen":"00:00","holidayClose":"00:00","feeInfo":"기본 30분 500원 / 추가 10분당 250원","phone":"053-661-3173","updatedAt":"2025-07-02","sido":"대구광역시","sigungu":"중구","dong":"대봉동"},{"name":"역전유료주차장","type":"민영","category":"노외","address":"대구광역시 중구 태평로2가 11-5","lat":35.87484043,"lng":128.5927429,"totalSpaces":22,"isFree":false,"operatingDays":"평일+토요일","weekdayOpen":"09:00","weekdayClose":"21:00","weekendOpen":"09:00","weekendClose":"21:00","holidayOpen":"00:00","holidayClose":"00:00","feeInfo":"기본 60분 1,000원 / 추가 60분당 1,000원","phone":"053-256-8115","updatedAt":"2025-07-02","sido":"대구광역시","sigungu":"중구","dong":"태평로2가"},{"name":"오경유료주차장","type":"민영","category":"노외","address":"대구광역시 중구 큰장로26안길 64","lat":35.8664729,"lng":128.576874,"totalSpaces":22,"isFree":false,"operatingDays":"평일+토요일","weekdayOpen":"08:30","weekdayClose":"19:00","weekendOpen":"08:30","weekendClose":"19:00","holidayOpen":"00:00","holidayClose":"00:00","feeInfo":"기본 60분 1,000원 / 추가 30분당 1,000원","phone":"053-123-4567","updatedAt":"2025-07-02","sido":"대구광역시","sigungu":"중구","dong":"대신동"},{"name":"대호유료주차장","type":"민영","category":"노외","address":"대구광역시 중구 서성로2가 51-1","lat":35.86946185,"lng":128.5868615,"totalSpaces":20,"isFree":false,"operatingDays":"평일+토요일+공휴일","weekdayOpen":"08:00","weekdayClose":"22:00","weekendOpen":"08:00","weekendClose":"22:00","holidayOpen":"08:00","holidayClose":"22:00","feeInfo":"기본 30분 1,000원 / 추가 30분당 500원","phone":"053-123-4567","updatedAt":"2025-07-02","sido":"대구광역시","sigungu":"중구","dong":"서성로2가"},{"name":"동문유료주차장","type":"민영","category":"노외","address":"대구광역시 중구 교동4길 46","lat":35.872043,"lng":128.598935,"totalSpaces":20,"isFree":false,"operatingDays":"평일+토요일","weekdayOpen":"08:00","weekdayClose":"22:00","weekendOpen":"08:00","weekendClose":"22:00","holidayOpen":"00:00","holidayClose":"00:00","feeInfo":"기본 30분 1,000원 / 추가 30분당 1,000원","phone":"053-424-3873","updatedAt":"2025-07-02","sido":"대구광역시","sigungu":"중구","dong":"동문동"},{"name":"동아유료주차장-02","type":"민영","category":"노외","address":"대구광역시 중구 교동3길 48","lat":35.872123,"lng":128.5982962,"totalSpaces":20,"isFree":false,"operatingDays":"평일+토요일","weekdayOpen":"09:00","weekdayClose":"21:00","weekendOpen":"09:00","weekendClose":"21:00","holidayOpen":"00:00","holidayClose":"00:00","feeInfo":"기본 30분 1,000원 / 추가 30분당 1,000원","phone":"053-422-7855","updatedAt":"2025-07-02","sido":"대구광역시","sigungu":"중구","dong":"동문동"},{"name":"대봉2동공영주차장","type":"공영","category":"노외","address":"대구광역시 중구 대봉로43길 6","lat":35.8576662,"lng":128.6014425,"totalSpaces":20,"isFree":false,"operatingDays":"평일","weekdayOpen":"08:00","weekdayClose":"20:00","weekendOpen":"00:00","weekendClose":"00:00","holidayOpen":"00:00","holidayClose":"00:00","feeInfo":"기본 30분 1,000원 / 추가 10분당 500원","phone":"053-661-3173","updatedAt":"2025-07-02","sido":"대구광역시","sigungu":"중구","dong":"대봉동"},{"name":"대구유료주차장-03","type":"민영","category":"노외","address":"대구광역시 중구 공평로20길 37-9","lat":35.872008,"lng":128.603035,"totalSpaces":20,"isFree":false,"operatingDays":"평일+토요일","weekdayOpen":"08:00","weekdayClose":"18:00","weekendOpen":"08:00","weekendClose":"18:00","holidayOpen":"00:00","holidayClose":"00:00","feeInfo":"기본 30분 1,000원 / 추가 60분당 2,000원","phone":"053-123-4567","updatedAt":"2025-07-02","sido":"대구광역시","sigungu":"중구","dong":"동인동1가"},{"name":"경북유료주차장-03","type":"민영","category":"노외","address":"대구광역시 중구 동덕로 109","lat":35.864538,"lng":128.602642,"totalSpaces":20,"isFree":false,"operatingDays":"평일+토요일","weekdayOpen":"08:00","weekdayClose":"18:00","weekendOpen":"08:00","weekendClose":"18:00","holidayOpen":"00:00","holidayClose":"00:00","feeInfo":"기본 60분 1,500원 / 추가 60분당 1,500원","phone":"053-123-4567","updatedAt":"2025-07-02","sido":"대구광역시","sigungu":"중구","dong":"삼덕동2가"},{"name":"호성유료주차장","type":"민영","category":"노외","address":"대구광역시 중구 태평로28길 24(태평로2가)","lat":35.87455396,"lng":128.591605,"totalSpaces":20,"isFree":false,"operatingDays":"평일+토요일","weekdayOpen":"07:00","weekdayClose":"18:00","weekendOpen":"07:00","weekendClose":"18:00","holidayOpen":"00:00","holidayClose":"00:00","feeInfo":"기본 30분 1,000원 / 추가 30분당 500원","phone":"053-255-5860","updatedAt":"2025-07-02","sido":"대구광역시","sigungu":"중구","dong":"태평로2가"},{"name":"조일유료주차장","type":"민영","category":"노외","address":"대구광역시 중구 완전동 2-1","lat":35.87270886,"lng":128.5995144,"totalSpaces":20,"isFree":false,"operatingDays":"평일+토요일","weekdayOpen":"08:30","weekdayClose":"19:00","weekendOpen":"08:30","weekendClose":"19:00","holidayOpen":"00:00","holidayClose":"00:00","feeInfo":"기본 60분 1,000원 / 추가 60분당 1,000원","phone":"053-426-2926","updatedAt":"2025-07-02","sido":"대구광역시","sigungu":"중구","dong":"완전동"},{"name":"중구주차장","type":"민영","category":"노외","address":"대구광역시 중구 국채보상로 679-14(동인동2가)","lat":35.86962227,"lng":128.6055078,"totalSpaces":20,"isFree":false,"operatingDays":"평일+토요일","weekdayOpen":"09:00","weekdayClose":"18:00","weekendOpen":"09:00","weekendClose":"18:00","holidayOpen":"00:00","holidayClose":"00:00","feeInfo":"기본 30분 1,000원 / 추가 10분당 500원","phone":"053-123-4567","updatedAt":"2025-07-02","sido":"대구광역시","sigungu":"중구","dong":"동인동2가"},{"name":"중앙유료주차장-02","type":"민영","category":"노외","address":"대구광역시 중구 국채보상로139길 39-5","lat":35.870833,"lng":128.6058385,"totalSpaces":20,"isFree":false,"operatingDays":"평일+토요일","weekdayOpen":"09:00","weekdayClose":"18:00","weekendOpen":"09:00","weekendClose":"18:00","holidayOpen":"00:00","holidayClose":"00:00","feeInfo":"기본 30분 1,000원 / 추가 15분당 500원","phone":"053-424-2008","updatedAt":"2025-07-02","sido":"대구광역시","sigungu":"중구","dong":"동인동1가"},{"name":"평화유료주차장-02","type":"민영","category":"노외","address":"대구광역시 중구 중앙대로81길 13","lat":35.869585,"lng":128.5928461,"totalSpaces":20,"isFree":false,"operatingDays":"평일+토요일","weekdayOpen":"09:00","weekdayClose":"23:00","weekendOpen":"09:00","weekendClose":"23:00","holidayOpen":"00:00","holidayClose":"00:00","feeInfo":"기본 30분 1,000원 / 추가 30분당 1,000원","phone":"053-123-4567","updatedAt":"2025-07-02","sido":"대구광역시","sigungu":"중구","dong":"동일동"},{"name":"삼성유료주차장","type":"민영","category":"노외","address":"대구광역시 중구 공평로8길 30-7(삼덕동2가)","lat":35.866267,"lng":128.601555,"totalSpaces":20,"isFree":false,"operatingDays":"평일+토요일","weekdayOpen":"08:00","weekdayClose":"23:59","weekendOpen":"08:00","weekendClose":"23:59","holidayOpen":"00:00","holidayClose":"00:00","feeInfo":"기본 30분 1,000원 / 추가 30분당 1,000원","phone":"053-428-3903","updatedAt":"2025-07-02","sido":"대구광역시","sigungu":"중구","dong":"삼덕동2가"},{"name":"승리유료주차장-02","type":"민영","category":"노외","address":"대구광역시 중구 경상감영길 101","lat":35.8723319,"lng":128.5931103,"totalSpaces":20,"isFree":false,"operatingDays":"평일+토요일","weekdayOpen":"07:30","weekdayClose":"22:00","weekendOpen":"07:30","weekendClose":"22:00","holidayOpen":"00:00","holidayClose":"00:00","feeInfo":"기본 60분 1,000원 / 추가 60분당 1,000원","phone":"053-266-7712","updatedAt":"2025-07-02","sido":"대구광역시","sigungu":"중구","dong":"포정동"},{"name":"반월당유료주차장","type":"민영","category":"노외","address":"대구광역시 중구 달구벌대로 2115-3(봉산동)","lat":35.865434,"lng":128.5953498,"totalSpaces":20,"isFree":false,"operatingDays":"평일+토요일","weekdayOpen":"07:00","weekdayClose":"23:59","weekendOpen":"07:00","weekendClose":"23:59","holidayOpen":"00:00","holidayClose":"00:00","feeInfo":"기본 30분 1,000원 / 추가 30분당 1,000원","phone":"053-424-1100","updatedAt":"2025-07-02","sido":"대구광역시","sigungu":"중구","dong":"봉산동"},{"name":"삼덕2유료주차장","type":"민영","category":"노외","address":"대구광역시 중구 동성로4길 40-8(삼덕동1가)","lat":35.86637819,"lng":128.5992913,"totalSpaces":20,"isFree":false,"operatingDays":"평일+토요일","weekdayOpen":"10:00","weekdayClose":"23:30","weekendOpen":"10:00","weekendClose":"23:30","holidayOpen":"00:00","holidayClose":"00:00","feeInfo":"기본 30분 1,000원","phone":"053-123-4567","updatedAt":"2025-07-02","sido":"대구광역시","sigungu":"중구","dong":"삼덕동1가"},{"name":"현대유료주차장-03","type":"민영","category":"노외","address":"대구광역시 중구 달성공원로8길 32(시장북로)","lat":35.87310968,"lng":128.5819639,"totalSpaces":19,"isFree":false,"operatingDays":"평일+토요일","weekdayOpen":"07:00","weekdayClose":"17:00","weekendOpen":"07:00","weekendClose":"17:00","holidayOpen":"00:00","holidayClose":"00:00","feeInfo":"기본 30분 1,000원","phone":"053-568-7452","updatedAt":"2025-07-02","sido":"대구광역시","sigungu":"중구","dong":""},{"name":"북성로유료주차장","type":"민영","category":"노외","address":"대구광역시 중구 북성로 24-1","lat":35.87450148,"lng":128.5931524,"totalSpaces":19,"isFree":false,"operatingDays":"평일+토요일","weekdayOpen":"07:00","weekdayClose":"19:00","weekendOpen":"07:00","weekendClose":"19:00","holidayOpen":"00:00","holidayClose":"00:00","feeInfo":"기본 30분 1,000원","phone":"053-254-4400","updatedAt":"2025-07-02","sido":"대구광역시","sigungu":"중구","dong":"서야동"},{"name":"대명유료주차장","type":"민영","category":"노외","address":"대구광역시 중구 동덕로 103","lat":35.864078,"lng":128.602684,"totalSpaces":18,"isFree":false,"operatingDays":"평일+토요일","weekdayOpen":"09:00","weekdayClose":"18:00","weekendOpen":"09:00","weekendClose":"18:00","holidayOpen":"00:00","holidayClose":"00:00","feeInfo":"기본 60분 1,500원 / 추가 60분당 1,500원","phone":"053-123-4567","updatedAt":"2025-07-02","sido":"대구광역시","sigungu":"중구","dong":"삼덕동2가"},{"name":"팔도유료주차장","type":"민영","category":"노외","address":"대구광역시 중구 봉산문화길 20","lat":35.86108585,"lng":128.5984258,"totalSpaces":18,"isFree":false,"operatingDays":"평일+토요일","weekdayOpen":"09:00","weekdayClose":"18:00","weekendOpen":"09:00","weekendClose":"18:00","holidayOpen":"00:00","holidayClose":"00:00","feeInfo":"기본 30분 1,000원","phone":"053-123-4567","updatedAt":"2025-07-02","sido":"대구광역시","sigungu":"중구","dong":"봉산동"},{"name":"한일유료주차장-02","type":"민영","category":"노외","address":"대구광역시 중구 이천로 222-10","lat":35.86094443,"lng":128.599656,"totalSpaces":18,"isFree":false,"operatingDays":"평일+토요일","weekdayOpen":"08:00","weekdayClose":"18:00","weekendOpen":"08:00","weekendClose":"18:00","holidayOpen":"00:00","holidayClose":"00:00","feeInfo":"기본 60분 1,000원 / 추가 60분당 1,000원","phone":"053-123-4567","updatedAt":"2025-07-02","sido":"대구광역시","sigungu":"중구","dong":"봉산동"},{"name":"미로유료주차장","type":"민영","category":"노외","address":"대구광역시 중구 서성로16길 80","lat":35.873318,"lng":128.592001,"totalSpaces":18,"isFree":false,"operatingDays":"평일+토요일","weekdayOpen":"10:00","weekdayClose":"19:30","weekendOpen":"10:00","weekendClose":"19:30","holidayOpen":"00:00","holidayClose":"00:00","feeInfo":"기본 60분 1,000원 / 추가 60분당 1,000원","phone":"053-123-4567","updatedAt":"2025-07-02","sido":"대구광역시","sigungu":"중구","dong":"대안동"},{"name":"약령시 서문공영주차장","type":"공영","category":"노외","address":"대구광역시 중구 동성로 60","lat":35.8721247444,"lng":128.5959874502,"totalSpaces":17,"isFree":false,"operatingDays":"평일","weekdayOpen":"08:00","weekdayClose":"18:00","weekendOpen":"00:00","weekendClose":"00:00","holidayOpen":"00:00","holidayClose":"00:00","feeInfo":"기본 10분 300원 / 추가 10분당 300원","phone":"053-603-4064","updatedAt":"2025-08-01","sido":"대구광역시","sigungu":"중구","dong":"동성로2가"},{"name":"뉴대봉유료주차장","type":"민영","category":"노외","address":"대구광역시 중구 동덕로 45(대봉동)","lat":35.85903497,"lng":128.6044795,"totalSpaces":17,"isFree":false,"operatingDays":"평일","weekdayOpen":"09:00","weekdayClose":"21:00","weekendOpen":"00:00","weekendClose":"00:00","holidayOpen":"00:00","holidayClose":"00:00","feeInfo":"기본 30분 0원","phone":"053-475-8221","updatedAt":"2025-07-02","sido":"대구광역시","sigungu":"중구","dong":"대봉동"},{"name":"대광유료주차장-01","type":"민영","category":"노외","address":"대구광역시 중구 국채보상로140길 32","lat":35.86747437,"lng":128.6059928,"totalSpaces":17,"isFree":false,"operatingDays":"평일+토요일","weekdayOpen":"08:00","weekdayClose":"22:00","weekendOpen":"08:00","weekendClose":"22:00","holidayOpen":"00:00","holidayClose":"00:00","feeInfo":"기본 30분 800원 / 추가 30분당 800원","phone":"053-123-4567","updatedAt":"2025-07-02","sido":"대구광역시","sigungu":"중구","dong":"동인동2가"},{"name":"한일유료주차장-01","type":"민영","category":"노외","address":"대구광역시 중구 달성공원로8길 22-7(대신동)","lat":35.87306315,"lng":128.581166,"totalSpaces":17,"isFree":false,"operatingDays":"평일+토요일","weekdayOpen":"09:00","weekdayClose":"21:00","weekendOpen":"09:00","weekendClose":"21:00","holidayOpen":"00:00","holidayClose":"00:00","feeInfo":"기본 30분 1,000원","phone":"053-241-7002","updatedAt":"2025-07-02","sido":"대구광역시","sigungu":"중구","dong":"대신동"},{"name":"삼덕유료주차장-01","type":"민영","category":"노외","address":"대구광역시 중구 동성로3길 36","lat":35.866924,"lng":128.5978303,"totalSpaces":17,"isFree":false,"operatingDays":"평일+토요일","weekdayOpen":"09:30","weekdayClose":"23:59","weekendOpen":"09:30","weekendClose":"23:59","holidayOpen":"00:00","holidayClose":"00:00","feeInfo":"기본 30분 2,000원 / 추가 30분당 1,000원","phone":"053-123-4567","updatedAt":"2025-07-02","sido":"대구광역시","sigungu":"중구","dong":"삼덕동1가"},{"name":"삼협유료주차장","type":"민영","category":"노외","address":"대구광역시 중구 명륜로 129","lat":35.860076,"lng":128.598314,"totalSpaces":17,"isFree":false,"operatingDays":"평일+토요일","weekdayOpen":"08:00","weekdayClose":"19:00","weekendOpen":"08:00","weekendClose":"19:00","holidayOpen":"00:00","holidayClose":"00:00","feeInfo":"기본 60분 1,000원 / 추가 60분당 1,000원","phone":"053-425-4744","updatedAt":"2025-07-02","sido":"대구광역시","sigungu":"중구","dong":"봉산동"},{"name":"계림유료주차장","type":"민영","category":"노외","address":"대구광역시 중구 국채보상로 570-19","lat":35.86994016,"lng":128.593029,"totalSpaces":16,"isFree":false,"operatingDays":"평일+토요일","weekdayOpen":"09:00","weekdayClose":"21:00","weekendOpen":"09:00","weekendClose":"21:00","holidayOpen":"00:00","holidayClose":"00:00","feeInfo":"기본 60분 1,500원 / 추가 60분당 1,500원","phone":"053-123-4567","updatedAt":"2025-07-02","sido":"대구광역시","sigungu":"중구","dong":"전동"},{"name":"계산유료주차장","type":"민영","category":"노외","address":"대구광역시 중구 국채보상로 504(계산동1가)","lat":35.8701837,"lng":128.5857676,"totalSpaces":16,"isFree":false,"operatingDays":"평일+토요일","weekdayOpen":"09:00","weekdayClose":"20:00","weekendOpen":"09:00","weekendClose":"20:00","holidayOpen":"00:00","holidayClose":"00:00","feeInfo":"기본 30분 1,000원 / 추가 30분당 1,000원","phone":"053-123-4567","updatedAt":"2025-07-02","sido":"대구광역시","sigungu":"중구","dong":"계산동1가"},{"name":"대창유료주차장","type":"민영","category":"노외","address":"대구광역시 중구 북성로5길 22","lat":35.87460144,"lng":128.5851736,"totalSpaces":15,"isFree":false,"operatingDays":"평일+토요일","weekdayOpen":"08:00","weekdayClose":"20:00","weekendOpen":"08:00","weekendClose":"20:00","holidayOpen":"00:00","holidayClose":"00:00","feeInfo":"기본 30분 1,000원","phone":"053-123-4567","updatedAt":"2025-07-02","sido":"대구광역시","sigungu":"중구","dong":"수창동"},{"name":"대광유료주차장-02","type":"민영","category":"노외","address":"대구광역시 중구 동인동2가 244-1","lat":35.86743934,"lng":128.6059047,"totalSpaces":15,"isFree":false,"operatingDays":"평일+토요일","weekdayOpen":"09:00","weekdayClose":"18:00","weekendOpen":"09:00","weekendClose":"18:00","holidayOpen":"00:00","holidayClose":"00:00","feeInfo":"기본 30분 1,000원","phone":"053-428-7177","updatedAt":"2025-07-02","sido":"대구광역시","sigungu":"중구","dong":"동인동2가"},{"name":"현대유료주차장-02","type":"민영","category":"노외","address":"대구광역시 중구 공평로 26-7","lat":35.8663245,"lng":128.6004057,"totalSpaces":15,"isFree":false,"operatingDays":"평일+토요일","weekdayOpen":"08:00","weekdayClose":"22:00","weekendOpen":"08:00","weekendClose":"22:00","holidayOpen":"00:00","holidayClose":"00:00","feeInfo":"기본 30분 1,000원","phone":"053-123-4567","updatedAt":"2025-07-02","sido":"대구광역시","sigungu":"중구","dong":"삼덕동2가"},{"name":"동인유료주차장","type":"민영","category":"노외","address":"대구광역시 중구 동덕로 179(동인동1가)","lat":35.87080575,"lng":128.6040702,"totalSpaces":15,"isFree":false,"operatingDays":"평일+토요일","weekdayOpen":"09:00","weekdayClose":"18:00","weekendOpen":"09:00","weekendClose":"18:00","holidayOpen":"00:00","holidayClose":"00:00","feeInfo":"기본 30분 1,000원","phone":"053-422-5085","updatedAt":"2025-07-02","sido":"대구광역시","sigungu":"중구","dong":"동인동1가"},{"name":"명성제2유료주차장","type":"민영","category":"노외","address":"대구광역시 중구 동성로4길 40-6","lat":35.86628402,"lng":128.5993249,"totalSpaces":15,"isFree":false,"operatingDays":"평일+토요일+공휴일","weekdayOpen":"08:00","weekdayClose":"23:59","weekendOpen":"08:00","weekendClose":"23:59","holidayOpen":"08:00","holidayClose":"23:59","feeInfo":"기본 60분 1,500원 / 추가 60분당 1,500원","phone":"053-255-0525","updatedAt":"2025-07-02","sido":"대구광역시","sigungu":"중구","dong":"삼덕동1가"},{"name":"신원유료주차장","type":"민영","category":"노외","address":"대구광역시 중구 서성로14길 53(북내동)","lat":35.87292312,"lng":128.590406,"totalSpaces":15,"isFree":false,"operatingDays":"평일+토요일","weekdayOpen":"08:00","weekdayClose":"20:00","weekendOpen":"08:00","weekendClose":"20:00","holidayOpen":"00:00","holidayClose":"00:00","feeInfo":"기본 30분 1,000원 / 추가 30분당 1,000원","phone":"053-123-4567","updatedAt":"2025-07-02","sido":"대구광역시","sigungu":"중구","dong":"북내동"},{"name":"정덕유료주차장","type":"민영","category":"노외","address":"대구광역시 중구 중앙대로79길 31","lat":35.869032,"lng":128.5920802,"totalSpaces":15,"isFree":false,"operatingDays":"평일+토요일","weekdayOpen":"08:00","weekdayClose":"23:59","weekendOpen":"08:00","weekendClose":"23:59","holidayOpen":"00:00","holidayClose":"00:00","feeInfo":"기본 60분 1,500원 / 추가 60분당 1,500원","phone":"053-253-7567","updatedAt":"2025-07-02","sido":"대구광역시","sigungu":"중구","dong":"종로2가"},{"name":"대양유료주차장","type":"민영","category":"노외","address":"대구광역시 중구 큰장로24안길 16(대신동)","lat":35.86686884,"lng":128.5787446,"totalSpaces":14,"isFree":false,"operatingDays":"평일+토요일","weekdayOpen":"09:00","weekdayClose":"18:00","weekendOpen":"09:00","weekendClose":"18:00","holidayOpen":"00:00","holidayClose":"00:00","feeInfo":"기본 30분 1,000원","phone":"053-253-6999","updatedAt":"2025-07-02","sido":"대구광역시","sigungu":"중구","dong":"대신동"},{"name":"태광유료주차장","type":"민영","category":"노외","address":"대구광역시 중구 삼덕동2가 144-2","lat":35.866856,"lng":128.600173,"totalSpaces":14,"isFree":false,"operatingDays":"평일+토요일","weekdayOpen":"10:00","weekdayClose":"23:59","weekendOpen":"10:00","weekendClose":"23:59","holidayOpen":"00:00","holidayClose":"00:00","feeInfo":"기본 30분 1,000원","phone":"053-123-4567","updatedAt":"2025-07-02","sido":"대구광역시","sigungu":"중구","dong":"삼덕동2가"},{"name":"태산유료주차장","type":"민영","category":"노외","address":"대구광역시 중구 서문로1가 77-3","lat":35.8711943,"lng":128.5897581,"totalSpaces":14,"isFree":false,"operatingDays":"평일+토요일","weekdayOpen":"08:00","weekdayClose":"22:00","weekendOpen":"08:00","weekendClose":"22:00","holidayOpen":"00:00","holidayClose":"00:00","feeInfo":"기본 30분 1,000원 / 추가 30분당 1,000원","phone":"053-257-7674","updatedAt":"2025-07-02","sido":"대구광역시","sigungu":"중구","dong":"서문로1가"},{"name":"봉산유료주차장-02","type":"민영","category":"노외","address":"대구광역시 중구 동성로1길 63","lat":35.865693,"lng":128.5968799,"totalSpaces":13,"isFree":false,"operatingDays":"평일+토요일","weekdayOpen":"10:00","weekdayClose":"23:00","weekendOpen":"10:00","weekendClose":"23:00","holidayOpen":"00:00","holidayClose":"00:00","feeInfo":"기본 30분 1,000원","phone":"053-123-4567","updatedAt":"2025-07-02","sido":"대구광역시","sigungu":"중구","dong":"봉산동"},{"name":"봉산유료주차장-03","type":"민영","category":"노외","address":"대구광역시 중구 봉산문화길 44","lat":35.862147,"lng":128.5978065,"totalSpaces":13,"isFree":false,"operatingDays":"평일+토요일","weekdayOpen":"11:00","weekdayClose":"18:00","weekendOpen":"11:00","weekendClose":"18:00","holidayOpen":"00:00","holidayClose":"00:00","feeInfo":"기본 30분 1,000원","phone":"053-123-4567","updatedAt":"2025-07-02","sido":"대구광역시","sigungu":"중구","dong":"봉산동"},{"name":"태능유료주차장","type":"민영","category":"노외","address":"대구광역시 중구 달성로22길 82","lat":35.87447027,"lng":128.586668,"totalSpaces":12,"isFree":false,"operatingDays":"평일+토요일","weekdayOpen":"08:00","weekdayClose":"18:00","weekendOpen":"08:00","weekendClose":"18:00","holidayOpen":"00:00","holidayClose":"00:00","feeInfo":"기본 30분 1,000원","phone":"053-123-4567","updatedAt":"2025-07-02","sido":"대구광역시","sigungu":"중구","dong":"수창동"},{"name":"세화유료주차장","type":"민영","category":"노외","address":"대구광역시 중구 남성로 37","lat":35.86759323,"lng":128.5910095,"totalSpaces":12,"isFree":false,"operatingDays":"평일+토요일","weekdayOpen":"08:30","weekdayClose":"20:30","weekendOpen":"08:30","weekendClose":"20:30","holidayOpen":"00:00","holidayClose":"00:00","feeInfo":"기본 30분 1,000원","phone":"053-254-5428","updatedAt":"2025-07-02","sido":"대구광역시","sigungu":"중구","dong":""},{"name":"명성유료주차장-02","type":"민영","category":"노외","address":"대구광역시 중구 동성로4길 60","lat":35.86735839,"lng":128.5993377,"totalSpaces":12,"isFree":false,"operatingDays":"평일+토요일+공휴일","weekdayOpen":"06:00","weekdayClose":"23:59","weekendOpen":"06:00","weekendClose":"23:59","holidayOpen":"00:00","holidayClose":"23:59","feeInfo":"기본 30분 1,500원","phone":"053-423-9764","updatedAt":"2025-07-02","sido":"대구광역시","sigungu":"중구","dong":"삼덕동1가"},{"name":"중앙로관광버스전용주차장","type":"공영","category":"노외","address":"대구광역시 중구 중앙대로 456-3(화전동)","lat":35.8738941,"lng":128.594925,"totalSpaces":11,"isFree":false,"operatingDays":"평일+토요일+공휴일","weekdayOpen":"09:00","weekdayClose":"20:00","weekendOpen":"09:00","weekendClose":"20:00","holidayOpen":"09:00","holidayClose":"20:00","feeInfo":"기본 60분 1,000원 / 추가 60분당 1,000원","phone":"053-661-3176","updatedAt":"2025-07-02","sido":"대구광역시","sigungu":"중구","dong":"화전동"},{"name":"승리유료주차장-01","type":"민영","category":"노외","address":"대구광역시 중구 달성공원로 42-1","lat":35.87427546,"lng":128.5802556,"totalSpaces":11,"isFree":false,"operatingDays":"평일+토요일","weekdayOpen":"08:00","weekdayClose":"18:00","weekendOpen":"08:00","weekendClose":"18:00","holidayOpen":"00:00","holidayClose":"00:00","feeInfo":"기본 30분 1,000원 / 추가 30분당 1,000원","phone":"053-123-4567","updatedAt":"2025-07-02","sido":"대구광역시","sigungu":"중구","dong":"달성동"},{"name":"바다유료주차장","type":"민영","category":"노외","address":"대구광역시 중구 중앙대로81길 89(수동)","lat":35.86933629,"lng":128.5887932,"totalSpaces":11,"isFree":false,"operatingDays":"평일+토요일","weekdayOpen":"08:30","weekdayClose":"18:00","weekendOpen":"08:30","weekendClose":"18:00","holidayOpen":"00:00","holidayClose":"00:00","feeInfo":"기본 60분 1,000원 / 추가 60분당 1,000원","phone":"053-123-4567","updatedAt":"2025-07-02","sido":"대구광역시","sigungu":"중구","dong":"수동"},{"name":"신동영유료주차장-02","type":"민영","category":"노외","address":"대구광역시 중구 북성로1가 96-2","lat":35.87433587,"lng":128.5930125,"totalSpaces":11,"isFree":false,"operatingDays":"평일+토요일+공휴일","weekdayOpen":"08:00","weekdayClose":"20:00","weekendOpen":"08:00","weekendClose":"20:00","holidayOpen":"08:00","holidayClose":"20:00","feeInfo":"기본 30분 1,000원 / 추가 30분당 1,000원","phone":"053-123-4567","updatedAt":"2025-07-02","sido":"대구광역시","sigungu":"중구","dong":"북성로1가"},{"name":"정호유료주차장","type":"민영","category":"노외","address":"대구광역시 중구 동성로4길 93(공평동)","lat":35.86896422,"lng":128.5994452,"totalSpaces":11,"isFree":false,"operatingDays":"평일+토요일","weekdayOpen":"08:00","weekdayClose":"22:00","weekendOpen":"08:00","weekendClose":"22:00","holidayOpen":"00:00","holidayClose":"00:00","feeInfo":"기본 30분 1,000원","phone":"053-123-4567","updatedAt":"2025-07-02","sido":"대구광역시","sigungu":"중구","dong":"공평동"},{"name":"동서유료주차장","type":"민영","category":"노외","address":"대구광역시 중구 큰장로 32","lat":35.86317858,"lng":128.5743671,"totalSpaces":10,"isFree":false,"operatingDays":"평일+토요일","weekdayOpen":"09:00","weekdayClose":"18:00","weekendOpen":"09:00","weekendClose":"18:00","holidayOpen":"00:00","holidayClose":"00:00","feeInfo":"기본 30분 2,000원","phone":"053-421-6696","updatedAt":"2025-07-02","sido":"대구광역시","sigungu":"중구","dong":"대신동"},{"name":"대본유료주차장","type":"민영","category":"노외","address":"대구광역시 중구 달성로26길 98","lat":35.87503331,"lng":128.5872948,"totalSpaces":10,"isFree":false,"operatingDays":"평일+토요일","weekdayOpen":"08:00","weekdayClose":"18:00","weekendOpen":"08:00","weekendClose":"18:00","holidayOpen":"00:00","holidayClose":"00:00","feeInfo":"기본 30분 1,000원","phone":"053-257-0734","updatedAt":"2025-07-02","sido":"대구광역시","sigungu":"중구","dong":"수창동"},{"name":"건영유료주차장","type":"민영","category":"노외","address":"대구광역시 중구 달성공원로 14","lat":35.871772,"lng":128.579693,"totalSpaces":10,"isFree":false,"operatingDays":"평일+토요일","weekdayOpen":"08:00","weekdayClose":"19:00","weekendOpen":"08:00","weekendClose":"19:00","holidayOpen":"00:00","holidayClose":"00:00","feeInfo":"기본 30분 1,000원 / 추가 30분당 1,000원","phone":"053-555-2001","updatedAt":"2025-07-02","sido":"대구광역시","sigungu":"중구","dong":"대신동"},{"name":"태평유료주차장","type":"민영","category":"노외","address":"대구광역시 중구 태평로 114(태평로3가)","lat":35.87562417,"lng":128.590205,"totalSpaces":10,"isFree":false,"operatingDays":"평일+토요일","weekdayOpen":"09:00","weekdayClose":"18:00","weekendOpen":"09:00","weekendClose":"18:00","holidayOpen":"00:00","holidayClose":"00:00","feeInfo":"기본 60분 1,000원 / 추가 30분당 500원","phone":"053-255-5072","updatedAt":"2025-07-02","sido":"대구광역시","sigungu":"중구","dong":"태평로3가"},{"name":"포정유료주차장","type":"민영","category":"노외","address":"대구광역시 중구 중앙대로 432-13","lat":35.871734,"lng":128.594963,"totalSpaces":10,"isFree":false,"operatingDays":"평일+토요일","weekdayOpen":"10:00","weekdayClose":"18:00","weekendOpen":"10:00","weekendClose":"18:00","holidayOpen":"00:00","holidayClose":"00:00","feeInfo":"기본 30분 1,000원 / 추가 30분당 1,000원","phone":"053-123-4567","updatedAt":"2025-07-02","sido":"대구광역시","sigungu":"중구","dong":"포정동"},{"name":"삼덕유료주차장-03","type":"민영","category":"노외","address":"대구광역시 중구 공평로8길 46","lat":35.866317,"lng":128.602434,"totalSpaces":10,"isFree":false,"operatingDays":"평일+토요일","weekdayOpen":"09:00","weekdayClose":"22:00","weekendOpen":"09:00","weekendClose":"22:00","holidayOpen":"00:00","holidayClose":"00:00","feeInfo":"기본 30분 1,000원 / 추가 30분당 1,000원","phone":"053-123-4567","updatedAt":"2025-07-02","sido":"대구광역시","sigungu":"중구","dong":"삼덕동2가"},{"name":"수창유료주차장","type":"민영","category":"노외","address":"대구광역시 중구 북성로5길 8-9","lat":35.87410036,"lng":128.58535,"totalSpaces":10,"isFree":false,"operatingDays":"평일+토요일","weekdayOpen":"09:00","weekdayClose":"19:00","weekendOpen":"09:00","weekendClose":"19:00","holidayOpen":"00:00","holidayClose":"00:00","feeInfo":"기본 30분 1,000원 / 추가 30분당 1,000원","phone":"053-253-6202","updatedAt":"2025-07-02","sido":"대구광역시","sigungu":"중구","dong":"수창동"},{"name":"라이프유료주차장","type":"민영","category":"노외","address":"대구광역시 중구 태평로 177","lat":35.87486539,"lng":128.5976478,"totalSpaces":10,"isFree":false,"operatingDays":"평일+토요일","weekdayOpen":"07:00","weekdayClose":"20:00","weekendOpen":"07:00","weekendClose":"20:00","holidayOpen":"00:00","holidayClose":"00:00","feeInfo":"기본 30분 1,000원","phone":"053-123-4567","updatedAt":"2025-07-02","sido":"대구광역시","sigungu":"중구","dong":"태평로1가"},{"name":"미래유료주차장","type":"민영","category":"노외","address":"대구광역시 중구 국채보상로152길 6-5(동인동4가)","lat":35.86774094,"lng":128.6124845,"totalSpaces":10,"isFree":false,"operatingDays":"평일+토요일","weekdayOpen":"08:00","weekdayClose":"20:00","weekendOpen":"08:00","weekendClose":"20:00","holidayOpen":"00:00","holidayClose":"00:00","feeInfo":"기본 30분 2,000원 / 추가 10분당 1,000원","phone":"053-123-4567","updatedAt":"2025-07-02","sido":"대구광역시","sigungu":"중구","dong":"동인동4가"},{"name":"동인2가유료주차장","type":"민영","category":"노외","address":"대구광역시 중구 동인동4가 184","lat":35.86836398,"lng":128.6064945,"totalSpaces":8,"isFree":false,"operatingDays":"평일+토요일","weekdayOpen":"07:00","weekdayClose":"20:30","weekendOpen":"07:00","weekendClose":"20:30","holidayOpen":"00:00","holidayClose":"00:00","feeInfo":"기본 30분 1,000원 / 추가 30분당 1,000원","phone":"053-255-5157","updatedAt":"2025-07-02","sido":"대구광역시","sigungu":"중구","dong":"동인동4가"},{"name":"해물다라이주차장","type":"민영","category":"노외","address":"대구광역시 중구 명덕로 197(남산동)","lat":35.85718972,"lng":128.5920303,"totalSpaces":8,"isFree":false,"operatingDays":"평일+토요일+공휴일","weekdayOpen":"10:00","weekdayClose":"18:00","weekendOpen":"10:00","weekendClose":"18:00","holidayOpen":"10:00","holidayClose":"18:00","feeInfo":"기본 60분 2,000원 / 추가 60분당 2,000원","phone":"053-427-0331","updatedAt":"2025-07-02","sido":"대구광역시","sigungu":"중구","dong":"남산동"},{"name":"신유료주차장","type":"민영","category":"노외","address":"대구광역시 중구 중앙대로79길 56","lat":35.86913582,"lng":128.5906423,"totalSpaces":7,"isFree":false,"operatingDays":"평일+토요일","weekdayOpen":"08:00","weekdayClose":"19:00","weekendOpen":"08:00","weekendClose":"19:00","holidayOpen":"00:00","holidayClose":"00:00","feeInfo":"기본 30분 0원","phone":"053-123-4567","updatedAt":"2025-07-02","sido":"대구광역시","sigungu":"중구","dong":"장관동"},{"name":"새종로유료주차장","type":"민영","category":"노외","address":"대구광역시 중구 동성로3가 7-4","lat":35.86840845,"lng":128.5932235,"totalSpaces":5,"isFree":false,"operatingDays":"평일+토요일","weekdayOpen":"08:30","weekdayClose":"21:00","weekendOpen":"08:30","weekendClose":"21:00","holidayOpen":"00:00","holidayClose":"00:00","feeInfo":"기본 60분 1,500원","phone":"053-123-4567","updatedAt":"2025-07-02","sido":"대구광역시","sigungu":"중구","dong":"동성로3가"}]}