{"sido":"부산광역시","sigungu":"금정구","totalCount":29,"validCount":29,"items":[{"name":"범어사상마공영주차장","type":"공영","category":"노외","address":"부산광역시 금정구 범어사로 307","lat":35.2798631,"lng":129.0742632,"totalSpaces":114,"isFree":true,"operatingDays":"평일+토요일+공휴일","weekdayOpen":"00:00","weekdayClose":"23:59","weekendOpen":"00:00","weekendClose":"23:59","holidayOpen":"00:00","holidayClose":"23:59","feeInfo":"무료","phone":"051-519-4515","updatedAt":"2025-11-12","sido":"부산광역시","sigungu":"금정구","dong":"청룡동"},{"name":"선동공영주차장","type":"공영","category":"노외","address":"부산광역시 금정구 범어사로 307","lat":35.2798638,"lng":129.0742432,"totalSpaces":52,"isFree":true,"operatingDays":"평일+토요일+공휴일","weekdayOpen":"00:00","weekdayClose":"23:59","weekendOpen":"00:00","weekendClose":"23:59","holidayOpen":"00:00","holidayClose":"23:59","feeInfo":"무료","phone":"051-519-4515","updatedAt":"2025-11-12","sido":"부산광역시","sigungu":"금정구","dong":"청룡동"},{"name":"오륜동공영주차장","type":"공영","category":"노외","address":"부산광역시 금정구 범어사로 307","lat":35.2798638,"lng":129.0742432,"totalSpaces":47,"isFree":true,"operatingDays":"평일+토요일+공휴일","weekdayOpen":"00:00","weekdayClose":"23:59","weekendOpen":"00:00","weekendClose":"23:59","holidayOpen":"00:00","holidayClose":"23:59","feeInfo":"무료","phone":"051-519-4515","updatedAt":"2025-11-12","sido":"부산광역시","sigungu":"금정구","dong":"청룡동"},{"name":"온천장북측공영주차장","type":"공영","category":"노외","address":"부산광역시 금정구 장전온천천로 48","lat":35.2296176,"lng":129.0893411,"totalSpaces":182,"isFree":false,"operatingDays":"평일+토요일+공휴일","weekdayOpen":"00:00","weekdayClose":"23:59","weekendOpen":"00:00","weekendClose":"23:59","holidayOpen":"00:00","holidayClose":"23:59","feeInfo":"기본 10분 300원 / 추가 10분당 300원","phone":"051-519-4516","updatedAt":"2025-11-12","sido":"부산광역시","sigungu":"금정구","dong":"장전동"},{"name":"금샘로노상공영주차장","type":"공영","category":"노상","address":"부산광역시 금정구 금샘로 553-1","lat":35.27166663,"lng":129.084858,"totalSpaces":169,"isFree":false,"operatingDays":"평일+토요일","weekdayOpen":"08:00","weekdayClose":"20:00","weekendOpen":"08:00","weekendClose":"15:00","holidayOpen":"00:00","holidayClose":"00:00","feeInfo":"기본 10분 100원 / 추가 10분당 100원","phone":"051-519-4515","updatedAt":"2025-11-12","sido":"부산광역시","sigungu":"금정구","dong":"남산동"},{"name":"서동미로시장공영주차장","type":"공영","category":"노외","address":"부산광역시 금정구 서부로16번길 15","lat":35.21611589,"lng":129.1039615,"totalSpaces":145,"isFree":false,"operatingDays":"평일+토요일+공휴일","weekdayOpen":"00:00","weekdayClose":"23:59","weekendOpen":"00:00","weekendClose":"23:59","holidayOpen":"00:00","holidayClose":"23:59","feeInfo":"기본 10분 200원 / 추가 10분당 200원","phone":"051-519-4516","updatedAt":"2025-11-12","sido":"부산광역시","sigungu":"금정구","dong":"서동"},{"name":"구서동만남의광장공영주차장","type":"공영","category":"노외","address":"부산광역시 금정구 중앙대로 1810","lat":35.24701759,"lng":129.094722,"totalSpaces":107,"isFree":false,"operatingDays":"평일+토요일+공휴일","weekdayOpen":"00:00","weekdayClose":"23:59","weekendOpen":"00:00","weekendClose":"23:59","holidayOpen":"00:00","holidayClose":"23:59","feeInfo":"기본 10분 200원 / 추가 10분당 200원","phone":"051-519-4515","updatedAt":"2025-11-12","sido":"부산광역시","sigungu":"금정구","dong":"구서동"},{"name":"서2동공영주차장(기계식주차장)","type":"공영","category":"노외","address":"부산광역시 금정구 서동중심로 60-14","lat":35.2138787,"lng":129.1038695,"totalSpaces":106,"isFree":false,"operatingDays":"평일+토요일+공휴일","weekdayOpen":"00:00","weekdayClose":"23:59","weekendOpen":"00:00","weekendClose":"23:59","holidayOpen":"00:00","holidayClose":"23:59","feeInfo":"기본 10분 100원 / 추가 10분당 100원","phone":"051-519-4516","updatedAt":"2025-11-12","sido":"부산광역시","sigungu":"금정구","dong":"서동"},{"name":"온천천복개도로노상공영주차장","type":"공영","category":"노상","address":"부산광역시 금정구 범어천로 62","lat":35.2717971,"lng":129.0894366,"totalSpaces":88,"isFree":false,"operatingDays":"평일+토요일","weekdayOpen":"08:00","weekdayClose":"20:00","weekendOpen":"08:00","weekendClose":"15:00","holidayOpen":"00:00","holidayClose":"00:00","feeInfo":"기본 10분 200원 / 추가 10분당 200원","phone":"051-519-4515","updatedAt":"2025-11-12","sido":"부산광역시","sigungu":"금정구","dong":"남산동"},{"name":"서1동제2공영주차장","type":"공영","category":"노외","address":"부산광역시 금정구 동현로 131","lat":35.21829209,"lng":129.0970619,"totalSpaces":85,"isFree":false,"operatingDays":"평일+토요일+공휴일","weekdayOpen":"00:00","weekdayClose":"23:59","weekendOpen":"00:00","weekendClose":"23:59","holidayOpen":"00:00","holidayClose":"23:59","feeInfo":"기본 10분 100원 / 추가 10분당 100원","phone":"051-519-4516","updatedAt":"2025-11-12","sido":"부산광역시","sigungu":"금정구","dong":"서동"},{"name":"금사동제1공영주차장","type":"공영","category":"노외","address":"부산광역시 금정구 서곡로 20번길 121","lat":35.2209451,"lng":129.1094916,"totalSpaces":81,"isFree":false,"operatingDays":"평일+토요일+공휴일","weekdayOpen":"00:00","weekdayClose":"23:59","weekendOpen":"00:00","weekendClose":"23:59","holidayOpen":"00:00","holidayClose":"23:59","feeInfo":"기본 10분 100원 / 추가 10분당 100원","phone":"051-519-4516","updatedAt":"2025-11-12","sido":"부산광역시","sigungu":"금정구","dong":"금사동"},{"name":"서1동제3공영주차장","type":"공영","category":"노외","address":"부산광역시 금정구 명서로 41","lat":35.2160512,"lng":129.0953033,"totalSpaces":79,"isFree":false,"operatingDays":"평일+토요일+공휴일","weekdayOpen":"00:00","weekdayClose":"23:59","weekendOpen":"00:00","weekendClose":"23:59","holidayOpen":"00:00","holidayClose":"23:59","feeInfo":"기본 10분 100원 / 추가 10분당 100원","phone":"051-519-4516","updatedAt":"2025-11-12","sido":"부산광역시","sigungu":"금정구","dong":"서동"},{"name":"금샘공영주차장","type":"공영","category":"노외","address":"부산광역시 금정구 기찰로 94","lat":35.23899704,"lng":129.094208,"totalSpaces":75,"isFree":false,"operatingDays":"평일+토요일+공휴일","weekdayOpen":"00:00","weekdayClose":"23:59","weekendOpen":"00:00","weekendClose":"23:59","holidayOpen":"00:00","holidayClose":"23:59","feeInfo":"기본 10분 100원 / 추가 10분당 100원","phone":"051-519-4516","updatedAt":"2025-11-12","sido":"부산광역시","sigungu":"금정구","dong":"부곡동"},{"name":"부곡2동공영주차장","type":"공영","category":"노외","address":"부산광역시 금정구 부곡로 132","lat":35.22773109,"lng":129.0923915,"totalSpaces":72,"isFree":false,"operatingDays":"평일+토요일+공휴일","weekdayOpen":"00:00","weekdayClose":"23:59","weekendOpen":"00:00","weekendClose":"23:59","holidayOpen":"00:00","holidayClose":"23:59","feeInfo":"기본 10분 200원 / 추가 10분당 200원","phone":"051-519-4516","updatedAt":"2025-11-12","sido":"부산광역시","sigungu":"금정구","dong":"부곡동"},{"name":"부곡4동삼차로공영주차장","type":"공영","category":"노외","address":"부산광역시 금정구 부곡동 737-165","lat":35.21689273,"lng":129.0941282,"totalSpaces":70,"isFree":false,"operatingDays":"평일+토요일+공휴일","weekdayOpen":"00:00","weekdayClose":"23:59","weekendOpen":"00:00","weekendClose":"23:59","holidayOpen":"00:00","holidayClose":"23:59","feeInfo":"기본 10분 100원 / 추가 10분당 100원","phone":"051-519-4516","updatedAt":"2025-11-12","sido":"부산광역시","sigungu":"금정구","dong":"부곡동"},{"name":"두실공영주차장","type":"공영","category":"노외","address":"부산광역시 금정구 중앙대로 1893번길 33","lat":35.25315811,"lng":129.0894003,"totalSpaces":66,"isFree":false,"operatingDays":"평일+토요일+공휴일","weekdayOpen":"00:00","weekdayClose":"23:59","weekendOpen":"00:00","weekendClose":"23:59","holidayOpen":"00:00","holidayClose":"23:59","feeInfo":"기본 10분 200원 / 추가 10분당 200원","phone":"051-519-4515","updatedAt":"2025-11-12","sido":"부산광역시","sigungu":"금정구","dong":"구서동"},{"name":"남산동요산공영주차장","type":"공영","category":"노외","address":"부산광역시 금정구 팔송로 51","lat":35.2718193,"lng":129.0869705,"totalSpaces":46,"isFree":false,"operatingDays":"평일+토요일+공휴일","weekdayOpen":"00:00","weekdayClose":"23:59","weekendOpen":"00:00","weekendClose":"23:59","holidayOpen":"00:00","holidayClose":"23:59","feeInfo":"기본 10분 200원 / 추가 10분당 200원","phone":"051-519-4515","updatedAt":"2025-11-12","sido":"부산광역시","sigungu":"금정구","dong":"남산동"},{"name":"구서1동공영주차장","type":"공영","category":"노외","address":"부산광역시 금정구 금강로 446번길 20","lat":35.247916,"lng":129.0893642,"totalSpaces":43,"isFree":false,"operatingDays":"평일+토요일+공휴일","weekdayOpen":"00:00","weekdayClose":"23:59","weekendOpen":"00:00","weekendClose":"23:59","holidayOpen":"00:00","holidayClose":"23:59","feeInfo":"기본 10분 200원 / 추가 10분당 200원","phone":"051-519-4515","updatedAt":"2025-11-12","sido":"부산광역시","sigungu":"금정구","dong":"구서동"},{"name":"금사동제2공영주차장","type":"공영","category":"노외","address":"부산광역시 금정구 금사로85번길 2","lat":35.2204058617,"lng":129.1114731133,"totalSpaces":38,"isFree":false,"operatingDays":"평일+토요일+공휴일","weekdayOpen":"00:00","weekdayClose":"23:59","weekendOpen":"00:00","weekendClose":"23:59","holidayOpen":"00:00","holidayClose":"23:59","feeInfo":"기본 10분 200원 / 추가 10분당 200원","phone":"051-519-4516","updatedAt":"2025-11-12","sido":"부산광역시","sigungu":"금정구","dong":"금사동"},{"name":"두구동수내공영주차장","type":"공영","category":"노외","address":"부산광역시 금정구 두구동 314-64","lat":35.2933789,"lng":129.1116203,"totalSpaces":38,"isFree":false,"operatingDays":"평일+토요일+공휴일","weekdayOpen":"00:00","weekdayClose":"23:59","weekendOpen":"00:00","weekendClose":"23:59","holidayOpen":"00:00","holidayClose":"23:59","feeInfo":"기본 10분 200원 / 추가 10분당 200원","phone":"051-519-4515","updatedAt":"2025-11-12","sido":"부산광역시","sigungu":"금정구","dong":"두구동"},{"name":"서3동제1공영주차장","type":"공영","category":"노외","address":"부산광역시 금정구 서금로 42-1","lat":35.2192505,"lng":129.1061743,"totalSpaces":38,"isFree":false,"operatingDays":"평일+토요일+공휴일","weekdayOpen":"00:00","weekdayClose":"23:59","weekendOpen":"00:00","weekendClose":"23:59","holidayOpen":"00:00","holidayClose":"23:59","feeInfo":"기본 10분 100원 / 추가 10분당 100원","phone":"051-519-4516","updatedAt":"2025-11-12","sido":"부산광역시","sigungu":"금정구","dong":"서동"},{"name":"서3동제5공영주차장","type":"공영","category":"노외","address":"부산광역시 금정구 서곡로20번길 9","lat":35.21718268,"lng":129.1054011,"totalSpaces":33,"isFree":false,"operatingDays":"평일+토요일+공휴일","weekdayOpen":"00:00","weekdayClose":"23:59","weekendOpen":"00:00","weekendClose":"23:59","holidayOpen":"00:00","holidayClose":"23:59","feeInfo":"기본 10분 100원 / 추가 10분당 100원","phone":"051-519-4516","updatedAt":"2025-11-12","sido":"부산광역시","sigungu":"금정구","dong":"서동"},{"name":"부곡4동공영주차장","type":"공영","category":"노외","address":"부산광역시 금정구 서동로 55","lat":35.21857591,"lng":129.0935978,"totalSpaces":32,"isFree":false,"operatingDays":"평일+토요일+공휴일","weekdayOpen":"00:00","weekdayClose":"23:59","weekendOpen":"00:00","weekendClose":"23:59","holidayOpen":"00:00","holidayClose":"23:59","feeInfo":"기본 10분 100원 / 추가 10분당 100원","phone":"051-519-4516","updatedAt":"2025-11-12","sido":"부산광역시","sigungu":"금정구","dong":"부곡동"},{"name":"서1동제4공영주차장","type":"공영","category":"노외","address":"부산광역시 금정구 서부로 109","lat":35.21944676,"lng":129.0961752,"totalSpaces":31,"isFree":false,"operatingDays":"평일+토요일+공휴일","weekdayOpen":"00:00","weekdayClose":"23:59","weekendOpen":"00:00","weekendClose":"23:59","holidayOpen":"00:00","holidayClose":"23:59","feeInfo":"기본 10분 100원 / 추가 10분당 100원","phone":"051-519-4516","updatedAt":"2025-11-12","sido":"부산광역시","sigungu":"금정구","dong":"부곡동"},{"name":"서2동오차로공영주차장","type":"공영","category":"노외","address":"부산광역시 금정구 명서로 45번길 74","lat":35.2149949,"lng":129.098963,"totalSpaces":29,"isFree":false,"operatingDays":"평일+토요일+공휴일","weekdayOpen":"00:00","weekdayClose":"23:59","weekendOpen":"00:00","weekendClose":"23:59","holidayOpen":"00:00","holidayClose":"23:59","feeInfo":"기본 10분 100원 / 추가 10분당 100원","phone":"051-519-4516","updatedAt":"2025-11-12","sido":"부산광역시","sigungu":"금정구","dong":"서동"},{"name":"서3동제2공영주차장","type":"공영","category":"노외","address":"부산광역시 금정구 서부로30번길 24","lat":35.2175281,"lng":129.1034884,"totalSpaces":29,"isFree":false,"operatingDays":"평일+토요일+공휴일","weekdayOpen":"00:00","weekdayClose":"23:59","weekendOpen":"00:00","weekendClose":"23:59","holidayOpen":"00:00","holidayClose":"23:59","feeInfo":"기본 10분 200원 / 추가 10분당 200원","phone":"051-519-4516","updatedAt":"2025-11-12","sido":"부산광역시","sigungu":"금정구","dong":"서동"},{"name":"서1동제1공영주차장","type":"공영","category":"노외","address":"부산광역시 금정구 서동로 103번길 39","lat":35.21810034,"lng":129.0992917,"totalSpaces":22,"isFree":false,"operatingDays":"평일+토요일+공휴일","weekdayOpen":"00:00","weekdayClose":"23:59","weekendOpen":"00:00","weekendClose":"23:59","holidayOpen":"00:00","holidayClose":"23:59","feeInfo":"기본 10분 100원 / 추가 10분당 100원","phone":"051-519-4516","updatedAt":"2025-11-12","sido":"부산광역시","sigungu":"금정구","dong":"서동"},{"name":"서3동제3공영주차장","type":"공영","category":"노외","address":"부산광역시 금정구 서동로 103번길 92","lat":35.2168088,"lng":129.1016901,"totalSpaces":22,"isFree":false,"operatingDays":"평일+토요일+공휴일","weekdayOpen":"00:00","weekdayClose":"23:59","weekendOpen":"00:00","weekendClose":"23:59","holidayOpen":"00:00","holidayClose":"23:59","feeInfo":"기본 10분 100원 / 추가 10분당 100원","phone":"051-519-4516","updatedAt":"2025-11-12","sido":"부산광역시","sigungu":"금정구","dong":"서동"},{"name":"금정농협앞노상공영주차장","type":"공영","category":"노상","address":"부산광역시 금정구 금강로 717","lat":35.2715838,"lng":129.0887885,"totalSpaces":11,"isFree":false,"operatingDays":"평일+토요일","weekdayOpen":"08:00","weekdayClose":"20:00","weekendOpen":"08:00","weekendClose":"15:00","holidayOpen":"00:00","holidayClose":"00:00","feeInfo":"기본 10분 200원 / 추가 10분당 200원","phone":"051-519-4515","updatedAt":"2025-11-12","sido":"부산광역시","sigungu":"금정구","dong":"남산동"}]}