{"sido":"부산광역시","sigungu":"서구","totalCount":43,"validCount":43,"items":[{"name":"암남공원공영","type":"공영","category":"노외","address":"부산광역시 서구 암남동 620-4","lat":35.06379407,"lng":129.0205153,"totalSpaces":320,"isFree":false,"operatingDays":"평일+토요일+공휴일","weekdayOpen":"00:00","weekdayClose":"23:59","weekendOpen":"00:00","weekendClose":"23:59","holidayOpen":"00:00","holidayClose":"23:59","feeInfo":"기본 10분 300원 / 추가 10분당 300원","phone":"051-240-4512","updatedAt":"2025-11-10","sido":"부산광역시","sigungu":"서구","dong":"암남동"},{"name":"남부민2동공영","type":"공영","category":"노외","address":"부산광역시 서구 남부민동 595-2","lat":35.08369899,"lng":129.0211272,"totalSpaces":149,"isFree":false,"operatingDays":"평일+토요일+공휴일","weekdayOpen":"00:00","weekdayClose":"23:59","weekendOpen":"00:00","weekendClose":"23:59","holidayOpen":"00:00","holidayClose":"23:59","feeInfo":"기본 10분 100원 / 추가 10분당 100원","phone":"051-240-4555","updatedAt":"2025-11-10","sido":"부산광역시","sigungu":"서구","dong":"남부민동"},{"name":"구덕꽃마을공영","type":"공영","category":"노외","address":"부산광역시 서구 서대신동3가 산 10-1","lat":35.12709753,"lng":129.0077639,"totalSpaces":124,"isFree":false,"operatingDays":"평일+토요일+공휴일","weekdayOpen":"00:00","weekdayClose":"23:59","weekendOpen":"00:00","weekendClose":"23:59","holidayOpen":"00:00","holidayClose":"23:59","feeInfo":"기본 10분 100원 / 추가 10분당 100원","phone":"051-240-4512","updatedAt":"2025-11-10","sido":"부산광역시","sigungu":"서구","dong":"서대신동3가"},{"name":"망양공영","type":"공영","category":"노외","address":"부산광역시 서구 동대신동1가 11-15","lat":35.11160047,"lng":129.0251193,"totalSpaces":101,"isFree":false,"operatingDays":"평일+토요일+공휴일","weekdayOpen":"00:00","weekdayClose":"23:59","weekendOpen":"00:00","weekendClose":"23:59","holidayOpen":"00:00","holidayClose":"23:59","feeInfo":"기본 10분 100원 / 추가 10분당 100원","phone":"051-240-4512","updatedAt":"2025-11-10","sido":"부산광역시","sigungu":"서구","dong":"동대신동1가"},{"name":"해돋이공영","type":"공영","category":"노외","address":"부산광역시 서구 남부민동 50-13","lat":35.091305,"lng":129.0211395,"totalSpaces":101,"isFree":false,"operatingDays":"평일+토요일+공휴일","weekdayOpen":"00:00","weekdayClose":"23:59","weekendOpen":"00:00","weekendClose":"23:59","holidayOpen":"00:00","holidayClose":"23:59","feeInfo":"기본 10분 100원 / 추가 10분당 100원","phone":"051-240-4555","updatedAt":"2025-11-10","sido":"부산광역시","sigungu":"서구","dong":"남부민동"},{"name":"북산리공영","type":"공영","category":"노외","address":"부산광역시 서구 동대신동2가 79-39","lat":35.11450349,"lng":129.0241822,"totalSpaces":99,"isFree":false,"operatingDays":"평일+토요일+공휴일","weekdayOpen":"00:00","weekdayClose":"23:59","weekendOpen":"00:00","weekendClose":"23:59","holidayOpen":"00:00","holidayClose":"23:59","feeInfo":"기본 10분 100원 / 추가 10분당 100원","phone":"051-240-4512","updatedAt":"2025-11-10","sido":"부산광역시","sigungu":"서구","dong":"동대신동2가"},{"name":"서구 원양로제1공영","type":"공영","category":"노상","address":"부산광역시 서구 암남동 633-2","lat":35.07181961,"lng":129.0071921,"totalSpaces":82,"isFree":false,"operatingDays":"평일+토요일","weekdayOpen":"07:00","weekdayClose":"20:00","weekendOpen":"07:00","weekendClose":"20:00","holidayOpen":"00:00","holidayClose":"00:00","feeInfo":"기본 10분 100원 / 추가 10분당 100원","phone":"051-240-4555","updatedAt":"2025-11-10","sido":"부산광역시","sigungu":"서구","dong":"암남동"},{"name":"고운들공영","type":"공영","category":"노외","address":"부산광역시 서구 서대신동2가 509-233","lat":35.10674959,"lng":129.0125065,"totalSpaces":81,"isFree":false,"operatingDays":"평일+토요일+공휴일","weekdayOpen":"00:00","weekdayClose":"23:59","weekendOpen":"00:00","weekendClose":"23:59","holidayOpen":"00:00","holidayClose":"23:59","feeInfo":"기본 10분 100원 / 추가 10분당 100원","phone":"051-240-4512","updatedAt":"2025-11-10","sido":"부산광역시","sigungu":"서구","dong":"서대신동2가"},{"name":"아미초등학교지하공영","type":"공영","category":"노외","address":"부산광역시 서구 아미동2가 89","lat":35.09877555,"lng":129.0155897,"totalSpaces":75,"isFree":false,"operatingDays":"평일+토요일+공휴일","weekdayOpen":"00:00","weekdayClose":"23:59","weekendOpen":"00:00","weekendClose":"23:59","holidayOpen":"00:00","holidayClose":"23:59","feeInfo":"기본 10분 100원 / 추가 10분당 100원","phone":"051-240-4512","updatedAt":"2025-11-10","sido":"부산광역시","sigungu":"서구","dong":"아미동2가"},{"name":"아미까치공영","type":"공영","category":"노외","address":"부산광역시 서구 아미동2가 249-1","lat":35.10443625,"lng":129.0094865,"totalSpaces":69,"isFree":false,"operatingDays":"평일+토요일+공휴일","weekdayOpen":"00:00","weekdayClose":"23:59","weekendOpen":"00:00","weekendClose":"23:59","holidayOpen":"00:00","holidayClose":"23:59","feeInfo":"기본 10분 100원 / 추가 10분당 100원","phone":"051-240-4512","updatedAt":"2025-11-10","sido":"부산광역시","sigungu":"서구","dong":"아미동2가"},{"name":"충무동새벽시장공영","type":"공영","category":"노외","address":"부산광역시 서구 남부민동 685-1","lat":35.092783,"lng":129.0249253,"totalSpaces":68,"isFree":false,"operatingDays":"평일+토요일+공휴일","weekdayOpen":"00:00","weekdayClose":"23:59","weekendOpen":"00:00","weekendClose":"23:59","holidayOpen":"00:00","holidayClose":"23:59","feeInfo":"기본 10분 300원 / 추가 10분당 300원","phone":"051-240-4555","updatedAt":"2025-11-10","sido":"부산광역시","sigungu":"서구","dong":"남부민동"},{"name":"아미골공영","type":"공영","category":"노외","address":"부산광역시 서구 아미동2가 212-8","lat":35.09916475,"lng":129.0136227,"totalSpaces":62,"isFree":false,"operatingDays":"평일+토요일+공휴일","weekdayOpen":"00:00","weekdayClose":"23:59","weekendOpen":"00:00","weekendClose":"23:59","holidayOpen":"00:00","holidayClose":"23:59","feeInfo":"기본 10분 100원 / 추가 10분당 100원","phone":"051-240-4512","updatedAt":"2025-11-10","sido":"부산광역시","sigungu":"서구","dong":"아미동2가"},{"name":"부민동공영","type":"공영","category":"노외","address":"부산광역시 서구 부민동3가 56","lat":35.10249017,"lng":129.0167617,"totalSpaces":56,"isFree":false,"operatingDays":"평일+토요일+공휴일","weekdayOpen":"00:00","weekdayClose":"23:59","weekendOpen":"00:00","weekendClose":"23:59","holidayOpen":"00:00","holidayClose":"23:59","feeInfo":"기본 10분 100원 / 추가 10분당 100원","phone":"051-240-4512","updatedAt":"2025-11-10","sido":"부산광역시","sigungu":"서구","dong":"부민동3가"},{"name":"천해로공영","type":"공영","category":"노외","address":"부산광역시 서구 남부민동 434-227","lat":35.08407811,"lng":129.0161998,"totalSpaces":54,"isFree":false,"operatingDays":"평일+토요일+공휴일","weekdayOpen":"00:00","weekdayClose":"23:59","weekendOpen":"00:00","weekendClose":"23:59","holidayOpen":"00:00","holidayClose":"23:59","feeInfo":"기본 10분 100원 / 추가 10분당 100원","phone":"051-240-4555","updatedAt":"2025-11-10","sido":"부산광역시","sigungu":"서구","dong":"남부민동"},{"name":"남항체육공원","type":"공영","category":"노상","address":"부산광역시 서구 남부민동 523-28","lat":35.08537635,"lng":129.0264553,"totalSpaces":52,"isFree":false,"operatingDays":"평일+토요일+공휴일","weekdayOpen":"08:00","weekdayClose":"21:00","weekendOpen":"08:00","weekendClose":"21:00","holidayOpen":"08:00","holidayClose":"21:00","feeInfo":"기본 10분 100원 / 추가 10분당 100원","phone":"051-240-4513","updatedAt":"2025-11-10","sido":"부산광역시","sigungu":"서구","dong":"남부민동"},{"name":"암남동제8공영","type":"공영","category":"노상","address":"부산광역시 서구 암남동 614-5","lat":35.07219403,"lng":129.0164542,"totalSpaces":50,"isFree":false,"operatingDays":"평일+토요일+공휴일","weekdayOpen":"11:00","weekdayClose":"23:00","weekendOpen":"11:00","weekendClose":"23:00","holidayOpen":"11:00","holidayClose":"23:00","feeInfo":"기본 10분 300원 / 추가 10분당 300원","phone":"051-240-4555","updatedAt":"2025-11-10","sido":"부산광역시","sigungu":"서구","dong":"암남동"},{"name":"등대로공영","type":"공영","category":"노상","address":"부산광역시 서구 암남동 123-37","lat":35.08086932,"lng":129.0249644,"totalSpaces":49,"isFree":false,"operatingDays":"평일+토요일+공휴일","weekdayOpen":"08:00","weekdayClose":"21:00","weekendOpen":"08:00","weekendClose":"21:00","holidayOpen":"08:00","holidayClose":"21:00","feeInfo":"기본 10분 100원 / 추가 10분당 100원","phone":"051-240-4555","updatedAt":"2025-11-10","sido":"부산광역시","sigungu":"서구","dong":"암남동"},{"name":"송도공영","type":"공영","category":"노외","address":"부산광역시 서구 암남동 579","lat":35.07374199,"lng":129.0157119,"totalSpaces":49,"isFree":false,"operatingDays":"평일+토요일+공휴일","weekdayOpen":"00:00","weekdayClose":"23:59","weekendOpen":"00:00","weekendClose":"23:59","holidayOpen":"00:00","holidayClose":"23:59","feeInfo":"기본 10분 300원 / 추가 10분당 300원","phone":"051-240-4512","updatedAt":"2025-11-10","sido":"부산광역시","sigungu":"서구","dong":"암남동"},{"name":"암남동제10공영","type":"공영","category":"노상","address":"부산광역시 서구 암남동 95-13","lat":35.08060134,"lng":129.0243117,"totalSpaces":46,"isFree":false,"operatingDays":"평일+토요일","weekdayOpen":"08:00","weekdayClose":"21:00","weekendOpen":"08:00","weekendClose":"21:00","holidayOpen":"00:00","holidayClose":"00:00","feeInfo":"기본 10분 300원 / 추가 10분당 300원","phone":"051-240-4555","updatedAt":"2025-11-10","sido":"부산광역시","sigungu":"서구","dong":"암남동"},{"name":"등대시장공영","type":"공영","category":"노외","address":"부산광역시 서구 남부민동 632-1","lat":35.08429018,"lng":129.0227413,"totalSpaces":44,"isFree":false,"operatingDays":"평일+토요일+공휴일","weekdayOpen":"00:00","weekdayClose":"23:59","weekendOpen":"00:00","weekendClose":"23:59","holidayOpen":"00:00","holidayClose":"23:59","feeInfo":"기본 10분 100원 / 추가 10분당 100원","phone":"051-240-4512","updatedAt":"2025-11-10","sido":"부산광역시","sigungu":"서구","dong":"남부민동"},{"name":"초장동제1공영","type":"공영","category":"노상","address":"부산광역시 서구 초장동 128-28","lat":35.09296243,"lng":129.018806,"totalSpaces":36,"isFree":false,"operatingDays":"평일+토요일","weekdayOpen":"07:00","weekdayClose":"20:00","weekendOpen":"07:00","weekendClose":"20:00","holidayOpen":"00:00","holidayClose":"00:00","feeInfo":"기본 10분 100원 / 추가 10분당 100원","phone":"051-240-4555","updatedAt":"2025-11-10","sido":"부산광역시","sigungu":"서구","dong":"초장동"},{"name":"암남동제5공영","type":"공영","category":"노상","address":"부산광역시 서구 암남동 123-50","lat":35.07754461,"lng":129.0246254,"totalSpaces":33,"isFree":false,"operatingDays":"평일+토요일+공휴일","weekdayOpen":"10:00","weekdayClose":"22:00","weekendOpen":"10:00","weekendClose":"22:00","holidayOpen":"10:00","holidayClose":"22:00","feeInfo":"기본 10분 300원 / 추가 10분당 300원","phone":"051-240-4555","updatedAt":"2025-11-10","sido":"부산광역시","sigungu":"서구","dong":"암남동"},{"name":"암남동제2공영","type":"공영","category":"노상","address":"부산광역시 서구 암남동 135-8","lat":35.07247828,"lng":129.0169719,"totalSpaces":31,"isFree":false,"operatingDays":"평일+토요일+공휴일","weekdayOpen":"11:00","weekdayClose":"23:00","weekendOpen":"11:00","weekendClose":"23:00","holidayOpen":"11:00","holidayClose":"23:00","feeInfo":"기본 10분 300원 / 추가 10분당 300원","phone":"051-240-4555","updatedAt":"2025-11-10","sido":"부산광역시","sigungu":"서구","dong":"암남동"},{"name":"부민동제2공영","type":"공영","category":"노외","address":"부산광역시 서구 부민동3가 36-1","lat":35.10334257,"lng":129.0177433,"totalSpaces":30,"isFree":false,"operatingDays":"평일+토요일+공휴일","weekdayOpen":"00:00","weekdayClose":"23:59","weekendOpen":"00:00","weekendClose":"23:59","holidayOpen":"00:00","holidayClose":"23:59","feeInfo":"기본 10분 100원 / 추가 10분당 100원","phone":"051-240-4512","updatedAt":"2025-11-10","sido":"부산광역시","sigungu":"서구","dong":"부민동3가"},{"name":"암남동제1공영","type":"공영","category":"노상","address":"부산광역시 서구 암남동 135-2","lat":35.076124,"lng":129.0227267,"totalSpaces":30,"isFree":false,"operatingDays":"평일+토요일+공휴일","weekdayOpen":"10:00","weekdayClose":"22:00","weekendOpen":"10:00","weekendClose":"22:00","holidayOpen":"10:00","holidayClose":"22:00","feeInfo":"기본 10분 300원 / 추가 10분당 300원","phone":"051-240-4555","updatedAt":"2025-11-10","sido":"부산광역시","sigungu":"서구","dong":"암남동"},{"name":"암남동제7공영","type":"공영","category":"노상","address":"부산광역시 서구 암남동 537-4","lat":35.07549432,"lng":129.0161189,"totalSpaces":28,"isFree":false,"operatingDays":"평일+토요일+공휴일","weekdayOpen":"11:00","weekdayClose":"23:00","weekendOpen":"11:00","weekendClose":"23:00","holidayOpen":"11:00","holidayClose":"23:00","feeInfo":"기본 10분 300원 / 추가 10분당 300원","phone":"051-240-4555","updatedAt":"2025-11-10","sido":"부산광역시","sigungu":"서구","dong":"암남동"},{"name":"서구 원양로제2공영","type":"공영","category":"노상","address":"부산광역시 서구 암남동 633-2","lat":35.07181961,"lng":129.0071921,"totalSpaces":23,"isFree":false,"operatingDays":"평일+토요일","weekdayOpen":"07:00","weekdayClose":"20:00","weekendOpen":"07:00","weekendClose":"20:00","holidayOpen":"00:00","holidayClose":"00:00","feeInfo":"기본 10분 100원 / 추가 10분당 100원","phone":"051-240-4555","updatedAt":"2025-11-10","sido":"부산광역시","sigungu":"서구","dong":"암남동"},{"name":"서대4제3공영","type":"공영","category":"노상","address":"부산광역시 서구 서대신동3가 7-5","lat":35.12769905,"lng":129.0071508,"totalSpaces":22,"isFree":false,"operatingDays":"평일+토요일+공휴일","weekdayOpen":"08:00","weekdayClose":"21:00","weekendOpen":"08:00","weekendClose":"21:00","holidayOpen":"08:00","holidayClose":"21:00","feeInfo":"기본 10분 100원 / 추가 10분당 100원","phone":"051-240-4555","updatedAt":"2025-11-10","sido":"부산광역시","sigungu":"서구","dong":"서대신동3가"},{"name":"시약로공영","type":"공영","category":"노외","address":"부산광역시 서구 서대신동3가 92","lat":35.11864534,"lng":129.0135839,"totalSpaces":20,"isFree":false,"operatingDays":"평일+토요일+공휴일","weekdayOpen":"00:00","weekdayClose":"23:59","weekendOpen":"00:00","weekendClose":"23:59","holidayOpen":"00:00","holidayClose":"23:59","feeInfo":"기본 10분 100원 / 추가 10분당 100원","phone":"051-240-4512","updatedAt":"2025-11-10","sido":"부산광역시","sigungu":"서구","dong":"서대신동3가"},{"name":"서대4제1공영","type":"공영","category":"노상","address":"부산광역시 서구 서대신동3가 산2-6","lat":35.12113658,"lng":129.015146,"totalSpaces":19,"isFree":false,"operatingDays":"평일+토요일","weekdayOpen":"07:00","weekdayClose":"20:00","weekendOpen":"07:00","weekendClose":"20:00","holidayOpen":"00:00","holidayClose":"00:00","feeInfo":"기본 10분 100원 / 추가 10분당 100원","phone":"051-240-4555","updatedAt":"2025-11-10","sido":"부산광역시","sigungu":"서구","dong":"서대신동3가"},{"name":"부민동제4공영","type":"공영","category":"노상","address":"부산광역시 서구 부용동1가 66-1","lat":35.10541463,"lng":129.0210272,"totalSpaces":15,"isFree":false,"operatingDays":"평일+토요일+공휴일","weekdayOpen":"08:00","weekdayClose":"21:00","weekendOpen":"08:00","weekendClose":"21:00","holidayOpen":"08:00","holidayClose":"21:00","feeInfo":"기본 10분 300원 / 추가 10분당 300원","phone":"051-240-4555","updatedAt":"2025-11-10","sido":"부산광역시","sigungu":"서구","dong":"부용동1가"},{"name":"동대1제4공영","type":"공영","category":"노상","address":"부산광역시 서구 동대신동1가 9-48","lat":35.11198516,"lng":129.024565,"totalSpaces":15,"isFree":false,"operatingDays":"평일+토요일","weekdayOpen":"09:00","weekdayClose":"22:00","weekendOpen":"09:00","weekendClose":"22:00","holidayOpen":"00:00","holidayClose":"00:00","feeInfo":"기본 10분 100원 / 추가 10분당 100원","phone":"051-240-4555","updatedAt":"2025-11-10","sido":"부산광역시","sigungu":"서구","dong":"동대신동1가"},{"name":"남부민1동제1공영","type":"공영","category":"노상","address":"부산광역시 서구 남부민동 695-2","lat":35.09097518,"lng":129.0250696,"totalSpaces":14,"isFree":false,"operatingDays":"평일+토요일","weekdayOpen":"06:00","weekdayClose":"18:00","weekendOpen":"06:00","weekendClose":"18:00","holidayOpen":"00:00","holidayClose":"00:00","feeInfo":"기본 10분 300원 / 추가 10분당 300원","phone":"051-240-4555","updatedAt":"2025-11-10","sido":"부산광역시","sigungu":"서구","dong":"남부민동"},{"name":"남부민2동제3공영","type":"공영","category":"노상","address":"부산광역시 서구 남부민동 705","lat":35.08483806,"lng":129.025797,"totalSpaces":14,"isFree":false,"operatingDays":"평일+토요일","weekdayOpen":"07:00","weekdayClose":"20:00","weekendOpen":"07:00","weekendClose":"20:00","holidayOpen":"00:00","holidayClose":"00:00","feeInfo":"기본 10분 300원 / 추가 10분당 300원","phone":"051-240-4555","updatedAt":"2025-11-10","sido":"부산광역시","sigungu":"서구","dong":"남부민동"},{"name":"충무동제5공영","type":"공영","category":"노상","address":"부산광역시 서구 토성동1가 8-1","lat":35.09999115,"lng":129.0239548,"totalSpaces":13,"isFree":false,"operatingDays":"평일+토요일","weekdayOpen":"08:00","weekdayClose":"21:00","weekendOpen":"08:00","weekendClose":"21:00","holidayOpen":"00:00","holidayClose":"00:00","feeInfo":"기본 10분 300원 / 추가 10분당 300원","phone":"051-240-4555","updatedAt":"2025-11-10","sido":"부산광역시","sigungu":"서구","dong":"토성동1가"},{"name":"남부민2동제1공영","type":"공영","category":"노상","address":"부산광역시 서구 남부민동 705","lat":35.08483806,"lng":129.025797,"totalSpaces":13,"isFree":false,"operatingDays":"평일+토요일+공휴일","weekdayOpen":"09:00","weekdayClose":"22:00","weekendOpen":"09:00","weekendClose":"22:00","holidayOpen":"09:00","holidayClose":"22:00","feeInfo":"기본 10분 300원 / 추가 10분당 300원","phone":"051-240-4555","updatedAt":"2025-11-10","sido":"부산광역시","sigungu":"서구","dong":"남부민동"},{"name":"충무동골목시장공영","type":"공영","category":"노외","address":"부산광역시 서구 충무동1가 37-1","lat":35.09439676,"lng":129.0238831,"totalSpaces":12,"isFree":false,"operatingDays":"평일+토요일+공휴일","weekdayOpen":"00:00","weekdayClose":"23:59","weekendOpen":"00:00","weekendClose":"23:59","holidayOpen":"00:00","holidayClose":"23:59","feeInfo":"기본 10분 300원 / 추가 10분당 300원","phone":"051-240-4512","updatedAt":"2025-11-10","sido":"부산광역시","sigungu":"서구","dong":"충무동1가"},{"name":"충무동제2공영","type":"공영","category":"노상","address":"부산광역시 서구 토성동3가 32","lat":35.10070591,"lng":129.0197881,"totalSpaces":12,"isFree":false,"operatingDays":"평일+토요일","weekdayOpen":"08:00","weekdayClose":"21:00","weekendOpen":"08:00","weekendClose":"21:00","holidayOpen":"00:00","holidayClose":"00:00","feeInfo":"기본 10분 300원 / 추가 10분당 300원","phone":"051-240-4555","updatedAt":"2025-11-10","sido":"부산광역시","sigungu":"서구","dong":"토성동3가"},{"name":"서대4제2공영","type":"공영","category":"노상","address":"부산광역시 서구 서대신동3가 147-45","lat":35.11811565,"lng":129.0119306,"totalSpaces":12,"isFree":false,"operatingDays":"평일+토요일","weekdayOpen":"08:00","weekdayClose":"21:00","weekendOpen":"08:00","weekendClose":"21:00","holidayOpen":"00:00","holidayClose":"00:00","feeInfo":"기본 10분 100원 / 추가 10분당 100원","phone":"051-240-4555","updatedAt":"2025-11-10","sido":"부산광역시","sigungu":"서구","dong":"서대신동3가"},{"name":"동대2제1공영","type":"공영","category":"노상","address":"부산광역시 서구 동대신동2가 452-4","lat":35.11168679,"lng":129.020888,"totalSpaces":11,"isFree":false,"operatingDays":"평일+토요일","weekdayOpen":"08:00","weekdayClose":"21:00","weekendOpen":"08:00","weekendClose":"21:00","holidayOpen":"00:00","holidayClose":"00:00","feeInfo":"기본 10분 300원 / 추가 10분당 300원","phone":"051-240-4555","updatedAt":"2025-11-10","sido":"부산광역시","sigungu":"서구","dong":"동대신동2가"},{"name":"아미제2공영","type":"공영","category":"노상","address":"부산광역시 서구 아미동1가 1","lat":35.10142254,"lng":129.0187487,"totalSpaces":11,"isFree":false,"operatingDays":"평일+토요일","weekdayOpen":"08:00","weekdayClose":"21:00","weekendOpen":"08:00","weekendClose":"21:00","holidayOpen":"00:00","holidayClose":"00:00","feeInfo":"기본 10분 300원 / 추가 10분당 300원","phone":"051-240-4555","updatedAt":"2025-11-10","sido":"부산광역시","sigungu":"서구","dong":"아미동1가"},{"name":"남부민2동제2공영","type":"공영","category":"노상","address":"부산광역시 서구 남부민동 692-2","lat":35.08663694,"lng":129.0256069,"totalSpaces":11,"isFree":false,"operatingDays":"평일+토요일","weekdayOpen":"06:00","weekdayClose":"18:00","weekendOpen":"06:00","weekendClose":"18:00","holidayOpen":"00:00","holidayClose":"00:00","feeInfo":"기본 10분 300원 / 추가 10분당 300원","phone":"051-240-4555","updatedAt":"2025-11-10","sido":"부산광역시","sigungu":"서구","dong":"남부민동"},{"name":"충무동제7공영","type":"공영","category":"노상","address":"부산광역시 서구 충무동1가 43-1","lat":35.09594124,"lng":129.0261031,"totalSpaces":8,"isFree":false,"operatingDays":"평일+토요일+공휴일","weekdayOpen":"08:00","weekdayClose":"21:00","weekendOpen":"08:00","weekendClose":"21:00","holidayOpen":"08:00","holidayClose":"21:00","feeInfo":"기본 10분 300원 / 추가 10분당 300원","phone":"051-240-4555","updatedAt":"2025-11-10","sido":"부산광역시","sigungu":"서구","dong":"충무동1가"}]}