{"sido":"부산광역시","sigungu":"연제구","totalCount":12,"validCount":12,"items":[{"name":"연산3동 금련 공영주차장","type":"공영","category":"노외","address":"부산광역시 연제구 금련로38번길 50","lat":35.17162666,"lng":129.094771,"totalSpaces":127,"isFree":false,"operatingDays":"평일+토요일+공휴일","weekdayOpen":"00:00","weekdayClose":"23:59","weekendOpen":"00:00","weekendClose":"23:59","holidayOpen":"00:00","holidayClose":"23:59","feeInfo":"기본 10분 100원","phone":"051-665-5032","updatedAt":"2025-12-31","sido":"부산광역시","sigungu":"연제구","dong":"연산동"},{"name":"한양아파트 앞 공영주차장","type":"공영","category":"노상","address":"부산광역시 연제구 온천천남로 110","lat":35.19075907,"lng":129.100628,"totalSpaces":69,"isFree":false,"operatingDays":"평일+토요일+공휴일","weekdayOpen":"00:00","weekdayClose":"23:59","weekendOpen":"00:00","weekendClose":"23:59","holidayOpen":"00:00","holidayClose":"23:59","feeInfo":"기본 10분 100원","phone":"051-665-5032","updatedAt":"2025-12-31","sido":"부산광역시","sigungu":"연제구","dong":"연산동"},{"name":"황금로 공영주차장","type":"공영","category":"노외","address":"부산광역시 연제구 금련로42번길 18","lat":35.17046555,"lng":129.095149,"totalSpaces":53,"isFree":false,"operatingDays":"평일+토요일+공휴일","weekdayOpen":"00:00","weekdayClose":"23:59","weekendOpen":"00:00","weekendClose":"23:59","holidayOpen":"00:00","holidayClose":"23:59","feeInfo":"기본 10분 100원","phone":"051-665-5032","updatedAt":"2025-12-31","sido":"부산광역시","sigungu":"연제구","dong":"연산동"},{"name":"과정 공영주차장","type":"공영","category":"노외","address":"부산광역시 연제구 연산동 1062-1","lat":35.18707007,"lng":129.098859,"totalSpaces":52,"isFree":false,"operatingDays":"평일+토요일+공휴일","weekdayOpen":"00:00","weekdayClose":"23:59","weekendOpen":"00:00","weekendClose":"23:59","holidayOpen":"00:00","holidayClose":"23:59","feeInfo":"기본 10분 100원","phone":"051-665-5032","updatedAt":"2025-12-31","sido":"부산광역시","sigungu":"연제구","dong":"연산동"},{"name":"연삼행복공영주차장","type":"공영","category":"노외","address":"부산광역시 연제구 연산동 1829","lat":35.17293313,"lng":129.0929105,"totalSpaces":44,"isFree":false,"operatingDays":"평일+토요일+공휴일","weekdayOpen":"00:00","weekdayClose":"23:59","weekendOpen":"00:00","weekendClose":"23:59","holidayOpen":"00:00","holidayClose":"23:59","feeInfo":"기본 10분 200원","phone":"051-665-5032","updatedAt":"2025-12-31","sido":"부산광역시","sigungu":"연제구","dong":"연산동"},{"name":"연미 공영주차장","type":"공영","category":"노외","address":"부산광역시 연제구 연수로 221","lat":35.17374136,"lng":129.095048,"totalSpaces":24,"isFree":false,"operatingDays":"평일+토요일+공휴일","weekdayOpen":"00:00","weekdayClose":"23:59","weekendOpen":"00:00","weekendClose":"23:59","holidayOpen":"00:00","holidayClose":"23:59","feeInfo":"기본 10분 200원","phone":"051-665-5032","updatedAt":"2025-12-31","sido":"부산광역시","sigungu":"연제구","dong":"연산동"},{"name":"연일 공영주차장","type":"공영","category":"노외","address":"부산광역시 연제구 고분로20번길 20-8","lat":35.18446948,"lng":129.084383,"totalSpaces":23,"isFree":false,"operatingDays":"평일+토요일+공휴일","weekdayOpen":"00:00","weekdayClose":"23:59","weekendOpen":"00:00","weekendClose":"23:59","holidayOpen":"00:00","holidayClose":"23:59","feeInfo":"기본 10분 100원","phone":"051-665-5032","updatedAt":"2025-12-31","sido":"부산광역시","sigungu":"연제구","dong":"연산동"},{"name":"태경선샤인아파트 앞 공영주차장","type":"공영","category":"노상","address":"부산광역시 연제구 중앙대로 1238","lat":35.19792748,"lng":129.079206,"totalSpaces":22,"isFree":false,"operatingDays":"평일+토요일+공휴일","weekdayOpen":"00:00","weekdayClose":"23:59","weekendOpen":"00:00","weekendClose":"23:59","holidayOpen":"00:00","holidayClose":"23:59","feeInfo":"기본 10분 100원","phone":"051-665-5032","updatedAt":"2025-12-31","sido":"부산광역시","sigungu":"연제구","dong":"거제동"},{"name":"한빛 공영주차장","type":"공영","category":"노외","address":"부산광역시 연제구 연동로8번길 45","lat":35.18905223,"lng":129.091121,"totalSpaces":21,"isFree":false,"operatingDays":"평일+토요일+공휴일","weekdayOpen":"00:00","weekdayClose":"23:59","weekendOpen":"00:00","weekendClose":"23:59","holidayOpen":"00:00","holidayClose":"23:59","feeInfo":"기본 10분 100원","phone":"051-665-5032","updatedAt":"2025-12-31","sido":"부산광역시","sigungu":"연제구","dong":"연산동"},{"name":"연제문화체육공원 공영주차장","type":"공영","category":"노외","address":"부산광역시 연제구 연산동 952-18","lat":35.18471436,"lng":129.090531,"totalSpaces":17,"isFree":false,"operatingDays":"평일+토요일+공휴일","weekdayOpen":"00:00","weekdayClose":"23:59","weekendOpen":"00:00","weekendClose":"23:59","holidayOpen":"00:00","holidayClose":"23:59","feeInfo":"기본 10분 100원","phone":"051-665-5032","updatedAt":"2025-12-31","sido":"부산광역시","sigungu":"연제구","dong":"연산동"},{"name":"해맞이 공영주차장","type":"공영","category":"노외","address":"부산광역시 연제구 거제동 625-11","lat":35.18323045,"lng":129.069733,"totalSpaces":14,"isFree":false,"operatingDays":"평일+토요일+공휴일","weekdayOpen":"00:00","weekdayClose":"23:59","weekendOpen":"00:00","weekendClose":"23:59","holidayOpen":"00:00","holidayClose":"23:59","feeInfo":"기본 10분 200원","phone":"051-665-5032","updatedAt":"2025-12-31","sido":"부산광역시","sigungu":"연제구","dong":"거제동"},{"name":"시티타워 뒤 공영주차장","type":"공영","category":"노상","address":"부산광역시 연제구 거제천로182번길 3","lat":35.189578,"lng":129.080157,"totalSpaces":11,"isFree":false,"operatingDays":"평일+토요일+공휴일","weekdayOpen":"00:00","weekdayClose":"23:59","weekendOpen":"00:00","weekendClose":"23:59","holidayOpen":"00:00","holidayClose":"23:59","feeInfo":"기본 10분 200원","phone":"051-665-5032","updatedAt":"2025-12-31","sido":"부산광역시","sigungu":"연제구","dong":"연산동"}]}