{"sido":"부산광역시","sigungu":"영도구","totalCount":30,"validCount":30,"items":[{"name":"태종대유원지부설주차장","type":"공영","category":"부설","address":"부산광역시 영도구 태종로 833번길 23","lat":35.062149,"lng":129.0820953,"totalSpaces":683,"isFree":false,"operatingDays":"평일+토요일+공휴일","weekdayOpen":"00:00","weekdayClose":"23:59","weekendOpen":"00:00","weekendClose":"23:59","holidayOpen":"00:00","holidayClose":"23:59","feeInfo":"기본 60분 1,000원 / 추가 10분당 200원","phone":"051-405-8745","updatedAt":"2025-04-10","sido":"부산광역시","sigungu":"영도구","dong":"동삼동"},{"name":"남항방파제","type":"공영","category":"노상","address":"부산광역시 영도구 남항서로 52","lat":35.08558483,"lng":129.034834,"totalSpaces":119,"isFree":false,"operatingDays":"평일+토요일+공휴일","weekdayOpen":"08:00","weekdayClose":"20:00","weekendOpen":"08:00","weekendClose":"20:00","holidayOpen":"08:00","holidayClose":"20:00","feeInfo":"기본 10분 200원 / 추가 10분당 200원","phone":"051-419-4555","updatedAt":"2025-05-19","sido":"부산광역시","sigungu":"영도구","dong":"남항동3가"},{"name":"절영해안산책로앞","type":"공영","category":"노상","address":"부산광역시 영도구 해안산책길 52","lat":35.0811807,"lng":129.0412093,"totalSpaces":102,"isFree":false,"operatingDays":"평일+토요일+공휴일","weekdayOpen":"08:00","weekdayClose":"20:00","weekendOpen":"08:00","weekendClose":"20:00","holidayOpen":"08:00","holidayClose":"20:00","feeInfo":"기본 10분 200원 / 추가 10분당 200원","phone":"051-419-4555","updatedAt":"2025-05-19","sido":"부산광역시","sigungu":"영도구","dong":"영선동4가"},{"name":"하수종말처리장옆","type":"공영","category":"노상","address":"부산광역시 영도구 해양로 248","lat":35.0855703727,"lng":129.0756495223,"totalSpaces":66,"isFree":false,"operatingDays":"평일+토요일+공휴일","weekdayOpen":"08:00","weekdayClose":"20:00","weekendOpen":"08:00","weekendClose":"20:00","holidayOpen":"08:00","holidayClose":"20:00","feeInfo":"기본 10분 300원 / 추가 10분당 300원","phone":"051-419-4555","updatedAt":"2025-05-19","sido":"부산광역시","sigungu":"영도구","dong":"동삼동"},{"name":"남항시장","type":"공영","category":"노외","address":"부산광역시 영도구 절영로93번길 41","lat":35.08826833,"lng":129.0407422,"totalSpaces":66,"isFree":false,"operatingDays":"평일+토요일+공휴일","weekdayOpen":"00:00","weekdayClose":"23:59","weekendOpen":"00:00","weekendClose":"23:59","holidayOpen":"00:00","holidayClose":"23:59","feeInfo":"기본 10분 300원 / 추가 10분당 300원","phone":"051-419-4555","updatedAt":"2025-05-19","sido":"부산광역시","sigungu":"영도구","dong":"남항동2가"},{"name":"봉래산","type":"공영","category":"노외","address":"부산광역시 영도구 와치로78","lat":35.08595151,"lng":129.0596031,"totalSpaces":64,"isFree":false,"operatingDays":"평일+토요일+공휴일","weekdayOpen":"00:00","weekdayClose":"23:59","weekendOpen":"00:00","weekendClose":"23:59","holidayOpen":"00:00","holidayClose":"23:59","feeInfo":"기본 10분 100원 / 추가 10분당 100원","phone":"051-419-4555","updatedAt":"2025-05-19","sido":"부산광역시","sigungu":"영도구","dong":"청학동"},{"name":"중리산","type":"공영","category":"노외","address":"부산광역시 영도구 해양힐링로 136","lat":35.066674,"lng":129.0682515,"totalSpaces":62,"isFree":false,"operatingDays":"평일+토요일+공휴일","weekdayOpen":"00:00","weekdayClose":"23:59","weekendOpen":"00:00","weekendClose":"23:59","holidayOpen":"00:00","holidayClose":"23:59","feeInfo":"기본 10분 100원 / 추가 10분당 100원","phone":"051-419-4555","updatedAt":"2025-05-19","sido":"부산광역시","sigungu":"영도구","dong":"동삼동"},{"name":"청학하나","type":"공영","category":"노외","address":"부산광역시 영도구 청학서로 88","lat":35.09680071,"lng":129.0592793,"totalSpaces":57,"isFree":false,"operatingDays":"평일+토요일+공휴일","weekdayOpen":"00:00","weekdayClose":"23:59","weekendOpen":"00:00","weekendClose":"23:59","holidayOpen":"00:00","holidayClose":"23:59","feeInfo":"기본 10분 300원 / 추가 10분당 300원","phone":"051-419-4555","updatedAt":"2025-05-19","sido":"부산광역시","sigungu":"영도구","dong":"청학동"},{"name":"태종보세장치장옆","type":"공영","category":"노상","address":"부산광역시 영도구 해양로195번길 10","lat":35.088724587,"lng":129.0727985388,"totalSpaces":56,"isFree":false,"operatingDays":"평일+토요일+공휴일","weekdayOpen":"08:00","weekdayClose":"20:00","weekendOpen":"08:00","weekendClose":"20:00","holidayOpen":"08:00","holidayClose":"20:00","feeInfo":"기본 10분 100원 / 추가 10분당 100원","phone":"051-419-4555","updatedAt":"2025-05-19","sido":"부산광역시","sigungu":"영도구","dong":"동삼동"},{"name":"청학2동","type":"공영","category":"노외","address":"부산광역시 영도구 청학동로 18-1","lat":35.08920619,"lng":129.0622152,"totalSpaces":53,"isFree":false,"operatingDays":"평일+토요일+공휴일","weekdayOpen":"00:00","weekdayClose":"23:59","weekendOpen":"00:00","weekendClose":"23:59","holidayOpen":"00:00","holidayClose":"23:59","feeInfo":"기본 10분 100원 / 추가 10분당 100원","phone":"051-419-4555","updatedAt":"2025-05-19","sido":"부산광역시","sigungu":"영도구","dong":"청학동"},{"name":"신선스카이웨이","type":"공영","category":"노외","address":"부산광역시 영도구 산제당길 154","lat":35.086553,"lng":129.0483665,"totalSpaces":49,"isFree":false,"operatingDays":"평일+토요일+공휴일","weekdayOpen":"00:00","weekdayClose":"23:59","weekendOpen":"00:00","weekendClose":"23:59","holidayOpen":"00:00","holidayClose":"23:59","feeInfo":"기본 10분 100원 / 추가 10분당 100원","phone":"051-419-4555","updatedAt":"2025-05-19","sido":"부산광역시","sigungu":"영도구","dong":"신선동2가"},{"name":"봉래동물양장","type":"공영","category":"노상","address":"부산광역시 영도구 봉래나루로 79","lat":35.09453741,"lng":129.0387845,"totalSpaces":48,"isFree":false,"operatingDays":"평일+토요일+공휴일","weekdayOpen":"08:00","weekdayClose":"20:00","weekendOpen":"08:00","weekendClose":"20:00","holidayOpen":"08:00","holidayClose":"20:00","feeInfo":"기본 10분 300원 / 추가 10분당 300원","phone":"051-419-4555","updatedAt":"2025-05-19","sido":"부산광역시","sigungu":"영도구","dong":"봉래동1가"},{"name":"청학스카이웨이","type":"공영","category":"노외","address":"부산광역시 영도구 청학남로 15","lat":35.0902062,"lng":129.0593647,"totalSpaces":45,"isFree":false,"operatingDays":"평일+토요일+공휴일","weekdayOpen":"00:00","weekdayClose":"23:59","weekendOpen":"00:00","weekendClose":"23:59","holidayOpen":"00:00","holidayClose":"23:59","feeInfo":"기본 10분 100원 / 추가 10분당 100원","phone":"051-419-4555","updatedAt":"2025-05-19","sido":"부산광역시","sigungu":"영도구","dong":"청학동"},{"name":"신선하나","type":"공영","category":"노외","address":"부산광역시 영도구 한결길 209","lat":35.09054756,"lng":129.0477633,"totalSpaces":42,"isFree":false,"operatingDays":"평일+토요일+공휴일","weekdayOpen":"00:00","weekdayClose":"23:59","weekendOpen":"00:00","weekendClose":"23:59","holidayOpen":"00:00","holidayClose":"23:59","feeInfo":"기본 10분 100원 / 추가 10분당 100원","phone":"051-419-4555","updatedAt":"2025-05-19","sido":"부산광역시","sigungu":"영도구","dong":"신선동1가"},{"name":"청학1동","type":"공영","category":"노외","address":"부산광역시 영도구 봉래길 191","lat":35.09140058,"lng":129.056113,"totalSpaces":40,"isFree":false,"operatingDays":"평일+토요일+공휴일","weekdayOpen":"00:00","weekdayClose":"23:59","weekendOpen":"00:00","weekendClose":"23:59","holidayOpen":"00:00","holidayClose":"23:59","feeInfo":"기본 10분 100원 / 추가 10분당 100원","phone":"051-419-4555","updatedAt":"2025-05-19","sido":"부산광역시","sigungu":"영도구","dong":"청학동"},{"name":"블루포트2021","type":"공영","category":"노외","address":"부산광역시 영도구 봉래나루로 138","lat":35.095588,"lng":129.041131,"totalSpaces":30,"isFree":false,"operatingDays":"평일+토요일+공휴일","weekdayOpen":"00:00","weekdayClose":"23:59","weekendOpen":"00:00","weekendClose":"23:59","holidayOpen":"00:00","holidayClose":"23:59","feeInfo":"기본 10분 300원 / 추가 10분당 300원","phone":"051-419-4555","updatedAt":"2025-05-19","sido":"부산광역시","sigungu":"영도구","dong":"봉래동1가"},{"name":"영도해녀문화전시관","type":"공영","category":"노외","address":"부산광역시 영도구 중리남로 2-36","lat":35.06773357,"lng":129.0657989,"totalSpaces":28,"isFree":false,"operatingDays":"평일+토요일+공휴일","weekdayOpen":"00:00","weekdayClose":"23:59","weekendOpen":"00:00","weekendClose":"23:59","holidayOpen":"00:00","holidayClose":"23:59","feeInfo":"기본 10분 100원 / 추가 10분당 100원","phone":"051-419-4555","updatedAt":"2025-05-19","sido":"부산광역시","sigungu":"영도구","dong":"동삼동"},{"name":"하늘전망대앞","type":"공영","category":"노상","address":"부산광역시 영도구 절영로 321","lat":35.07447027,"lng":129.0541446,"totalSpaces":28,"isFree":false,"operatingDays":"평일+토요일+공휴일","weekdayOpen":"08:00","weekdayClose":"20:00","weekendOpen":"08:00","weekendClose":"20:00","holidayOpen":"08:00","holidayClose":"20:00","feeInfo":"기본 10분 100원 / 추가 10분당 100원","phone":"051-419-4555","updatedAt":"2025-05-19","sido":"부산광역시","sigungu":"영도구","dong":"동삼동"},{"name":"청학시장","type":"공영","category":"노외","address":"부산광역시 영도구 청학서로 88","lat":35.0968306,"lng":129.0592136,"totalSpaces":26,"isFree":false,"operatingDays":"평일+토요일+공휴일","weekdayOpen":"00:00","weekdayClose":"23:59","weekendOpen":"00:00","weekendClose":"23:59","holidayOpen":"00:00","holidayClose":"23:59","feeInfo":"기본 10분 100원 / 추가 10분당 100원","phone":"051-419-4555","updatedAt":"2025-05-19","sido":"부산광역시","sigungu":"영도구","dong":"청학동"},{"name":"선용품유통센터앞","type":"공영","category":"노상","address":"부산광역시 영도구 남항로 26","lat":35.08909927,"lng":129.0392675,"totalSpaces":26,"isFree":false,"operatingDays":"평일+토요일+공휴일","weekdayOpen":"08:00","weekdayClose":"20:00","weekendOpen":"08:00","weekendClose":"20:00","holidayOpen":"08:00","holidayClose":"20:00","feeInfo":"기본 10분 300원 / 추가 10분당 300원","phone":"051-419-4555","updatedAt":"2025-05-19","sido":"부산광역시","sigungu":"영도구","dong":"남항동2가"},{"name":"인제병원앞","type":"공영","category":"노상","address":"부산광역시 영도구 절영로7번길","lat":35.0947933,"lng":129.0413566,"totalSpaces":25,"isFree":false,"operatingDays":"평일+토요일+공휴일","weekdayOpen":"08:00","weekdayClose":"20:00","weekendOpen":"08:00","weekendClose":"20:00","holidayOpen":"08:00","holidayClose":"20:00","feeInfo":"기본 10분 300원 / 추가 10분당 300원","phone":"051-419-4555","updatedAt":"2025-05-19","sido":"부산광역시","sigungu":"영도구","dong":"봉래동1가"},{"name":"토토볼링장앞","type":"공영","category":"노상","address":"부산광역시 영도구 대평남로 7","lat":35.08990647,"lng":129.0357324,"totalSpaces":24,"isFree":false,"operatingDays":"평일+토요일+공휴일","weekdayOpen":"08:00","weekdayClose":"20:00","weekendOpen":"08:00","weekendClose":"20:00","holidayOpen":"08:00","holidayClose":"20:00","feeInfo":"기본 10분 300원 / 추가 10분당 300원","phone":"051-419-4555","updatedAt":"2025-05-19","sido":"부산광역시","sigungu":"영도구","dong":"대평동1가"},{"name":"봉래시장","type":"공영","category":"노외","address":"부산광역시 영도구 대교로 9","lat":35.09272002,"lng":129.0438271,"totalSpaces":23,"isFree":false,"operatingDays":"평일+토요일+공휴일","weekdayOpen":"00:00","weekdayClose":"23:59","weekendOpen":"00:00","weekendClose":"23:59","holidayOpen":"00:00","holidayClose":"23:59","feeInfo":"기본 10분 300원 / 추가 10분당 300원","phone":"051-419-4555","updatedAt":"2025-05-19","sido":"부산광역시","sigungu":"영도구","dong":"봉래동3가"},{"name":"청학동로","type":"공영","category":"노외","address":"부산광역시 영도구 청학동로 58","lat":35.09243615,"lng":129.0634763,"totalSpaces":22,"isFree":false,"operatingDays":"평일+토요일+공휴일","weekdayOpen":"00:00","weekdayClose":"23:59","weekendOpen":"00:00","weekendClose":"23:59","holidayOpen":"00:00","holidayClose":"23:59","feeInfo":"기본 10분 100원 / 추가 10분당 100원","phone":"051-419-4555","updatedAt":"2025-05-19","sido":"부산광역시","sigungu":"영도구","dong":"청학동"},{"name":"해돋이마을","type":"공영","category":"노외","address":"부산광역시 영도구 와치로 2-14","lat":35.0904128,"lng":129.0568423,"totalSpaces":22,"isFree":false,"operatingDays":"평일+토요일+공휴일","weekdayOpen":"00:00","weekdayClose":"23:59","weekendOpen":"00:00","weekendClose":"23:59","holidayOpen":"00:00","holidayClose":"23:59","feeInfo":"기본 10분 100원 / 추가 10분당 100원","phone":"051-419-4555","updatedAt":"2025-05-19","sido":"부산광역시","sigungu":"영도구","dong":"청학동"},{"name":"해양로변","type":"공영","category":"노상","address":"부산광역시 영도구 해양로 155","lat":35.09221782,"lng":129.0704607,"totalSpaces":22,"isFree":false,"operatingDays":"평일+토요일+공휴일","weekdayOpen":"08:00","weekdayClose":"20:00","weekendOpen":"08:00","weekendClose":"20:00","holidayOpen":"08:00","holidayClose":"20:00","feeInfo":"기본 10분 100원 / 추가 10분당 100원","phone":"051-419-4555","updatedAt":"2025-05-19","sido":"부산광역시","sigungu":"영도구","dong":"청학동"},{"name":"영도중학교옆","type":"공영","category":"노외","address":"부산광역시 영도구 동삼남로 32","lat":35.077534,"lng":129.0692786,"totalSpaces":20,"isFree":false,"operatingDays":"평일+토요일+공휴일","weekdayOpen":"00:00","weekdayClose":"23:59","weekendOpen":"00:00","weekendClose":"23:59","holidayOpen":"00:00","holidayClose":"23:59","feeInfo":"기본 10분 100원 / 추가 10분당 100원","phone":"051-419-4555","updatedAt":"2025-05-19","sido":"부산광역시","sigungu":"영도구","dong":"동삼동"},{"name":"유정아파트","type":"공영","category":"노외","address":"부산광역시 영도구 장미계단길 123","lat":35.09266318,"lng":129.0552642,"totalSpaces":20,"isFree":false,"operatingDays":"평일+토요일+공휴일","weekdayOpen":"00:00","weekdayClose":"23:59","weekendOpen":"00:00","weekendClose":"23:59","holidayOpen":"00:00","holidayClose":"23:59","feeInfo":"기본 10분 100원 / 추가 10분당 100원","phone":"051-419-4555","updatedAt":"2025-05-19","sido":"부산광역시","sigungu":"영도구","dong":"봉래동5가"},{"name":"75광장앞","type":"공영","category":"노상","address":"부산광역시 영도구 절영로 355","lat":35.0716713,"lng":129.0573621,"totalSpaces":19,"isFree":false,"operatingDays":"평일+토요일+공휴일","weekdayOpen":"08:00","weekdayClose":"20:00","weekendOpen":"08:00","weekendClose":"20:00","holidayOpen":"08:00","holidayClose":"20:00","feeInfo":"기본 10분 100원 / 추가 10분당 100원","phone":"051-419-4555","updatedAt":"2025-05-19","sido":"부산광역시","sigungu":"영도구","dong":"동삼동"},{"name":"신선동","type":"공영","category":"노외","address":"부산광역시 영도구 하나길 472","lat":35.08705315,"lng":129.046782,"totalSpaces":19,"isFree":false,"operatingDays":"평일+토요일+공휴일","weekdayOpen":"00:00","weekdayClose":"23:59","weekendOpen":"00:00","weekendClose":"23:59","holidayOpen":"00:00","holidayClose":"23:59","feeInfo":"기본 10분 100원 / 추가 10분당 100원","phone":"051-419-4555","updatedAt":"2025-05-19","sido":"부산광역시","sigungu":"영도구","dong":"신선동2가"}]}