{"sido":"경상북도","sigungu":"고령군","totalCount":40,"validCount":40,"items":[{"name":"지산리(대가야시장) 공영주차장","type":"공영","category":"노외","address":"경상북도 고령군 대가야읍 지산리 232-4","lat":35.72568531,"lng":128.2661258,"totalSpaces":104,"isFree":true,"operatingDays":"평일+토요일+공휴일","weekdayOpen":"00:00","weekdayClose":"23:59","weekendOpen":"00:00","weekendClose":"23:59","holidayOpen":"00:00","holidayClose":"23:59","feeInfo":"무료","phone":"054-950-6593","updatedAt":"2025-12-25","sido":"경상북도","sigungu":"고령군","dong":"대가야읍"},{"name":"모산골 공영주차장","type":"공영","category":"노외","address":"경상북도 고령군 대가야읍 지산리 45","lat":35.72771639,"lng":128.2620705,"totalSpaces":90,"isFree":true,"operatingDays":"평일+토요일+공휴일","weekdayOpen":"00:00","weekdayClose":"23:59","weekendOpen":"00:00","weekendClose":"23:59","holidayOpen":"00:00","holidayClose":"23:59","feeInfo":"무료","phone":"054-950-6593","updatedAt":"2025-12-25","sido":"경상북도","sigungu":"고령군","dong":"대가야읍"},{"name":"다산 공영주차장","type":"공영","category":"노외","address":"경상북도 고령군 다산면 상곡리 175-1","lat":35.82455212,"lng":128.4486152,"totalSpaces":84,"isFree":true,"operatingDays":"평일+토요일+공휴일","weekdayOpen":"00:00","weekdayClose":"23:59","weekendOpen":"00:00","weekendClose":"23:59","holidayOpen":"00:00","holidayClose":"23:59","feeInfo":"무료","phone":"054-950-6593","updatedAt":"2025-12-25","sido":"경상북도","sigungu":"고령군","dong":"다산면"},{"name":"문화의거리 공영주차장","type":"공영","category":"노외","address":"경상북도 고령군 대가야읍 지산리 232-6","lat":35.7251709042,"lng":128.2656857,"totalSpaces":60,"isFree":true,"operatingDays":"평일+토요일+공휴일","weekdayOpen":"00:00","weekdayClose":"23:59","weekendOpen":"00:00","weekendClose":"23:59","holidayOpen":"00:00","holidayClose":"23:59","feeInfo":"무료","phone":"054-950-6593","updatedAt":"2025-12-25","sido":"경상북도","sigungu":"고령군","dong":"대가야읍"},{"name":"지산3리(큰골) 공영주차장","type":"공영","category":"노외","address":"경상북도 고령군 대가야읍 지산리 610-1","lat":35.72133937,"lng":128.2528394,"totalSpaces":57,"isFree":true,"operatingDays":"평일+토요일+공휴일","weekdayOpen":"00:00","weekdayClose":"23:59","weekendOpen":"00:00","weekendClose":"23:59","holidayOpen":"00:00","holidayClose":"23:59","feeInfo":"무료","phone":"054-950-6593","updatedAt":"2025-12-25","sido":"경상북도","sigungu":"고령군","dong":"대가야읍"},{"name":"고아리 공영주차장","type":"공영","category":"노외","address":"경상북도 고령군 대가야읍 고아리 130-2","lat":35.72499185,"lng":128.2681594,"totalSpaces":54,"isFree":true,"operatingDays":"평일+토요일+공휴일","weekdayOpen":"00:00","weekdayClose":"23:59","weekendOpen":"00:00","weekendClose":"23:59","holidayOpen":"00:00","holidayClose":"23:59","feeInfo":"무료","phone":"054-950-6593","updatedAt":"2025-12-25","sido":"경상북도","sigungu":"고령군","dong":"대가야읍"},{"name":"고아리 제2공영주차장","type":"공영","category":"노외","address":"경상북도 고령군 대가야읍 고아리 259-1","lat":35.71965713,"lng":128.2715879,"totalSpaces":42,"isFree":true,"operatingDays":"평일+토요일+공휴일","weekdayOpen":"00:00","weekdayClose":"23:59","weekendOpen":"00:00","weekendClose":"23:59","holidayOpen":"00:00","holidayClose":"23:59","feeInfo":"무료","phone":"054-950-6593","updatedAt":"2025-12-25","sido":"경상북도","sigungu":"고령군","dong":"대가야읍"},{"name":"가륜리 공영주차장","type":"공영","category":"노외","address":"경상북도 고령군 덕곡면 가륜리 229-1","lat":35.79260002,"lng":128.2114261,"totalSpaces":40,"isFree":true,"operatingDays":"평일+토요일+공휴일","weekdayOpen":"00:00","weekdayClose":"23:59","weekendOpen":"00:00","weekendClose":"23:59","holidayOpen":"00:00","holidayClose":"23:59","feeInfo":"무료","phone":"054-950-6593","updatedAt":"2025-12-25","sido":"경상북도","sigungu":"고령군","dong":"덕곡면"},{"name":"지산리 제1공영주차장","type":"공영","category":"노외","address":"경상북도 고령군 대가야읍 지산리 27","lat":35.72731692,"lng":128.2644802,"totalSpaces":40,"isFree":true,"operatingDays":"평일+토요일+공휴일","weekdayOpen":"00:00","weekdayClose":"23:59","weekendOpen":"00:00","weekendClose":"23:59","holidayOpen":"00:00","holidayClose":"23:59","feeInfo":"무료","phone":"054-950-6593","updatedAt":"2025-12-25","sido":"경상북도","sigungu":"고령군","dong":"대가야읍"},{"name":"평리리 제2공영주차장","type":"공영","category":"노외","address":"경상북도 고령군 다산면 평리리 257-18","lat":35.82489464,"lng":128.452596,"totalSpaces":37,"isFree":true,"operatingDays":"평일+토요일+공휴일","weekdayOpen":"00:00","weekdayClose":"23:59","weekendOpen":"00:00","weekendClose":"23:59","holidayOpen":"00:00","holidayClose":"23:59","feeInfo":"무료","phone":"054-950-6593","updatedAt":"2025-12-25","sido":"경상북도","sigungu":"고령군","dong":"다산면"},{"name":"고아리 제1공영주차장","type":"공영","category":"노외","address":"경상북도 고령군 대가야읍 고아리 127-1","lat":35.72719599,"lng":128.2697926,"totalSpaces":36,"isFree":true,"operatingDays":"평일+토요일+공휴일","weekdayOpen":"00:00","weekdayClose":"23:59","weekendOpen":"00:00","weekendClose":"23:59","holidayOpen":"00:00","holidayClose":"23:59","feeInfo":"무료","phone":"054-950-6593","updatedAt":"2025-12-25","sido":"경상북도","sigungu":"고령군","dong":"대가야읍"},{"name":"헌문리 공영주차장","type":"공영","category":"노외","address":"경상북도 고령군 대가야읍 헌문리 17-6","lat":35.7430529,"lng":128.2751752,"totalSpaces":34,"isFree":true,"operatingDays":"평일+토요일+공휴일","weekdayOpen":"00:00","weekdayClose":"23:59","weekendOpen":"00:00","weekendClose":"23:59","holidayOpen":"00:00","holidayClose":"23:59","feeInfo":"무료","phone":"054-950-6593","updatedAt":"2025-12-25","sido":"경상북도","sigungu":"고령군","dong":"대가야읍"},{"name":"반운리 공영주차장","type":"공영","category":"노외","address":"경상북도 고령군 개진면 반운리 344","lat":35.71068589,"lng":128.3078024,"totalSpaces":32,"isFree":true,"operatingDays":"평일+토요일+공휴일","weekdayOpen":"00:00","weekdayClose":"23:59","weekendOpen":"00:00","weekendClose":"23:59","holidayOpen":"00:00","holidayClose":"23:59","feeInfo":"무료","phone":"054-950-6593","updatedAt":"2025-12-25","sido":"경상북도","sigungu":"고령군","dong":"개진면"},{"name":"삼성인쇄소~당간지주앞","type":"공영","category":"노상","address":"경상북도 고령군 대가야읍 쾌빈리 482-2","lat":35.72992171,"lng":128.2677667,"totalSpaces":32,"isFree":true,"operatingDays":"평일+토요일+공휴일","weekdayOpen":"00:00","weekdayClose":"23:59","weekendOpen":"00:00","weekendClose":"23:59","holidayOpen":"00:00","holidayClose":"23:59","feeInfo":"무료","phone":"054-950-6593","updatedAt":"2025-12-25","sido":"경상북도","sigungu":"고령군","dong":"대가야읍"},{"name":"득성리 공영주차장","type":"공영","category":"노외","address":"경상북도 고령군 성산면 득성리190","lat":35.75308636,"lng":128.3722263,"totalSpaces":30,"isFree":true,"operatingDays":"평일+토요일+공휴일","weekdayOpen":"00:00","weekdayClose":"23:59","weekendOpen":"00:00","weekendClose":"23:59","holidayOpen":"00:00","holidayClose":"23:59","feeInfo":"무료","phone":"054-950-6593","updatedAt":"2025-12-25","sido":"경상북도","sigungu":"고령군","dong":"성산면"},{"name":"고탄리 공영주차장","type":"공영","category":"노외","address":"경상북도 고령군 성산면 고탄리 208","lat":35.760899889,"lng":128.3537784417,"totalSpaces":30,"isFree":true,"operatingDays":"평일+토요일+공휴일","weekdayOpen":"00:00","weekdayClose":"23:59","weekendOpen":"00:00","weekendClose":"23:59","holidayOpen":"00:00","holidayClose":"23:59","feeInfo":"무료","phone":"054-950-6593","updatedAt":"2025-12-25","sido":"경상북도","sigungu":"고령군","dong":"성산면"},{"name":"하거리 공영주차장","type":"공영","category":"노외","address":"경상북도 고령군 쌍림면 하거리 476","lat":35.67798105,"lng":128.1969494,"totalSpaces":29,"isFree":true,"operatingDays":"평일+토요일+공휴일","weekdayOpen":"00:00","weekdayClose":"23:59","weekendOpen":"00:00","weekendClose":"23:59","holidayOpen":"00:00","holidayClose":"23:59","feeInfo":"무료","phone":"054-950-6593","updatedAt":"2025-12-25","sido":"경상북도","sigungu":"고령군","dong":"쌍림면"},{"name":"평리리 제1공영주차장","type":"공영","category":"노외","address":"경상북도 고령군 다산면 평리리 273-4","lat":35.8269911,"lng":128.4529863,"totalSpaces":27,"isFree":true,"operatingDays":"평일+토요일+공휴일","weekdayOpen":"00:00","weekdayClose":"23:59","weekendOpen":"00:00","weekendClose":"23:59","holidayOpen":"00:00","holidayClose":"23:59","feeInfo":"무료","phone":"054-950-6593","updatedAt":"2025-12-25","sido":"경상북도","sigungu":"고령군","dong":"다산면"},{"name":"삼대리  공영주차장","type":"공영","category":"노외","address":"경상북도 고령군 성산면 삼대리 431-1","lat":35.74168369,"lng":128.384448,"totalSpaces":22,"isFree":true,"operatingDays":"평일+토요일+공휴일","weekdayOpen":"00:00","weekdayClose":"23:59","weekendOpen":"00:00","weekendClose":"23:59","holidayOpen":"00:00","holidayClose":"23:59","feeInfo":"무료","phone":"054-950-6593","updatedAt":"2025-12-25","sido":"경상북도","sigungu":"고령군","dong":"성산면"},{"name":"중앙네거리~터미널앞","type":"공영","category":"노상","address":"경상북도 고령군 대가야읍 헌문리 202-4","lat":35.72992985,"lng":128.2710958,"totalSpaces":22,"isFree":true,"operatingDays":"평일+토요일+공휴일","weekdayOpen":"00:00","weekdayClose":"23:59","weekendOpen":"00:00","weekendClose":"23:59","holidayOpen":"00:00","holidayClose":"23:59","feeInfo":"무료","phone":"054-950-6593","updatedAt":"2025-12-25","sido":"경상북도","sigungu":"고령군","dong":"대가야읍"},{"name":"산주리 공영주차장","type":"공영","category":"노외","address":"경상북도 고령군 쌍림면 산주리 334-1","lat":35.66901106,"lng":128.1746892,"totalSpaces":21,"isFree":true,"operatingDays":"평일+토요일+공휴일","weekdayOpen":"00:00","weekdayClose":"23:59","weekendOpen":"00:00","weekendClose":"23:59","holidayOpen":"00:00","holidayClose":"23:59","feeInfo":"무료","phone":"054-950-6593","updatedAt":"2025-12-25","sido":"경상북도","sigungu":"고령군","dong":"쌍림면"},{"name":"봉산리 공영주차장","type":"공영","category":"노외","address":"경상북도 고령군 우곡면 봉산리 1208-1","lat":35.63593407,"lng":128.3826224,"totalSpaces":20,"isFree":true,"operatingDays":"평일+토요일+공휴일","weekdayOpen":"00:00","weekdayClose":"23:59","weekendOpen":"00:00","weekendClose":"23:59","holidayOpen":"00:00","holidayClose":"23:59","feeInfo":"무료","phone":"054-950-6593","updatedAt":"2025-12-25","sido":"경상북도","sigungu":"고령군","dong":"우곡면"},{"name":"연조3리 공영주차장","type":"공영","category":"노외","address":"경상북도 고령군 대가야읍 연조리 134-3","lat":35.73239058,"lng":128.2683202,"totalSpaces":19,"isFree":true,"operatingDays":"평일+토요일+공휴일","weekdayOpen":"00:00","weekdayClose":"23:59","weekendOpen":"00:00","weekendClose":"23:59","holidayOpen":"00:00","holidayClose":"23:59","feeInfo":"무료","phone":"054-950-6593","updatedAt":"2025-12-25","sido":"경상북도","sigungu":"고령군","dong":"대가야읍"},{"name":"산당리 공영주차장","type":"공영","category":"노외","address":"경상북도 고령군 쌍림면 산당리 305","lat":35.67712851,"lng":128.2109513,"totalSpaces":18,"isFree":true,"operatingDays":"평일+토요일+공휴일","weekdayOpen":"00:00","weekdayClose":"23:59","weekendOpen":"00:00","weekendClose":"23:59","holidayOpen":"00:00","holidayClose":"23:59","feeInfo":"무료","phone":"054-950-6593","updatedAt":"2025-12-25","sido":"경상북도","sigungu":"고령군","dong":"쌍림면"},{"name":"인안1리 공영주차장","type":"공영","category":"노외","address":"경상북도 고령군 개진면 인안리 391-6","lat":35.7238809,"lng":128.4190504,"totalSpaces":18,"isFree":true,"operatingDays":"평일+토요일+공휴일","weekdayOpen":"00:00","weekdayClose":"23:59","weekendOpen":"00:00","weekendClose":"23:59","holidayOpen":"00:00","holidayClose":"23:59","feeInfo":"무료","phone":"054-950-6593","updatedAt":"2025-12-25","sido":"경상북도","sigungu":"고령군","dong":"개진면"},{"name":"쾌빈리 제1공영주차장","type":"공영","category":"노외","address":"경상북도 고령군 대가야읍 쾌빈리 381-1","lat":35.73303645,"lng":128.2699591,"totalSpaces":18,"isFree":true,"operatingDays":"평일+토요일+공휴일","weekdayOpen":"00:00","weekdayClose":"23:59","weekendOpen":"00:00","weekendClose":"23:59","holidayOpen":"00:00","holidayClose":"23:59","feeInfo":"무료","phone":"054-950-6593","updatedAt":"2025-12-25","sido":"경상북도","sigungu":"고령군","dong":"대가야읍"},{"name":"쾌빈리 제2공영주차장","type":"공영","category":"노외","address":"경상북도 고령군 대가야읍 쾌빈리 412","lat":35.73037266,"lng":128.2703856,"totalSpaces":18,"isFree":true,"operatingDays":"평일+토요일+공휴일","weekdayOpen":"00:00","weekdayClose":"23:59","weekendOpen":"00:00","weekendClose":"23:59","holidayOpen":"00:00","holidayClose":"23:59","feeInfo":"무료","phone":"054-950-6593","updatedAt":"2025-12-25","sido":"경상북도","sigungu":"고령군","dong":"대가야읍"},{"name":"양전2리 공영주차장","type":"공영","category":"노외","address":"경상북도 고령군 개진면 양전리 64-8","lat":35.72931121,"lng":128.3030764948,"totalSpaces":16,"isFree":true,"operatingDays":"평일+토요일+공휴일","weekdayOpen":"00:00","weekdayClose":"23:59","weekendOpen":"00:00","weekendClose":"23:59","holidayOpen":"00:00","holidayClose":"23:59","feeInfo":"무료","phone":"054-950-6593","updatedAt":"2025-12-25","sido":"경상북도","sigungu":"고령군","dong":"개진면"},{"name":"신곡리 공영주차장","type":"공영","category":"노외","address":"경상북도 고령군 쌍림면 신곡리382-8","lat":35.68345868,"lng":128.2535469,"totalSpaces":15,"isFree":true,"operatingDays":"평일+토요일+공휴일","weekdayOpen":"00:00","weekdayClose":"23:59","weekendOpen":"00:00","weekendClose":"23:59","holidayOpen":"00:00","holidayClose":"23:59","feeInfo":"무료","phone":"054-950-6593","updatedAt":"2025-12-25","sido":"경상북도","sigungu":"고령군","dong":"쌍림면"},{"name":"안림리 공영주차장","type":"공영","category":"노외","address":"경상북도 고령군 쌍림면 안림리 289-9","lat":35.6934625,"lng":128.2579917,"totalSpaces":14,"isFree":true,"operatingDays":"평일+토요일+공휴일","weekdayOpen":"00:00","weekdayClose":"23:59","weekendOpen":"00:00","weekendClose":"23:59","holidayOpen":"00:00","holidayClose":"23:59","feeInfo":"무료","phone":"054-950-6593","updatedAt":"2025-12-25","sido":"경상북도","sigungu":"고령군","dong":"쌍림면"},{"name":"송곡1리 공영주차장","type":"공영","category":"노외","address":"경상북도 고령군 다산면 송곡리 286","lat":35.80345149,"lng":128.3822185,"totalSpaces":14,"isFree":true,"operatingDays":"평일+토요일+공휴일","weekdayOpen":"00:00","weekdayClose":"23:59","weekendOpen":"00:00","weekendClose":"23:59","holidayOpen":"00:00","holidayClose":"23:59","feeInfo":"무료","phone":"054-950-6593","updatedAt":"2025-12-25","sido":"경상북도","sigungu":"고령군","dong":"다산면"},{"name":"축협앞~고령지구대앞","type":"공영","category":"노상","address":"경상북도 고령군 대가야읍 지산리 221-2","lat":35.72644627,"lng":128.2654084,"totalSpaces":11,"isFree":true,"operatingDays":"평일+토요일+공휴일","weekdayOpen":"00:00","weekdayClose":"23:59","weekendOpen":"00:00","weekendClose":"23:59","holidayOpen":"00:00","holidayClose":"23:59","feeInfo":"무료","phone":"054-950-6593","updatedAt":"2025-12-25","sido":"경상북도","sigungu":"고령군","dong":"대가야읍"},{"name":"고아리 제3공영주차장","type":"공영","category":"노외","address":"경상북도 고령군 대가야읍 고아리 63","lat":35.72786926,"lng":128.2691815,"totalSpaces":10,"isFree":true,"operatingDays":"평일+토요일+공휴일","weekdayOpen":"00:00","weekdayClose":"23:59","weekendOpen":"00:00","weekendClose":"23:59","holidayOpen":"00:00","holidayClose":"23:59","feeInfo":"무료","phone":"054-950-6593","updatedAt":"2025-12-25","sido":"경상북도","sigungu":"고령군","dong":"대가야읍"},{"name":"저전리 공영주차장","type":"공영","category":"노외","address":"경상북도 고령군 대가야읍 저전리 298","lat":35.7566420429,"lng":128.2306605886,"totalSpaces":10,"isFree":true,"operatingDays":"평일+토요일+공휴일","weekdayOpen":"00:00","weekdayClose":"23:59","weekendOpen":"00:00","weekendClose":"23:59","holidayOpen":"00:00","holidayClose":"23:59","feeInfo":"무료","phone":"054-950-6593","updatedAt":"2025-12-25","sido":"경상북도","sigungu":"고령군","dong":"대가야읍"},{"name":"시장길 공영주차장","type":"공영","category":"노외","address":"경상북도 고령군 대가야읍 고아리 4-4","lat":35.7287443402,"lng":128.2687537964,"totalSpaces":10,"isFree":true,"operatingDays":"평일+토요일+공휴일","weekdayOpen":"00:00","weekdayClose":"23:59","weekendOpen":"00:00","weekendClose":"23:59","holidayOpen":"00:00","holidayClose":"23:59","feeInfo":"무료","phone":"054-950-6593","updatedAt":"2025-12-25","sido":"경상북도","sigungu":"고령군","dong":"대가야읍"},{"name":"원송리 공영주차장","type":"공영","category":"노외","address":"경상북도 고령군 덕곡면 원송리 99","lat":35.7912228896,"lng":128.2059085655,"totalSpaces":10,"isFree":true,"operatingDays":"평일+토요일+공휴일","weekdayOpen":"00:00","weekdayClose":"23:59","weekendOpen":"00:00","weekendClose":"23:59","holidayOpen":"00:00","holidayClose":"23:59","feeInfo":"무료","phone":"054-950-6593","updatedAt":"2025-12-25","sido":"경상북도","sigungu":"고령군","dong":"덕곡면"},{"name":"상곡리 공영주차장","type":"공영","category":"노외","address":"경상북도 고령군 다산면 상곡리150-9","lat":35.82519764,"lng":128.4467909,"totalSpaces":10,"isFree":true,"operatingDays":"평일+토요일+공휴일","weekdayOpen":"00:00","weekdayClose":"23:59","weekendOpen":"00:00","weekendClose":"23:59","holidayOpen":"00:00","holidayClose":"23:59","feeInfo":"무료","phone":"054-950-6593","updatedAt":"2025-12-25","sido":"경상북도","sigungu":"고령군","dong":"다산면"},{"name":"연조리 제2공영주차장","type":"공영","category":"노외","address":"경상북도 고령군 대가야읍 연조리 233-3","lat":35.73090075,"lng":128.266668,"totalSpaces":7,"isFree":true,"operatingDays":"평일+토요일+공휴일","weekdayOpen":"00:00","weekdayClose":"23:59","weekendOpen":"00:00","weekendClose":"23:59","holidayOpen":"00:00","holidayClose":"23:59","feeInfo":"무료","phone":"054-950-6593","updatedAt":"2025-12-25","sido":"경상북도","sigungu":"고령군","dong":"대가야읍"},{"name":"기족리 공영주차장","type":"공영","category":"노외","address":"경상북도 고령군 성산면 기족리 365-1","lat":35.75086618,"lng":128.3447635,"totalSpaces":4,"isFree":true,"operatingDays":"평일+토요일+공휴일","weekdayOpen":"00:00","weekdayClose":"23:59","weekendOpen":"00:00","weekendClose":"23:59","holidayOpen":"00:00","holidayClose":"23:59","feeInfo":"무료","phone":"054-950-6593","updatedAt":"2025-12-25","sido":"경상북도","sigungu":"고령군","dong":"성산면"},{"name":"대가야 역사공원 공영주차장","type":"공영","category":"노외","address":"경상북도 고령군 대가야읍 쾌빈리 433-11","lat":35.73040394,"lng":128.2683491,"totalSpaces":162,"isFree":false,"operatingDays":"평일+토요일+공휴일","weekdayOpen":"00:00","weekdayClose":"23:59","weekendOpen":"00:00","weekendClose":"23:59","holidayOpen":"00:00","holidayClose":"23:59","feeInfo":"기본 120분 300원 / 추가 30분당 300원","phone":"054-950-6593","updatedAt":"2025-12-25","sido":"경상북도","sigungu":"고령군","dong":"대가야읍"}]}