{"sido":"경상북도","sigungu":"성주군","totalCount":19,"validCount":19,"items":[{"name":"별고을체육공원","type":"공영","category":"노외","address":"경상북도 성주군 성주읍 대흥리 905-3","lat":35.91307892,"lng":128.2567841386,"totalSpaces":430,"isFree":true,"operatingDays":"평일+토요일+공휴일","weekdayOpen":"00:00","weekdayClose":"23:59","weekendOpen":"00:00","weekendClose":"23:59","holidayOpen":"00:00","holidayClose":"23:59","feeInfo":"무료","phone":"054-930-6253","updatedAt":"2024-08-07","sido":"경상북도","sigungu":"성주군","dong":"성주읍"},{"name":"성주군 공영주차장","type":"공영","category":"노외","address":"경상북도 성주군 성주읍 성주로 3184","lat":35.9201119,"lng":128.2825875,"totalSpaces":231,"isFree":true,"operatingDays":"평일+토요일+공휴일","weekdayOpen":"00:00","weekdayClose":"23:59","weekendOpen":"00:00","weekendClose":"23:59","holidayOpen":"00:00","holidayClose":"23:59","feeInfo":"무료","phone":"054-930-6253","updatedAt":"2024-08-07","sido":"경상북도","sigungu":"성주군","dong":"성주읍"},{"name":"이천제방 주차장","type":"공영","category":"노외","address":"경상북도 성주군 성주읍 경산리 765-3","lat":35.91378526,"lng":128.2829294,"totalSpaces":200,"isFree":true,"operatingDays":"평일+토요일+공휴일","weekdayOpen":"00:00","weekdayClose":"23:59","weekendOpen":"00:00","weekendClose":"23:59","holidayOpen":"00:00","holidayClose":"23:59","feeInfo":"무료","phone":"054-930-6253","updatedAt":"2024-08-07","sido":"경상북도","sigungu":"성주군","dong":"성주읍"},{"name":"제1주차장(구경찰서)","type":"공영","category":"노외","address":"경상북도 성주군 성주읍 경산리 172-4","lat":35.91930867,"lng":128.2841971,"totalSpaces":135,"isFree":true,"operatingDays":"평일+토요일+공휴일","weekdayOpen":"00:00","weekdayClose":"23:59","weekendOpen":"00:00","weekendClose":"23:59","holidayOpen":"00:00","holidayClose":"23:59","feeInfo":"무료","phone":"054-930-6703","updatedAt":"2024-08-07","sido":"경상북도","sigungu":"성주군","dong":"성주읍"},{"name":"성주어울림 공영주차장","type":"공영","category":"노외","address":"경상북도 성주군 성주읍 경산길 17","lat":35.9169276,"lng":128.2852814,"totalSpaces":117,"isFree":true,"operatingDays":"평일+토요일+공휴일","weekdayOpen":"00:00","weekdayClose":"23:59","weekendOpen":"00:00","weekendClose":"23:59","holidayOpen":"00:00","holidayClose":"23:59","feeInfo":"무료","phone":"054-930-6253","updatedAt":"2024-08-07","sido":"경상북도","sigungu":"성주군","dong":"성주읍"},{"name":"성주역사테마공원 주차장","type":"공영","category":"노외","address":"경상북도 성주군 성주읍 예산리 516 일원 외 2개소","lat":35.9221246,"lng":128.2837306,"totalSpaces":116,"isFree":true,"operatingDays":"평일+토요일+공휴일","weekdayOpen":"00:00","weekdayClose":"23:59","weekendOpen":"00:00","weekendClose":"23:59","holidayOpen":"00:00","holidayClose":"23:59","feeInfo":"무료","phone":"054-930-6253","updatedAt":"2024-08-07","sido":"경상북도","sigungu":"성주군","dong":"성주읍"},{"name":"성산리 임시주차장(롯데카센터 맞은편)","type":"공영","category":"노외","address":"경상북도 성주군 성주읍 성산리 646-9번지 외 9필지","lat":35.916133,"lng":128.2891984,"totalSpaces":80,"isFree":true,"operatingDays":"평일+토요일+공휴일","weekdayOpen":"00:00","weekdayClose":"23:59","weekendOpen":"00:00","weekendClose":"23:59","holidayOpen":"00:00","holidayClose":"23:59","feeInfo":"무료","phone":"054-930-6253","updatedAt":"2024-08-07","sido":"경상북도","sigungu":"성주군","dong":"성주읍"},{"name":"성밖공원 주차장","type":"공영","category":"노외","address":"경상북도 성주군 성주읍 경산리 763-73","lat":35.91525096,"lng":128.2808918,"totalSpaces":80,"isFree":true,"operatingDays":"평일+토요일+공휴일","weekdayOpen":"00:00","weekdayClose":"23:59","weekendOpen":"00:00","weekendClose":"23:59","holidayOpen":"00:00","holidayClose":"23:59","feeInfo":"무료","phone":"054-930-6253","updatedAt":"2024-08-07","sido":"경상북도","sigungu":"성주군","dong":"성주읍"},{"name":"생명문화공원 주차장","type":"공영","category":"노외","address":"경상북도 성주군 월항면 인촌리 218-9","lat":36.0138759,"lng":128.2970361,"totalSpaces":54,"isFree":true,"operatingDays":"평일+토요일+공휴일","weekdayOpen":"00:00","weekdayClose":"23:59","weekendOpen":"00:00","weekendClose":"23:59","holidayOpen":"00:00","holidayClose":"23:59","feeInfo":"무료","phone":"054-930-6253","updatedAt":"2024-08-07","sido":"경상북도","sigungu":"성주군","dong":"월항면"},{"name":"성산 2주차장(디지털플라자 맞은편)","type":"공영","category":"노외","address":"경상북도 성주군 성주읍 성산리 652-1번지 외 1필지","lat":35.9171512,"lng":128.2907491,"totalSpaces":42,"isFree":true,"operatingDays":"평일+토요일+공휴일","weekdayOpen":"00:00","weekdayClose":"23:59","weekendOpen":"00:00","weekendClose":"23:59","holidayOpen":"00:00","holidayClose":"23:59","feeInfo":"무료","phone":"054-930-6253","updatedAt":"2024-08-07","sido":"경상북도","sigungu":"성주군","dong":"성주읍"},{"name":"성산2공원 주차장(커피스미스 성주점 옆)","type":"공영","category":"노외","address":"경상북도 성주군 성주읍 성산리 546-13번지 외 2필지","lat":35.9182941,"lng":128.2934325,"totalSpaces":40,"isFree":true,"operatingDays":"평일+토요일+공휴일","weekdayOpen":"00:00","weekdayClose":"23:59","weekendOpen":"00:00","weekendClose":"23:59","holidayOpen":"00:00","holidayClose":"23:59","feeInfo":"무료","phone":"054-930-6253","updatedAt":"2024-08-07","sido":"경상북도","sigungu":"성주군","dong":"성주읍"},{"name":"벽진면 소재지 주차장","type":"공영","category":"노외","address":"경상북도 성주군 벽진면 수촌리 839 외 3필지","lat":35.9477607,"lng":128.2169303,"totalSpaces":26,"isFree":true,"operatingDays":"평일+토요일+공휴일","weekdayOpen":"00:00","weekdayClose":"23:59","weekendOpen":"00:00","weekendClose":"23:59","holidayOpen":"00:00","holidayClose":"23:59","feeInfo":"무료","phone":"054-930-6253","updatedAt":"2024-08-07","sido":"경상북도","sigungu":"성주군","dong":"벽진면"},{"name":"놀벤져스(1호) 제1주차장","type":"공영","category":"노외","address":"경상북도 성주군 성주읍 백전리 643","lat":35.9216189,"lng":128.2783076,"totalSpaces":18,"isFree":true,"operatingDays":"평일+토요일+공휴일","weekdayOpen":"00:00","weekdayClose":"23:59","weekendOpen":"00:00","weekendClose":"23:59","holidayOpen":"00:00","holidayClose":"23:59","feeInfo":"무료","phone":"054-930-6253","updatedAt":"2024-08-07","sido":"경상북도","sigungu":"성주군","dong":"성주읍"},{"name":"독용산성자연휴양림 주차장","type":"공영","category":"노외","address":"경상북도 성주군 금수면 봉두리 산110","lat":35.90636658,"lng":128.1344133,"totalSpaces":17,"isFree":true,"operatingDays":"평일+토요일+공휴일","weekdayOpen":"00:00","weekdayClose":"23:59","weekendOpen":"00:00","weekendClose":"23:59","holidayOpen":"00:00","holidayClose":"23:59","feeInfo":"무료","phone":"054-930-6253","updatedAt":"2024-08-07","sido":"경상북도","sigungu":"성주군","dong":"금수면"},{"name":"성주초교 후문 주차장","type":"공영","category":"노외","address":"경상북도 성주군 성주읍 경산리 138","lat":35.9208532,"lng":128.2856441,"totalSpaces":13,"isFree":true,"operatingDays":"평일+토요일+공휴일","weekdayOpen":"00:00","weekdayClose":"23:59","weekendOpen":"00:00","weekendClose":"23:59","holidayOpen":"00:00","holidayClose":"23:59","feeInfo":"무료","phone":"054-930-6253","updatedAt":"2024-08-07","sido":"경상북도","sigungu":"성주군","dong":"성주읍"},{"name":"놀벤져스(1호) 제2주차장","type":"공영","category":"노외","address":"경상북도 성주군 성주읍 백전리 650-1","lat":35.922265,"lng":128.2791258,"totalSpaces":8,"isFree":true,"operatingDays":"평일+토요일+공휴일","weekdayOpen":"00:00","weekdayClose":"23:59","weekendOpen":"00:00","weekendClose":"23:59","holidayOpen":"00:00","holidayClose":"23:59","feeInfo":"무료","phone":"054-930-6253","updatedAt":"2024-08-07","sido":"경상북도","sigungu":"성주군","dong":"성주읍"},{"name":"성주여고 맞은편 주차장","type":"공영","category":"노외","address":"경상북도 성주군 성주읍 경산리 356-2","lat":35.91884179,"lng":128.281426,"totalSpaces":5,"isFree":true,"operatingDays":"평일+토요일+공휴일","weekdayOpen":"00:00","weekdayClose":"23:59","weekendOpen":"00:00","weekendClose":"23:59","holidayOpen":"00:00","holidayClose":"23:59","feeInfo":"무료","phone":"054-930-6253","updatedAt":"2024-08-07","sido":"경상북도","sigungu":"성주군","dong":"성주읍"},{"name":"건강문화캠퍼스 주차장","type":"공영","category":"노외","address":"경상북도 성주군 성주읍 성주읍1길 4","lat":35.9182616,"lng":128.2901749584,"totalSpaces":168,"isFree":false,"operatingDays":"평일+토요일+공휴일","weekdayOpen":"00:00","weekdayClose":"23:59","weekendOpen":"00:00","weekendClose":"23:59","holidayOpen":"00:00","holidayClose":"23:59","feeInfo":"기본 30분 500원 / 추가 10분당 500원","phone":"054-930-6253","updatedAt":"2024-08-07","sido":"경상북도","sigungu":"성주군","dong":"성주읍"},{"name":"성주전통시장 주차장","type":"공영","category":"노외","address":"경상북도 성주군 성주읍 시장길 49","lat":35.9140780736,"lng":128.2851311,"totalSpaces":129,"isFree":false,"operatingDays":"평일+토요일+공휴일","weekdayOpen":"00:00","weekdayClose":"23:59","weekendOpen":"00:00","weekendClose":"23:59","holidayOpen":"00:00","holidayClose":"23:59","feeInfo":"기본 30분 500원 / 추가 10분당 500원","phone":"054-930-6253","updatedAt":"2024-08-07","sido":"경상북도","sigungu":"성주군","dong":"성주읍"}]}