{"sido":"경상북도","sigungu":"영주시","totalCount":92,"validCount":92,"items":[{"name":"시민운동장 주차장","type":"공영","category":"노외","address":"경상북도 영주시 가흥동 243","lat":36.80845623,"lng":128.6077181,"totalSpaces":265,"isFree":true,"operatingDays":"평일+토요일+공휴일","weekdayOpen":"00:00","weekdayClose":"23:59","weekendOpen":"00:00","weekendClose":"23:59","holidayOpen":"00:00","holidayClose":"23:59","feeInfo":"무료","phone":"054-639-6843","updatedAt":"2025-07-31","sido":"경상북도","sigungu":"영주시","dong":"가흥동"},{"name":"원당로 노상주차장(봉화삼거리↔광시당사거리↔그랜드컨벤션웨딩↔영주시탁구장)","type":"공영","category":"노상","address":"경상북도 영주시 휴천동 40-2","lat":36.81981008,"lng":128.6235465,"totalSpaces":260,"isFree":true,"operatingDays":"평일+토요일+공휴일","weekdayOpen":"00:00","weekdayClose":"23:59","weekendOpen":"00:00","weekendClose":"23:59","holidayOpen":"00:00","holidayClose":"23:59","feeInfo":"무료","phone":"054-639-6843","updatedAt":"2025-07-31","sido":"경상북도","sigungu":"영주시","dong":"휴천동"},{"name":"가흥신도시 주차타워","type":"공영","category":"노외","address":"경상북도 영주시 가흥동 1654","lat":36.8177647602,"lng":128.6054287165,"totalSpaces":191,"isFree":true,"operatingDays":"평일+토요일+공휴일","weekdayOpen":"00:00","weekdayClose":"23:59","weekendOpen":"00:00","weekendClose":"23:59","holidayOpen":"00:00","holidayClose":"23:59","feeInfo":"무료","phone":"054-639-6843","updatedAt":"2025-07-31","sido":"경상북도","sigungu":"영주시","dong":"가흥동"},{"name":"영주동 공영주차장(세운빌라↔상공회의소)","type":"공영","category":"노상","address":"경상북도 영주시 영주동 489-4","lat":36.82542759,"lng":128.6170214,"totalSpaces":177,"isFree":true,"operatingDays":"평일+토요일+공휴일","weekdayOpen":"00:00","weekdayClose":"23:59","weekendOpen":"00:00","weekendClose":"23:59","holidayOpen":"00:00","holidayClose":"23:59","feeInfo":"무료","phone":"054-639-6843","updatedAt":"2025-07-31","sido":"경상북도","sigungu":"영주시","dong":"영주동"},{"name":"서천둔치 주차장","type":"공영","category":"노외","address":"경상북도 영주시 가흥동 1382(문화예술회관 앞)","lat":36.8213302424,"lng":128.6140761475,"totalSpaces":174,"isFree":true,"operatingDays":"평일+토요일+공휴일","weekdayOpen":"00:00","weekdayClose":"23:59","weekendOpen":"00:00","weekendClose":"23:59","holidayOpen":"00:00","holidayClose":"23:59","feeInfo":"무료","phone":"054-639-6843","updatedAt":"2025-07-31","sido":"경상북도","sigungu":"영주시","dong":"가흥동"},{"name":"영주동거점주차장","type":"공영","category":"노외","address":"경상북도 영주시 영주동 412-1","lat":36.8229320441,"lng":128.6215743533,"totalSpaces":157,"isFree":true,"operatingDays":"평일+토요일","weekdayOpen":"00:00","weekdayClose":"23:59","weekendOpen":"00:00","weekendClose":"23:59","holidayOpen":"00:00","holidayClose":"00:00","feeInfo":"무료","phone":"054-639-6843","updatedAt":"2025-07-31","sido":"경상북도","sigungu":"영주시","dong":"영주동"},{"name":"영주동 공영주차장(영주동 543-6↔서울우유대리점↔KT&G 영주지점)","type":"공영","category":"노상","address":"경상북도 영주시 영주동 543-6","lat":36.82935144,"lng":128.6167023,"totalSpaces":148,"isFree":true,"operatingDays":"평일+토요일+공휴일","weekdayOpen":"00:00","weekdayClose":"23:59","weekendOpen":"00:00","weekendClose":"23:59","holidayOpen":"00:00","holidayClose":"23:59","feeInfo":"무료","phone":"054-639-6843","updatedAt":"2025-07-31","sido":"경상북도","sigungu":"영주시","dong":"영주동"},{"name":"소수서원 주차장","type":"공영","category":"노외","address":"경상북도 영주시 순흥면 내죽리 152-1","lat":36.9269029182,"lng":128.5798047771,"totalSpaces":144,"isFree":true,"operatingDays":"평일+토요일+공휴일","weekdayOpen":"00:00","weekdayClose":"23:59","weekendOpen":"00:00","weekendClose":"23:59","holidayOpen":"00:00","holidayClose":"23:59","feeInfo":"무료","phone":"054-639-6843","updatedAt":"2025-07-31","sido":"경상북도","sigungu":"영주시","dong":"순흥면"},{"name":"영주동 공영주차장(평생학습센터↔소산쌈밥)","type":"공영","category":"노상","address":"경상북도 영주시 영주동 539","lat":36.8270777627,"lng":128.6165056451,"totalSpaces":139,"isFree":true,"operatingDays":"평일+토요일+공휴일","weekdayOpen":"00:00","weekdayClose":"23:59","weekendOpen":"00:00","weekendClose":"23:59","holidayOpen":"00:00","holidayClose":"23:59","feeInfo":"무료","phone":"054-639-6843","updatedAt":"2025-07-31","sido":"경상북도","sigungu":"영주시","dong":"영주동"},{"name":"선비촌 주차장","type":"공영","category":"노외","address":"경상북도 영주시 순흥면 청구리 357","lat":36.92847353,"lng":128.5834337,"totalSpaces":133,"isFree":true,"operatingDays":"평일+토요일+공휴일","weekdayOpen":"00:00","weekdayClose":"23:59","weekendOpen":"00:00","weekendClose":"23:59","holidayOpen":"00:00","holidayClose":"23:59","feeInfo":"무료","phone":"054-639-6843","updatedAt":"2025-07-31","sido":"경상북도","sigungu":"영주시","dong":"순흥면"},{"name":"지천로 노상주차장(꽃동산로터리 ↔ 남부육거리)","type":"공영","category":"노상","address":"경상북도 영주시 휴천동 642-241","lat":36.8128944493,"lng":128.6209365472,"totalSpaces":103,"isFree":true,"operatingDays":"평일+토요일+공휴일","weekdayOpen":"00:00","weekdayClose":"23:59","weekendOpen":"00:00","weekendClose":"23:59","holidayOpen":"00:00","holidayClose":"23:59","feeInfo":"무료","phone":"054-639-6843","updatedAt":"2025-07-31","sido":"경상북도","sigungu":"영주시","dong":"휴천동"},{"name":"가흥 어린이테마공원 지하주차장","type":"공영","category":"노외","address":"경상북도 영주시 가흥동 1622-1","lat":36.815639618,"lng":128.6035609215,"totalSpaces":97,"isFree":true,"operatingDays":"평일+토요일+공휴일","weekdayOpen":"00:00","weekdayClose":"23:59","weekendOpen":"00:00","weekendClose":"23:59","holidayOpen":"00:00","holidayClose":"23:59","feeInfo":"무료","phone":"054-639-6843","updatedAt":"2025-07-31","sido":"경상북도","sigungu":"영주시","dong":"가흥동"},{"name":"영주동 공영주차장(동궁주택↔반구정입구)","type":"공영","category":"노상","address":"경상북도 영주시 영주동 508-1","lat":36.8254022,"lng":128.6178278,"totalSpaces":95,"isFree":true,"operatingDays":"평일+토요일+공휴일","weekdayOpen":"00:00","weekdayClose":"23:59","weekendOpen":"00:00","weekendClose":"23:59","holidayOpen":"00:00","holidayClose":"23:59","feeInfo":"무료","phone":"054-639-6843","updatedAt":"2025-07-31","sido":"경상북도","sigungu":"영주시","dong":"영주동"},{"name":"대영고등학교 인근 공영주차장","type":"공영","category":"노외","address":"경상북도 영주시 가흥동 1622-1","lat":36.815639618,"lng":128.6035609215,"totalSpaces":90,"isFree":true,"operatingDays":"평일+토요일+공휴일","weekdayOpen":"00:00","weekdayClose":"23:59","weekendOpen":"00:00","weekendClose":"23:59","holidayOpen":"00:00","holidayClose":"23:59","feeInfo":"무료","phone":"054-639-6843","updatedAt":"2025-07-31","sido":"경상북도","sigungu":"영주시","dong":"가흥동"},{"name":"가흥신도시 제1공영주차장","type":"공영","category":"노외","address":"경상북도 영주시 가흥동 1829","lat":36.8141312736,"lng":128.6064651854,"totalSpaces":77,"isFree":true,"operatingDays":"평일+토요일+공휴일","weekdayOpen":"00:00","weekdayClose":"23:59","weekendOpen":"00:00","weekendClose":"23:59","holidayOpen":"00:00","holidayClose":"23:59","feeInfo":"무료","phone":"054-639-6843","updatedAt":"2025-07-31","sido":"경상북도","sigungu":"영주시","dong":"가흥동"},{"name":"가흥2동 공영주차장","type":"공영","category":"노외","address":"경상북도 영주시 가흥동 480-57","lat":36.8304601132,"lng":128.6096679832,"totalSpaces":77,"isFree":true,"operatingDays":"평일+토요일+공휴일","weekdayOpen":"00:00","weekdayClose":"23:59","weekendOpen":"00:00","weekendClose":"23:59","holidayOpen":"00:00","holidayClose":"23:59","feeInfo":"무료","phone":"054-639-6843","updatedAt":"2025-07-31","sido":"경상북도","sigungu":"영주시","dong":"가흥동"},{"name":"임시 노상주차장(세무서사거리 ↔ 영일건널목)","type":"공영","category":"노상","address":"경상북도 영주시 영주동 570","lat":36.8212470385,"lng":128.6192764311,"totalSpaces":75,"isFree":true,"operatingDays":"평일+토요일+공휴일","weekdayOpen":"00:00","weekdayClose":"23:59","weekendOpen":"00:00","weekendClose":"23:59","holidayOpen":"00:00","holidayClose":"23:59","feeInfo":"무료","phone":"054-639-6843","updatedAt":"2025-07-31","sido":"경상북도","sigungu":"영주시","dong":"영주동"},{"name":"인삼박물관 주차장","type":"공영","category":"노외","address":"경상북도 영주시 풍기읍 창락리 455","lat":36.8890569029,"lng":128.4762151328,"totalSpaces":69,"isFree":true,"operatingDays":"평일+토요일+공휴일","weekdayOpen":"00:00","weekdayClose":"23:59","weekendOpen":"00:00","weekendClose":"23:59","holidayOpen":"00:00","holidayClose":"23:59","feeInfo":"무료","phone":"054-639-6843","updatedAt":"2025-07-31","sido":"경상북도","sigungu":"영주시","dong":"풍기읍"},{"name":"풍기읍 서부리 공영주차장","type":"공영","category":"노외","address":"경상북도 영주시 풍기읍 서부리 106-2","lat":36.8720207649,"lng":128.5270649561,"totalSpaces":66,"isFree":true,"operatingDays":"평일+토요일+공휴일","weekdayOpen":"00:00","weekdayClose":"23:59","weekendOpen":"00:00","weekendClose":"23:59","holidayOpen":"00:00","holidayClose":"23:59","feeInfo":"무료","phone":"054-639-6843","updatedAt":"2025-07-31","sido":"경상북도","sigungu":"영주시","dong":"풍기읍"},{"name":"휴천현대아파트 인근 공영주차장","type":"공영","category":"노외","address":"경상북도 영주시 휴천동 563","lat":36.805085629,"lng":128.6190861328,"totalSpaces":65,"isFree":true,"operatingDays":"평일+토요일+공휴일","weekdayOpen":"00:00","weekdayClose":"23:59","weekendOpen":"00:00","weekendClose":"23:59","holidayOpen":"00:00","holidayClose":"23:59","feeInfo":"무료","phone":"054-639-6843","updatedAt":"2025-07-31","sido":"경상북도","sigungu":"영주시","dong":"휴천동"},{"name":"충혼탑 주차장","type":"공영","category":"노외","address":"경상북도 영주시 휴천동 1111","lat":36.8171595855,"lng":128.6471916998,"totalSpaces":56,"isFree":true,"operatingDays":"평일+토요일+공휴일","weekdayOpen":"00:00","weekdayClose":"23:59","weekendOpen":"00:00","weekendClose":"23:59","holidayOpen":"00:00","holidayClose":"23:59","feeInfo":"무료","phone":"054-639-6843","updatedAt":"2025-07-31","sido":"경상북도","sigungu":"영주시","dong":"휴천동"},{"name":"대일요리학원 인근 공영주차장","type":"공영","category":"노외","address":"경상북도 영주시 가흥동 1622-1","lat":36.815639618,"lng":128.6035609215,"totalSpaces":55,"isFree":true,"operatingDays":"평일+토요일+공휴일","weekdayOpen":"00:00","weekdayClose":"23:59","weekendOpen":"00:00","weekendClose":"23:59","holidayOpen":"00:00","holidayClose":"23:59","feeInfo":"무료","phone":"054-639-6843","updatedAt":"2025-07-31","sido":"경상북도","sigungu":"영주시","dong":"가흥동"},{"name":"하망동 공영주차장(하망동주민센터앞철로변)","type":"공영","category":"노상","address":"경상북도 영주시 하망동 554","lat":36.82352404,"lng":128.6289463,"totalSpaces":52,"isFree":true,"operatingDays":"평일+토요일+공휴일","weekdayOpen":"00:00","weekdayClose":"23:59","weekendOpen":"00:00","weekendClose":"23:59","holidayOpen":"00:00","holidayClose":"23:59","feeInfo":"무료","phone":"054-639-6843","updatedAt":"2025-07-31","sido":"경상북도","sigungu":"영주시","dong":"하망동"},{"name":"가흥동 현대아파트 인근 공영주차장","type":"공영","category":"노외","address":"경상북도 영주시 가흥동 521-2","lat":36.8335246137,"lng":128.6101467311,"totalSpaces":52,"isFree":true,"operatingDays":"평일+토요일+공휴일","weekdayOpen":"00:00","weekdayClose":"23:59","weekendOpen":"00:00","weekendClose":"23:59","holidayOpen":"00:00","holidayClose":"23:59","feeInfo":"무료","phone":"054-639-6843","updatedAt":"2025-07-31","sido":"경상북도","sigungu":"영주시","dong":"가흥동"},{"name":"서천둔치 주차장","type":"공영","category":"노외","address":"경상북도 영주시 가흥동 1381-1(가흥동 시영아파트 앞)","lat":36.8298804018,"lng":128.6131391684,"totalSpaces":52,"isFree":true,"operatingDays":"평일+토요일+공휴일","weekdayOpen":"00:00","weekdayClose":"23:59","weekendOpen":"00:00","weekendClose":"23:59","holidayOpen":"00:00","holidayClose":"23:59","feeInfo":"무료","phone":"054-639-6843","updatedAt":"2025-07-31","sido":"경상북도","sigungu":"영주시","dong":"가흥동"},{"name":"영주1동 공영주차장","type":"공영","category":"노외","address":"경상북도 영주시 영주동 19-2(시의회앞)","lat":36.8279502326,"lng":128.6259494329,"totalSpaces":52,"isFree":true,"operatingDays":"평일+토요일+공휴일","weekdayOpen":"00:00","weekdayClose":"23:59","weekendOpen":"00:00","weekendClose":"23:59","holidayOpen":"00:00","holidayClose":"23:59","feeInfo":"무료","phone":"054-639-6516","updatedAt":"2025-07-31","sido":"경상북도","sigungu":"영주시","dong":"영주동"},{"name":"구성로 노상주차장(구 휴천3동사무소↔KT영주지사)","type":"공영","category":"노상","address":"경상북도 영주시 휴천동 677","lat":36.81741202,"lng":128.6273375,"totalSpaces":50,"isFree":true,"operatingDays":"평일+토요일+공휴일","weekdayOpen":"00:00","weekdayClose":"23:59","weekendOpen":"00:00","weekendClose":"23:59","holidayOpen":"00:00","holidayClose":"23:59","feeInfo":"무료","phone":"054-639-6843","updatedAt":"2025-07-31","sido":"경상북도","sigungu":"영주시","dong":"휴천동"},{"name":"목민로 노상주차장(시청↔남부육거리↔캐논대리점↔영주문화회관)","type":"공영","category":"노상","address":"경상북도 영주시 영주동 339-10","lat":36.8261978,"lng":128.6213324,"totalSpaces":50,"isFree":true,"operatingDays":"평일+토요일+공휴일","weekdayOpen":"00:00","weekdayClose":"23:59","weekendOpen":"00:00","weekendClose":"23:59","holidayOpen":"00:00","holidayClose":"23:59","feeInfo":"무료","phone":"054-639-6843","updatedAt":"2025-07-31","sido":"경상북도","sigungu":"영주시","dong":"영주동"},{"name":"노상제11구간","type":"공영","category":"노상","address":"경상북도 영주시 가흥동 1459-3","lat":36.81483201,"lng":128.6193848,"totalSpaces":48,"isFree":true,"operatingDays":"평일+토요일+공휴일","weekdayOpen":"00:00","weekdayClose":"23:59","weekendOpen":"00:00","weekendClose":"23:59","holidayOpen":"00:00","holidayClose":"23:59","feeInfo":"무료","phone":"054-639-6843","updatedAt":"2025-07-31","sido":"경상북도","sigungu":"영주시","dong":"가흥동"},{"name":"평은면 공영주차장","type":"공영","category":"노외","address":"경상북도 영주시 평은면 평은리 1106-3","lat":36.7618103261,"lng":128.6956784144,"totalSpaces":45,"isFree":true,"operatingDays":"평일+토요일+공휴일","weekdayOpen":"00:00","weekdayClose":"23:59","weekendOpen":"00:00","weekendClose":"23:59","holidayOpen":"00:00","holidayClose":"23:59","feeInfo":"무료","phone":"054-639-6843","updatedAt":"2025-07-31","sido":"경상북도","sigungu":"영주시","dong":"평은면"},{"name":"휴천2동 공영주차장","type":"공영","category":"노외","address":"경상북도 영주시 휴천동 317-8(휴천2동사무소 뒤)","lat":36.8107926584,"lng":128.6221699173,"totalSpaces":45,"isFree":true,"operatingDays":"평일+토요일+공휴일","weekdayOpen":"00:00","weekdayClose":"23:59","weekendOpen":"00:00","weekendClose":"23:59","holidayOpen":"00:00","holidayClose":"23:59","feeInfo":"무료","phone":"054-639-6843","updatedAt":"2025-07-31","sido":"경상북도","sigungu":"영주시","dong":"휴천동"},{"name":"상망동 영남동산아파트 인근 공영주차장","type":"공영","category":"노외","address":"경상북도 영주시 가흥동 1622-1","lat":36.815639618,"lng":128.6035609215,"totalSpaces":43,"isFree":true,"operatingDays":"평일+토요일+공휴일","weekdayOpen":"00:00","weekdayClose":"23:59","weekendOpen":"00:00","weekendClose":"23:59","holidayOpen":"00:00","holidayClose":"23:59","feeInfo":"무료","phone":"054-639-6843","updatedAt":"2025-07-31","sido":"경상북도","sigungu":"영주시","dong":"가흥동"},{"name":"풍기역 인근","type":"공영","category":"노상","address":"경상북도 영주시 풍기읍 서부리 70","lat":36.873764548,"lng":128.5247382782,"totalSpaces":41,"isFree":true,"operatingDays":"평일+토요일+공휴일","weekdayOpen":"00:00","weekdayClose":"23:59","weekendOpen":"00:00","weekendClose":"23:59","holidayOpen":"00:00","holidayClose":"23:59","feeInfo":"무료","phone":"054-639-6843","updatedAt":"2025-07-31","sido":"경상북도","sigungu":"영주시","dong":"풍기읍"},{"name":"노상제10구간","type":"공영","category":"노상","address":"경상북도 영주시 휴천동 642-295","lat":36.81759123,"lng":128.6210791,"totalSpaces":37,"isFree":true,"operatingDays":"평일+토요일+공휴일","weekdayOpen":"00:00","weekdayClose":"23:59","weekendOpen":"00:00","weekendClose":"23:59","holidayOpen":"00:00","holidayClose":"23:59","feeInfo":"무료","phone":"054-639-6843","updatedAt":"2025-07-31","sido":"경상북도","sigungu":"영주시","dong":"휴천동"},{"name":"풍기 소방서↔풍기파출소사거리","type":"공영","category":"노상","address":"경상북도 영주시 풍기읍 성내리 151-1","lat":36.8708776668,"lng":128.5239547555,"totalSpaces":35,"isFree":true,"operatingDays":"평일+토요일+공휴일","weekdayOpen":"00:00","weekdayClose":"23:59","weekendOpen":"00:00","weekendClose":"23:59","holidayOpen":"00:00","holidayClose":"23:59","feeInfo":"무료","phone":"054-639-6843","updatedAt":"2025-07-31","sido":"경상북도","sigungu":"영주시","dong":"풍기읍"},{"name":"노상제9구간","type":"공영","category":"노상","address":"경상북도 영주시 휴천동 257","lat":36.81040487,"lng":128.6249671,"totalSpaces":35,"isFree":true,"operatingDays":"평일+토요일+공휴일","weekdayOpen":"00:00","weekdayClose":"23:59","weekendOpen":"00:00","weekendClose":"23:59","holidayOpen":"00:00","holidayClose":"23:59","feeInfo":"무료","phone":"054-639-6843","updatedAt":"2025-07-31","sido":"경상북도","sigungu":"영주시","dong":"휴천동"},{"name":"휴천동 현대1차아파트 인근 공영주차장","type":"공영","category":"노외","address":"경상북도 영주시 가흥동 1622-1","lat":36.815639618,"lng":128.6035609215,"totalSpaces":34,"isFree":true,"operatingDays":"평일+토요일+공휴일","weekdayOpen":"00:00","weekdayClose":"23:59","weekendOpen":"00:00","weekendClose":"23:59","holidayOpen":"00:00","holidayClose":"23:59","feeInfo":"무료","phone":"054-639-6843","updatedAt":"2025-07-31","sido":"경상북도","sigungu":"영주시","dong":"가흥동"},{"name":"풍기롯데리아↔파리바게뜨↔풍기동부교회","type":"공영","category":"노상","address":"경상북도 영주시 풍기읍 성내리 27-16","lat":36.8703371,"lng":128.5254544,"totalSpaces":32,"isFree":true,"operatingDays":"평일+토요일+공휴일","weekdayOpen":"00:00","weekdayClose":"23:59","weekendOpen":"00:00","weekendClose":"23:59","holidayOpen":"00:00","holidayClose":"23:59","feeInfo":"무료","phone":"054-639-6843","updatedAt":"2025-07-31","sido":"경상북도","sigungu":"영주시","dong":"풍기읍"},{"name":"광복로 노상주차장(봉화삼거리↔상망동주민센터)","type":"공영","category":"노상","address":"경상북도 영주시 하망동 154-3","lat":36.82810598,"lng":128.6283306,"totalSpaces":32,"isFree":true,"operatingDays":"평일+토요일+공휴일","weekdayOpen":"00:00","weekdayClose":"23:59","weekendOpen":"00:00","weekendClose":"23:59","holidayOpen":"00:00","holidayClose":"23:59","feeInfo":"무료","phone":"054-639-6843","updatedAt":"2025-07-31","sido":"경상북도","sigungu":"영주시","dong":"하망동"},{"name":"한절마 지구","type":"공영","category":"노외","address":"경상북도 영주시 가흥동 322-4","lat":36.8136804086,"lng":128.6127436075,"totalSpaces":31,"isFree":true,"operatingDays":"평일+토요일+공휴일","weekdayOpen":"00:00","weekdayClose":"23:59","weekendOpen":"00:00","weekendClose":"23:59","holidayOpen":"00:00","holidayClose":"23:59","feeInfo":"무료","phone":"054-639-6843","updatedAt":"2025-07-31","sido":"경상북도","sigungu":"영주시","dong":"가흥동"},{"name":"휴천1동 공영주차장","type":"공영","category":"노외","address":"경상북도 영주시 휴천동 709-9(현대골든빌라 옆)","lat":36.8205215296,"lng":128.6279990518,"totalSpaces":31,"isFree":true,"operatingDays":"평일+토요일+공휴일","weekdayOpen":"00:00","weekdayClose":"23:59","weekendOpen":"00:00","weekendClose":"23:59","holidayOpen":"00:00","holidayClose":"23:59","feeInfo":"무료","phone":"054-639-6843","updatedAt":"2025-07-31","sido":"경상북도","sigungu":"영주시","dong":"휴천동"},{"name":"시청로 노상주차장(시청↔영주역)","type":"공영","category":"노상","address":"경상북도 영주시 휴천동 330","lat":36.812246873,"lng":128.6233870389,"totalSpaces":30,"isFree":true,"operatingDays":"평일+토요일+공휴일","weekdayOpen":"00:00","weekdayClose":"23:59","weekendOpen":"00:00","weekendClose":"23:59","holidayOpen":"00:00","holidayClose":"23:59","feeInfo":"무료","phone":"054-639-6843","updatedAt":"2025-07-31","sido":"경상북도","sigungu":"영주시","dong":"휴천동"},{"name":"이산면사무소 인근 공영주차장","type":"공영","category":"노외","address":"경상북도 영주시 이산면 원리 446-1","lat":36.8216118715,"lng":128.6559875475,"totalSpaces":30,"isFree":true,"operatingDays":"평일+토요일+공휴일","weekdayOpen":"00:00","weekdayClose":"23:59","weekendOpen":"00:00","weekendClose":"23:59","holidayOpen":"00:00","holidayClose":"23:59","feeInfo":"무료","phone":"054-639-6843","updatedAt":"2025-07-31","sido":"경상북도","sigungu":"영주시","dong":"이산면"},{"name":"향교골 지구","type":"공영","category":"노외","address":"경상북도 영주시 하망동 157-4","lat":36.8293859388,"lng":128.6284693548,"totalSpaces":30,"isFree":true,"operatingDays":"평일+토요일+공휴일","weekdayOpen":"00:00","weekdayClose":"23:59","weekendOpen":"00:00","weekendClose":"23:59","holidayOpen":"00:00","holidayClose":"23:59","feeInfo":"무료","phone":"054-639-6843","updatedAt":"2025-07-31","sido":"경상북도","sigungu":"영주시","dong":"하망동"},{"name":"노상제8구간","type":"공영","category":"노상","address":"경상북도 영주시 휴천동 320-8","lat":36.81061432,"lng":128.623684,"totalSpaces":30,"isFree":true,"operatingDays":"평일+토요일+공휴일","weekdayOpen":"00:00","weekdayClose":"23:59","weekendOpen":"00:00","weekendClose":"23:59","holidayOpen":"00:00","holidayClose":"23:59","feeInfo":"무료","phone":"054-639-6843","updatedAt":"2025-07-31","sido":"경상북도","sigungu":"영주시","dong":"휴천동"},{"name":"휴천1동 공영주차장","type":"공영","category":"노외","address":"경상북도 영주시 휴천동 195-1(동부1차아파트 인근)","lat":36.8148486946,"lng":128.6295990272,"totalSpaces":30,"isFree":true,"operatingDays":"평일+토요일+공휴일","weekdayOpen":"00:00","weekdayClose":"23:59","weekendOpen":"00:00","weekendClose":"23:59","holidayOpen":"00:00","holidayClose":"23:59","feeInfo":"무료","phone":"054-639-6843","updatedAt":"2025-07-31","sido":"경상북도","sigungu":"영주시","dong":"휴천동"},{"name":"영주로 노상주차장 (하망동 성당 뒤편)","type":"공영","category":"노상","address":"경상북도 영주시 하망동 450-23","lat":36.8259873906,"lng":128.6294899352,"totalSpaces":28,"isFree":true,"operatingDays":"평일+토요일+공휴일","weekdayOpen":"00:00","weekdayClose":"23:59","weekendOpen":"00:00","weekendClose":"23:59","holidayOpen":"00:00","holidayClose":"23:59","feeInfo":"무료","phone":"054-639-6843","updatedAt":"2025-07-31","sido":"경상북도","sigungu":"영주시","dong":"하망동"},{"name":"대동로 노상주차장 (궁전맨션 뒤)","type":"공영","category":"노상","address":"경상북도 영주시 휴천동 726","lat":36.8151897912,"lng":128.6244725815,"totalSpaces":28,"isFree":true,"operatingDays":"평일+토요일+공휴일","weekdayOpen":"00:00","weekdayClose":"23:59","weekendOpen":"00:00","weekendClose":"23:59","holidayOpen":"00:00","holidayClose":"23:59","feeInfo":"무료","phone":"054-639-6843","updatedAt":"2025-07-31","sido":"경상북도","sigungu":"영주시","dong":"휴천동"},{"name":"대동로 노상주차장(벨리나웨딩↔남산초등 사거리)","type":"공영","category":"노상","address":"경상북도 영주시 휴천동 302-1","lat":36.81438625,"lng":128.6230017,"totalSpaces":26,"isFree":true,"operatingDays":"평일+토요일+공휴일","weekdayOpen":"00:00","weekdayClose":"23:59","weekendOpen":"00:00","weekendClose":"23:59","holidayOpen":"00:00","holidayClose":"23:59","feeInfo":"무료","phone":"054-639-6843","updatedAt":"2025-07-31","sido":"경상북도","sigungu":"영주시","dong":"휴천동"},{"name":"남산현대아파트 인근 공영주차장","type":"공영","category":"노외","address":"경상북도 영주시 휴천동 1777-4","lat":36.8051124031,"lng":128.6320166371,"totalSpaces":26,"isFree":true,"operatingDays":"평일+토요일+공휴일","weekdayOpen":"00:00","weekdayClose":"23:59","weekendOpen":"00:00","weekendClose":"23:59","holidayOpen":"00:00","holidayClose":"23:59","feeInfo":"무료","phone":"054-639-6843","updatedAt":"2025-07-31","sido":"경상북도","sigungu":"영주시","dong":"휴천동"},{"name":"봉현면 일원 공영주차장","type":"공영","category":"노외","address":"경상북도 영주시 봉현면 오현리 339-3","lat":36.86341464,"lng":128.5236975,"totalSpaces":26,"isFree":true,"operatingDays":"평일+토요일+공휴일","weekdayOpen":"00:00","weekdayClose":"23:59","weekendOpen":"00:00","weekendClose":"23:59","holidayOpen":"00:00","holidayClose":"23:59","feeInfo":"무료","phone":"054-639-6843","updatedAt":"2025-07-31","sido":"경상북도","sigungu":"영주시","dong":"봉현면"},{"name":"관사골 지구","type":"공영","category":"노외","address":"경상북도 영주시 영주동 158-1","lat":36.829162712,"lng":128.6193020962,"totalSpaces":26,"isFree":true,"operatingDays":"평일+토요일+공휴일","weekdayOpen":"00:00","weekdayClose":"23:59","weekendOpen":"00:00","weekendClose":"23:59","holidayOpen":"00:00","holidayClose":"23:59","feeInfo":"무료","phone":"054-639-6843","updatedAt":"2025-07-31","sido":"경상북도","sigungu":"영주시","dong":"영주동"},{"name":"하망동 공영주차장","type":"공영","category":"노외","address":"경상북도 영주시 하망동 335-6(YMCA앞)","lat":36.8242618597,"lng":128.6280444734,"totalSpaces":26,"isFree":true,"operatingDays":"평일+토요일+공휴일","weekdayOpen":"00:00","weekdayClose":"23:59","weekendOpen":"00:00","weekendClose":"23:59","holidayOpen":"00:00","holidayClose":"23:59","feeInfo":"무료","phone":"054-639-6843","updatedAt":"2025-07-31","sido":"경상북도","sigungu":"영주시","dong":"하망동"},{"name":"구공무원아파트주차장","type":"공영","category":"노외","address":"경상북도 영주시 하망동 202-7","lat":36.8312048761,"lng":128.6314940769,"totalSpaces":25,"isFree":true,"operatingDays":"평일+토요일+공휴일","weekdayOpen":"00:00","weekdayClose":"23:59","weekendOpen":"00:00","weekendClose":"23:59","holidayOpen":"00:00","holidayClose":"23:59","feeInfo":"무료","phone":"054-639-6843","updatedAt":"2025-07-31","sido":"경상북도","sigungu":"영주시","dong":"하망동"},{"name":"하망동 봉화삼거리 공영주차장","type":"공영","category":"노외","address":"경상북도 영주시 하망동 246-14","lat":36.8289625394,"lng":128.6334154954,"totalSpaces":24,"isFree":true,"operatingDays":"평일+토요일+공휴일","weekdayOpen":"00:00","weekdayClose":"23:59","weekendOpen":"00:00","weekendClose":"23:59","holidayOpen":"00:00","holidayClose":"23:59","feeInfo":"무료","phone":"054-639-6843","updatedAt":"2025-07-31","sido":"경상북도","sigungu":"영주시","dong":"하망동"},{"name":"문수면 적동리 인근 공영주차장","type":"공영","category":"노외","address":"경상북도 영주시 문수면 적동리 367-3","lat":36.7706516077,"lng":128.6307683068,"totalSpaces":23,"isFree":true,"operatingDays":"평일+토요일+공휴일","weekdayOpen":"00:00","weekdayClose":"23:59","weekendOpen":"00:00","weekendClose":"23:59","holidayOpen":"00:00","holidayClose":"23:59","feeInfo":"무료","phone":"054-639-6843","updatedAt":"2025-07-31","sido":"경상북도","sigungu":"영주시","dong":"문수면"},{"name":"원당로 노상주차장(봉화삼거리↔동부파출소)","type":"공영","category":"노상","address":"경상북도 영주시 상망동 861-13","lat":36.82941657,"lng":128.6352492,"totalSpaces":22,"isFree":true,"operatingDays":"평일+토요일+공휴일","weekdayOpen":"00:00","weekdayClose":"23:59","weekendOpen":"00:00","weekendClose":"23:59","holidayOpen":"00:00","holidayClose":"23:59","feeInfo":"무료","phone":"054-639-6843","updatedAt":"2025-07-31","sido":"경상북도","sigungu":"영주시","dong":"상망동"},{"name":"한정공원","type":"공영","category":"노외","address":"경상북도 영주시 문정동 706","lat":36.7985046143,"lng":128.6170097747,"totalSpaces":22,"isFree":true,"operatingDays":"평일+토요일+공휴일","weekdayOpen":"00:00","weekdayClose":"23:59","weekendOpen":"00:00","weekendClose":"23:59","holidayOpen":"00:00","holidayClose":"23:59","feeInfo":"무료","phone":"054-639-6843","updatedAt":"2025-07-31","sido":"경상북도","sigungu":"영주시","dong":"문정동"},{"name":"휴천2동 공영주차장","type":"공영","category":"노외","address":"경상북도 영주시 휴천동 489-3(홈플러스 뒤)","lat":36.8086068492,"lng":128.6223904732,"totalSpaces":20,"isFree":true,"operatingDays":"평일+토요일+공휴일","weekdayOpen":"00:00","weekdayClose":"23:59","weekendOpen":"00:00","weekendClose":"23:59","holidayOpen":"00:00","holidayClose":"23:59","feeInfo":"무료","phone":"054-639-6843","updatedAt":"2025-07-31","sido":"경상북도","sigungu":"영주시","dong":"휴천동"},{"name":"휴천3동 공영주차장","type":"공영","category":"노외","address":"경상북도 영주시 휴천동 642-1081(세무서사거리 및)","lat":36.8194354664,"lng":128.6215251472,"totalSpaces":20,"isFree":true,"operatingDays":"평일+토요일+공휴일","weekdayOpen":"00:00","weekdayClose":"23:59","weekendOpen":"00:00","weekendClose":"23:59","holidayOpen":"00:00","holidayClose":"23:59","feeInfo":"무료","phone":"054-639-6843","updatedAt":"2025-07-31","sido":"경상북도","sigungu":"영주시","dong":"휴천동"},{"name":"가흥동1945번지 주차장","type":"공영","category":"노외","address":"경상북도 영주시 가흥동 1945","lat":36.8122579694,"lng":128.6081824099,"totalSpaces":20,"isFree":true,"operatingDays":"평일+토요일+공휴일","weekdayOpen":"00:00","weekdayClose":"23:59","weekendOpen":"00:00","weekendClose":"23:59","holidayOpen":"00:00","holidayClose":"23:59","feeInfo":"무료","phone":"054-639-6843","updatedAt":"2025-07-31","sido":"경상북도","sigungu":"영주시","dong":"가흥동"},{"name":"부석면 일원 공영주차장","type":"공영","category":"노외","address":"경상북도 영주시 부석면 소천리 385-3","lat":36.9797103264,"lng":128.6561211494,"totalSpaces":20,"isFree":true,"operatingDays":"평일+토요일+공휴일","weekdayOpen":"00:00","weekdayClose":"23:59","weekendOpen":"00:00","weekendClose":"23:59","holidayOpen":"00:00","holidayClose":"23:59","feeInfo":"무료","phone":"054-639-6843","updatedAt":"2025-07-31","sido":"경상북도","sigungu":"영주시","dong":"부석면"},{"name":"신사골 지구","type":"공영","category":"노외","address":"경상북도 영주시 영주동 19-101","lat":36.8305436163,"lng":128.62546739,"totalSpaces":18,"isFree":true,"operatingDays":"평일+토요일+공휴일","weekdayOpen":"00:00","weekdayClose":"23:59","weekendOpen":"00:00","weekendClose":"23:59","holidayOpen":"00:00","holidayClose":"23:59","feeInfo":"무료","phone":"054-639-6843","updatedAt":"2025-07-31","sido":"경상북도","sigungu":"영주시","dong":"영주동"},{"name":"지천로 노상주차장(남부육거리↔현대1차아파트)","type":"공영","category":"노상","address":"경상북도 영주시 휴천동 563","lat":36.805085629,"lng":128.6190861328,"totalSpaces":16,"isFree":true,"operatingDays":"평일+토요일+공휴일","weekdayOpen":"00:00","weekdayClose":"23:59","weekendOpen":"00:00","weekendClose":"23:59","holidayOpen":"00:00","holidayClose":"23:59","feeInfo":"무료","phone":"054-639-6843","updatedAt":"2025-07-31","sido":"경상북도","sigungu":"영주시","dong":"휴천동"},{"name":"하망동 제5공영 주차장","type":"공영","category":"노외","address":"경상북도 영주시 하망동 328-11(팡팡가요주점 뒤편)","lat":36.8247898913,"lng":128.6267689882,"totalSpaces":16,"isFree":true,"operatingDays":"평일+토요일+공휴일","weekdayOpen":"00:00","weekdayClose":"23:59","weekendOpen":"00:00","weekendClose":"23:59","holidayOpen":"00:00","holidayClose":"23:59","feeInfo":"무료","phone":"054-639-6843","updatedAt":"2025-07-31","sido":"경상북도","sigungu":"영주시","dong":"하망동"},{"name":"가흥2동 공영주차장","type":"공영","category":"노외","address":"경상북도 영주시 가흥동 465-3(가흥2동 주민센터 앞)","lat":36.8290709992,"lng":128.6115992426,"totalSpaces":16,"isFree":true,"operatingDays":"평일+토요일+공휴일","weekdayOpen":"00:00","weekdayClose":"23:59","weekendOpen":"00:00","weekendClose":"23:59","holidayOpen":"00:00","holidayClose":"23:59","feeInfo":"무료","phone":"054-639-6843","updatedAt":"2025-07-31","sido":"경상북도","sigungu":"영주시","dong":"가흥동"},{"name":"구도립도서관 인근 공영주차장","type":"공영","category":"노외","address":"경상북도 영주시 가흥동 26-9","lat":36.8198254243,"lng":128.6169797822,"totalSpaces":13,"isFree":true,"operatingDays":"평일+토요일+공휴일","weekdayOpen":"00:00","weekdayClose":"23:59","weekendOpen":"00:00","weekendClose":"23:59","holidayOpen":"00:00","holidayClose":"23:59","feeInfo":"무료","phone":"054-639-6843","updatedAt":"2025-07-31","sido":"경상북도","sigungu":"영주시","dong":"가흥동"},{"name":"풍기읍 공영주차장","type":"공영","category":"노외","address":"경상북도 영주시 풍기읍 동부리 493-21","lat":36.8684121424,"lng":128.5326381148,"totalSpaces":13,"isFree":true,"operatingDays":"평일+토요일+공휴일","weekdayOpen":"00:00","weekdayClose":"23:59","weekendOpen":"00:00","weekendClose":"23:59","holidayOpen":"00:00","holidayClose":"23:59","feeInfo":"무료","phone":"054-639-6843","updatedAt":"2025-07-31","sido":"경상북도","sigungu":"영주시","dong":"풍기읍"},{"name":"풍기홈마트부근","type":"공영","category":"노상","address":"경상북도 영주시 풍기읍 성내리 112-1","lat":36.86888781,"lng":128.5243669,"totalSpaces":12,"isFree":true,"operatingDays":"평일+토요일+공휴일","weekdayOpen":"00:00","weekdayClose":"23:59","weekendOpen":"00:00","weekendClose":"23:59","holidayOpen":"00:00","holidayClose":"23:59","feeInfo":"무료","phone":"054-639-6843","updatedAt":"2025-07-31","sido":"경상북도","sigungu":"영주시","dong":"풍기읍"},{"name":"신도시 정도너츠 인근 주차장","type":"공영","category":"노외","address":"경상북도 영주시 가흥동 1813","lat":36.8137926334,"lng":128.6062805984,"totalSpaces":12,"isFree":true,"operatingDays":"평일+토요일+공휴일","weekdayOpen":"00:00","weekdayClose":"23:59","weekendOpen":"00:00","weekendClose":"23:59","holidayOpen":"00:00","holidayClose":"23:59","feeInfo":"무료","phone":"054-639-6843","updatedAt":"2025-07-31","sido":"경상북도","sigungu":"영주시","dong":"가흥동"},{"name":"휴천3동 공영주차장","type":"공영","category":"노외","address":"경상북도 영주시 휴천동 666-21(휴천3동주민센터 인근)","lat":36.8175554098,"lng":128.6256733183,"totalSpaces":12,"isFree":true,"operatingDays":"평일+토요일+공휴일","weekdayOpen":"00:00","weekdayClose":"23:59","weekendOpen":"00:00","weekendClose":"23:59","holidayOpen":"00:00","holidayClose":"23:59","feeInfo":"무료","phone":"054-639-6843","updatedAt":"2025-07-31","sido":"경상북도","sigungu":"영주시","dong":"휴천동"},{"name":"풍기 성동상가앞 주차장","type":"공영","category":"노외","address":"경상북도 영주시 풍기읍 성내리 14","lat":36.8705878819,"lng":128.5266205794,"totalSpaces":11,"isFree":true,"operatingDays":"평일+토요일+공휴일","weekdayOpen":"00:00","weekdayClose":"23:59","weekendOpen":"00:00","weekendClose":"23:59","holidayOpen":"00:00","holidayClose":"23:59","feeInfo":"무료","phone":"054-639-6843","updatedAt":"2025-07-31","sido":"경상북도","sigungu":"영주시","dong":"풍기읍"},{"name":"가흥2동 공영주차장","type":"공영","category":"노외","address":"경상북도 영주시 가흥동 522-50(화성리버빌 앞)","lat":36.8330138013,"lng":128.6126402279,"totalSpaces":11,"isFree":true,"operatingDays":"평일+토요일+공휴일","weekdayOpen":"00:00","weekdayClose":"23:59","weekendOpen":"00:00","weekendClose":"23:59","holidayOpen":"00:00","holidayClose":"23:59","feeInfo":"무료","phone":"054-639-6843","updatedAt":"2025-07-31","sido":"경상북도","sigungu":"영주시","dong":"가흥동"},{"name":"중앙로 노상주차장(영주동298-22앞-흥법사포교당뒤편)","type":"공영","category":"노상","address":"경상북도 영주시 영주동298-22","lat":36.8238262111,"lng":128.6210285759,"totalSpaces":10,"isFree":true,"operatingDays":"평일+토요일+공휴일","weekdayOpen":"00:00","weekdayClose":"23:59","weekendOpen":"00:00","weekendClose":"23:59","holidayOpen":"00:00","holidayClose":"23:59","feeInfo":"무료","phone":"054-639-6843","updatedAt":"2025-07-31","sido":"경상북도","sigungu":"영주시","dong":""},{"name":"소수박물관 주차장","type":"공영","category":"노외","address":"경상북도 영주시 순흥면 청구리 346","lat":36.9259235239,"lng":128.5823119896,"totalSpaces":10,"isFree":true,"operatingDays":"평일+토요일+공휴일","weekdayOpen":"00:00","weekdayClose":"23:59","weekendOpen":"00:00","weekendClose":"23:59","holidayOpen":"00:00","holidayClose":"23:59","feeInfo":"무료","phone":"054-639-6843","updatedAt":"2025-07-31","sido":"경상북도","sigungu":"영주시","dong":"순흥면"},{"name":"상망동 공영주차장","type":"공영","category":"노외","address":"경상북도 영주시 하망동 223-15","lat":36.8289679894,"lng":128.6313050017,"totalSpaces":8,"isFree":true,"operatingDays":"평일+토요일+공휴일","weekdayOpen":"00:00","weekdayClose":"23:59","weekendOpen":"00:00","weekendClose":"23:59","holidayOpen":"00:00","holidayClose":"23:59","feeInfo":"무료","phone":"054-639-6843","updatedAt":"2025-07-31","sido":"경상북도","sigungu":"영주시","dong":"하망동"},{"name":"휴천1동 공영주차장","type":"공영","category":"노외","address":"경상북도 영주시 휴천동 122-5(세림빌라 인근)","lat":36.8178153584,"lng":128.6306803017,"totalSpaces":8,"isFree":true,"operatingDays":"평일+토요일+공휴일","weekdayOpen":"00:00","weekdayClose":"23:59","weekendOpen":"00:00","weekendClose":"23:59","holidayOpen":"00:00","holidayClose":"23:59","feeInfo":"무료","phone":"054-639-6843","updatedAt":"2025-07-31","sido":"경상북도","sigungu":"영주시","dong":"휴천동"},{"name":"명륜길 노상주차장(하망동137-12-상망동안양원)","type":"공영","category":"노상","address":"경상북도 영주시 하망동137-12","lat":36.8298233976,"lng":128.6278650896,"totalSpaces":7,"isFree":true,"operatingDays":"평일+토요일+공휴일","weekdayOpen":"00:00","weekdayClose":"23:59","weekendOpen":"00:00","weekendClose":"23:59","holidayOpen":"00:00","holidayClose":"23:59","feeInfo":"무료","phone":"054-639-6843","updatedAt":"2025-07-31","sido":"경상북도","sigungu":"영주시","dong":""},{"name":"휴천2동 공영주차장","type":"공영","category":"노외","address":"경상북도 영주시 휴천동 458-11(현대1차 아파트 옆)","lat":36.8049413054,"lng":128.6210029426,"totalSpaces":6,"isFree":true,"operatingDays":"평일+토요일+공휴일","weekdayOpen":"00:00","weekdayClose":"23:59","weekendOpen":"00:00","weekendClose":"23:59","holidayOpen":"00:00","holidayClose":"23:59","feeInfo":"무료","phone":"054-639-6843","updatedAt":"2025-07-31","sido":"경상북도","sigungu":"영주시","dong":"휴천동"},{"name":"영주2동 공영주차장","type":"공영","category":"노외","address":"경상북도 영주시 영주동 470-235(서부파출소)","lat":36.82285324,"lng":128.6178951,"totalSpaces":4,"isFree":true,"operatingDays":"평일+토요일+공휴일","weekdayOpen":"00:00","weekdayClose":"23:59","weekendOpen":"00:00","weekendClose":"23:59","holidayOpen":"00:00","holidayClose":"23:59","feeInfo":"무료","phone":"054-639-6843","updatedAt":"2025-07-31","sido":"경상북도","sigungu":"영주시","dong":"영주동"},{"name":"부석사 주차장","type":"공영","category":"노외","address":"경상북도 영주시 부석면 북지리 301-1","lat":36.9941777301,"lng":128.6802569689,"totalSpaces":400,"isFree":false,"operatingDays":"평일+토요일+공휴일","weekdayOpen":"00:00","weekdayClose":"23:59","weekendOpen":"00:00","weekendClose":"23:59","holidayOpen":"00:00","holidayClose":"23:59","feeInfo":"기본 540분 3,000원 / 추가 0분당 0원","phone":"054-639-6663","updatedAt":"2025-07-31","sido":"경상북도","sigungu":"영주시","dong":"부석면"},{"name":"하망동 공설시장 주차타워","type":"공영","category":"노외","address":"경상북도 영주시 하망동 548-13","lat":36.8222957,"lng":128.6254774,"totalSpaces":180,"isFree":false,"operatingDays":"평일+토요일+공휴일","weekdayOpen":"00:00","weekdayClose":"23:59","weekendOpen":"00:00","weekendClose":"23:59","holidayOpen":"00:00","holidayClose":"23:59","feeInfo":"기본 1440분 0원","phone":"054-639-6152","updatedAt":"2025-07-31","sido":"경상북도","sigungu":"영주시","dong":"하망동"},{"name":"영주종합터미널공영주차장","type":"공영","category":"노외","address":"경상북도 영주시 가흥동 671-2","lat":36.8271701604,"lng":128.6052794514,"totalSpaces":128,"isFree":false,"operatingDays":"평일+토요일+공휴일","weekdayOpen":"00:00","weekdayClose":"23:59","weekendOpen":"00:00","weekendClose":"23:59","holidayOpen":"00:00","holidayClose":"23:59","feeInfo":"기본 30분 500원 / 추가 30분당 500원","phone":"054-639-6843","updatedAt":"2025-07-31","sido":"경상북도","sigungu":"영주시","dong":"가흥동"},{"name":"노상제7구간","type":"공영","category":"노상","address":"경상북도 영주시 휴천동 257","lat":36.81040487,"lng":128.6249671,"totalSpaces":81,"isFree":false,"operatingDays":"평일+토요일","weekdayOpen":"00:00","weekdayClose":"23:59","weekendOpen":"00:00","weekendClose":"23:59","holidayOpen":"00:00","holidayClose":"00:00","feeInfo":"기본 30분 500원 / 추가 30분당 500원","phone":"054-639-6843","updatedAt":"2025-07-31","sido":"경상북도","sigungu":"영주시","dong":"휴천동"},{"name":"노상제4구간","type":"공영","category":"노상","address":"경상북도 영주시 영주동 547-2","lat":36.8253056806,"lng":128.6209383209,"totalSpaces":76,"isFree":false,"operatingDays":"평일+토요일","weekdayOpen":"00:00","weekdayClose":"23:59","weekendOpen":"00:00","weekendClose":"23:59","holidayOpen":"00:00","holidayClose":"00:00","feeInfo":"기본 30분 500원 / 추가 30분당 500원","phone":"054-639-6843","updatedAt":"2025-07-31","sido":"경상북도","sigungu":"영주시","dong":"영주동"},{"name":"영주동 골목시장 주차장","type":"공영","category":"노외","address":"경상북도 영주시 영주동 321-10","lat":36.8255424268,"lng":128.6230765771,"totalSpaces":70,"isFree":false,"operatingDays":"평일+토요일+공휴일","weekdayOpen":"00:00","weekdayClose":"23:59","weekendOpen":"00:00","weekendClose":"23:59","holidayOpen":"00:00","holidayClose":"23:59","feeInfo":"기본 1440분 0원","phone":"054-639-6152","updatedAt":"2025-07-31","sido":"경상북도","sigungu":"영주시","dong":"영주동"},{"name":"노상제6구간","type":"공영","category":"노상","address":"경상북도 영주시 휴천동 642-483","lat":36.81420337,"lng":128.6218772,"totalSpaces":51,"isFree":false,"operatingDays":"평일+토요일","weekdayOpen":"00:00","weekdayClose":"23:59","weekendOpen":"00:00","weekendClose":"23:59","holidayOpen":"00:00","holidayClose":"00:00","feeInfo":"기본 30분 500원 / 추가 30분당 500원","phone":"054-639-6843","updatedAt":"2025-07-31","sido":"경상북도","sigungu":"영주시","dong":"휴천동"},{"name":"노상제2구간","type":"공영","category":"노상","address":"경상북도 영주시 하망동 321-9","lat":36.82697642,"lng":128.6263341,"totalSpaces":43,"isFree":false,"operatingDays":"평일+토요일","weekdayOpen":"00:00","weekdayClose":"23:59","weekendOpen":"00:00","weekendClose":"23:59","holidayOpen":"00:00","holidayClose":"00:00","feeInfo":"기본 30분 500원 / 추가 30분당 500원","phone":"054-639-6843","updatedAt":"2025-07-31","sido":"경상북도","sigungu":"영주시","dong":"하망동"},{"name":"하망동 3공영 주차장","type":"공영","category":"노외","address":"경상북도 영주시 하망동 326-10(서울산부인과 건너)","lat":36.8251907136,"lng":128.626362444,"totalSpaces":37,"isFree":false,"operatingDays":"평일+토요일","weekdayOpen":"00:00","weekdayClose":"23:59","weekendOpen":"00:00","weekendClose":"23:59","holidayOpen":"00:00","holidayClose":"00:00","feeInfo":"기본 30분 500원 / 추가 30분당 500원","phone":"054-639-6843","updatedAt":"2025-07-31","sido":"경상북도","sigungu":"영주시","dong":"하망동"},{"name":"노상제5구간","type":"공영","category":"노상","address":"경상북도 영주시 영주동 424-9","lat":36.820604,"lng":128.6216223,"totalSpaces":36,"isFree":false,"operatingDays":"평일+토요일","weekdayOpen":"00:00","weekdayClose":"23:59","weekendOpen":"00:00","weekendClose":"23:59","holidayOpen":"00:00","holidayClose":"00:00","feeInfo":"기본 30분 500원 / 추가 30분당 500원","phone":"054-639-6843","updatedAt":"2025-07-31","sido":"경상북도","sigungu":"영주시","dong":"영주동"},{"name":"노상제1구간","type":"공영","category":"노상","address":"경상북도 영주시 영주동 26","lat":36.82877622,"lng":128.6253863,"totalSpaces":15,"isFree":false,"operatingDays":"평일+토요일","weekdayOpen":"00:00","weekdayClose":"23:59","weekendOpen":"00:00","weekendClose":"23:59","holidayOpen":"00:00","holidayClose":"00:00","feeInfo":"기본 30분 500원 / 추가 30분당 500원","phone":"054-639-6843","updatedAt":"2025-07-31","sido":"경상북도","sigungu":"영주시","dong":"영주동"},{"name":"노상제3구간","type":"공영","category":"노상","address":"경상북도 영주시 하망동 343-12","lat":36.82396204,"lng":128.6256471,"totalSpaces":12,"isFree":false,"operatingDays":"평일+토요일","weekdayOpen":"00:00","weekdayClose":"23:59","weekendOpen":"00:00","weekendClose":"23:59","holidayOpen":"00:00","holidayClose":"00:00","feeInfo":"기본 30분 500원 / 추가 30분당 500원","phone":"054-639-6843","updatedAt":"2025-07-31","sido":"경상북도","sigungu":"영주시","dong":"하망동"}]}