{"sido":"경상북도","sigungu":"영양군","totalCount":24,"validCount":24,"items":[{"name":"영양군청 주차장","type":"공영","category":"부설","address":"경상북도 영양군 영양읍 군청길 37","lat":36.66735774,"lng":129.1126844,"totalSpaces":146,"isFree":true,"operatingDays":"평일+토요일+공휴일","weekdayOpen":"00:00","weekdayClose":"23:59","weekendOpen":"00:00","weekendClose":"23:59","holidayOpen":"00:00","holidayClose":"23:59","feeInfo":"무료","phone":"054-680-6222","updatedAt":"2025-12-11","sido":"경상북도","sigungu":"영양군","dong":"영양읍"},{"name":"농업기술센터","type":"공영","category":"부설","address":"경상북도 영양군 영양읍 영양창수로 339","lat":36.655339,"lng":129.147918,"totalSpaces":125,"isFree":true,"operatingDays":"평일+토요일+공휴일","weekdayOpen":"09:00","weekdayClose":"23:59","weekendOpen":"09:00","weekendClose":"23:59","holidayOpen":"09:00","holidayClose":"23:59","feeInfo":"무료","phone":"054-680-5212","updatedAt":"2025-12-11","sido":"경상북도","sigungu":"영양군","dong":"영양읍"},{"name":"영양군민회관","type":"공영","category":"부설","address":"경상북도 영양군 영양읍 군민회관길 46","lat":36.65978281,"lng":129.1170133,"totalSpaces":85,"isFree":true,"operatingDays":"평일+토요일+공휴일","weekdayOpen":"00:00","weekdayClose":"23:59","weekendOpen":"00:00","weekendClose":"23:59","holidayOpen":"00:00","holidayClose":"23:59","feeInfo":"무료","phone":"054-680-6453","updatedAt":"2025-12-11","sido":"경상북도","sigungu":"영양군","dong":"영양읍"},{"name":"영양군민체육센터","type":"공영","category":"부설","address":"경상북도 영양군 영양읍 군민회관길 70","lat":36.658942,"lng":129.116877,"totalSpaces":79,"isFree":true,"operatingDays":"평일+토요일+공휴일","weekdayOpen":"00:00","weekdayClose":"23:59","weekendOpen":"00:00","weekendClose":"23:59","holidayOpen":"00:00","holidayClose":"23:59","feeInfo":"무료","phone":"054-680-6453","updatedAt":"2025-12-11","sido":"경상북도","sigungu":"영양군","dong":"영양읍"},{"name":"주실마을주차장","type":"공영","category":"노외","address":"경상북도 영양군 일월면 주곡리 549-3","lat":36.7191563,"lng":129.0967466,"totalSpaces":68,"isFree":true,"operatingDays":"평일+토요일+공휴일","weekdayOpen":"00:00","weekdayClose":"23:59","weekendOpen":"00:00","weekendClose":"23:59","holidayOpen":"00:00","holidayClose":"23:59","feeInfo":"무료","phone":"054-680-6431","updatedAt":"2025-12-11","sido":"경상북도","sigungu":"영양군","dong":"일월면"},{"name":"선바위관광지","type":"공영","category":"부설","address":"경상북도 영양군 입암면 영양로 883-16","lat":36.608537,"lng":129.082023,"totalSpaces":57,"isFree":true,"operatingDays":"평일+토요일+공휴일","weekdayOpen":"00:00","weekdayClose":"23:59","weekendOpen":"00:00","weekendClose":"23:59","holidayOpen":"00:00","holidayClose":"23:59","feeInfo":"무료","phone":"054-680-5372","updatedAt":"2025-12-11","sido":"경상북도","sigungu":"영양군","dong":"입암면"},{"name":"영양반딧불이 생태공원","type":"공영","category":"부설","address":"경상북도 영양군 수비면 반딧불이로 129","lat":36.830693,"lng":129.270169,"totalSpaces":52,"isFree":true,"operatingDays":"평일+토요일+공휴일","weekdayOpen":"00:00","weekdayClose":"23:59","weekendOpen":"00:00","weekendClose":"23:59","holidayOpen":"00:00","holidayClose":"23:59","feeInfo":"무료","phone":"054-680-5334","updatedAt":"2025-12-11","sido":"경상북도","sigungu":"영양군","dong":"수비면"},{"name":"청소년수련원","type":"공영","category":"부설","address":"경상북도 영양군 수비면 반딧불이로 227","lat":36.838397,"lng":129.269422,"totalSpaces":48,"isFree":true,"operatingDays":"평일+토요일+공휴일","weekdayOpen":"00:00","weekdayClose":"23:59","weekendOpen":"00:00","weekendClose":"23:59","holidayOpen":"00:00","holidayClose":"23:59","feeInfo":"무료","phone":"054-680-5324","updatedAt":"2025-12-11","sido":"경상북도","sigungu":"영양군","dong":"수비면"},{"name":"산촌생활박물관 주차장","type":"공영","category":"부설","address":"경상북도 영양군 입암면 영양로 963","lat":36.615803,"lng":129.084696,"totalSpaces":45,"isFree":true,"operatingDays":"평일+토요일+공휴일","weekdayOpen":"00:00","weekdayClose":"23:59","weekendOpen":"00:00","weekendClose":"23:59","holidayOpen":"00:00","holidayClose":"23:59","feeInfo":"무료","phone":"054-680-5361","updatedAt":"2025-12-11","sido":"경상북도","sigungu":"영양군","dong":"입암면"},{"name":"영양행정복지센터","type":"공영","category":"부설","address":"경상북도 영양군 영양읍 군청길 53","lat":36.66716018,"lng":129.1141042,"totalSpaces":40,"isFree":true,"operatingDays":"평일+토요일+공휴일","weekdayOpen":"00:00","weekdayClose":"23:59","weekendOpen":"00:00","weekendClose":"23:59","holidayOpen":"00:00","holidayClose":"23:59","feeInfo":"무료","phone":"054-680-5411","updatedAt":"2025-12-11","sido":"경상북도","sigungu":"영양군","dong":"영양읍"},{"name":"보건소","type":"공영","category":"부설","address":"경상북도 영양군 영양읍 동서대로 82","lat":36.66194441,"lng":129.118027,"totalSpaces":30,"isFree":true,"operatingDays":"평일+토요일+공휴일","weekdayOpen":"00:00","weekdayClose":"23:59","weekendOpen":"00:00","weekendClose":"23:59","holidayOpen":"00:00","holidayClose":"23:59","feeInfo":"무료","phone":"054-680-5112","updatedAt":"2025-12-11","sido":"경상북도","sigungu":"영양군","dong":"영양읍"},{"name":"입암행정복지센터","type":"공영","category":"부설","address":"경상북도 영양군 입암면 조기리길 10","lat":36.59305783,"lng":129.090267,"totalSpaces":30,"isFree":true,"operatingDays":"평일+토요일+공휴일","weekdayOpen":"00:00","weekdayClose":"23:59","weekendOpen":"00:00","weekendClose":"23:59","holidayOpen":"00:00","holidayClose":"23:59","feeInfo":"무료","phone":"054-680-5512","updatedAt":"2025-12-11","sido":"경상북도","sigungu":"영양군","dong":"입암면"},{"name":"입암면복지회관건너편","type":"공영","category":"부설","address":"경상북도 영양군 입암면 조기리길 18","lat":36.59418413,"lng":129.0903656,"totalSpaces":26,"isFree":true,"operatingDays":"평일+토요일+공휴일","weekdayOpen":"00:00","weekdayClose":"23:59","weekendOpen":"00:00","weekendClose":"23:59","holidayOpen":"00:00","holidayClose":"23:59","feeInfo":"무료","phone":"054-680-5512","updatedAt":"2025-12-11","sido":"경상북도","sigungu":"영양군","dong":"입암면"},{"name":"영양문화원","type":"공영","category":"부설","address":"경상북도 영양군 영양읍 군민회관길 7","lat":36.663469,"lng":129.117524,"totalSpaces":24,"isFree":true,"operatingDays":"평일+토요일+공휴일","weekdayOpen":"00:00","weekdayClose":"23:59","weekendOpen":"00:00","weekendClose":"23:59","holidayOpen":"00:00","holidayClose":"23:59","feeInfo":"무료","phone":"054-680-6462","updatedAt":"2025-12-11","sido":"경상북도","sigungu":"영양군","dong":"영양읍"},{"name":"연당서석지 주차장","type":"공영","category":"노외","address":"경상북도 영양군 입암면 서석지1길 10","lat":36.61195684,"lng":129.0696114,"totalSpaces":23,"isFree":true,"operatingDays":"평일+토요일+공휴일","weekdayOpen":"00:00","weekdayClose":"23:59","weekendOpen":"00:00","weekendClose":"23:59","holidayOpen":"00:00","holidayClose":"23:59","feeInfo":"무료","phone":"054-680-6421","updatedAt":"2025-12-11","sido":"경상북도","sigungu":"영양군","dong":"입암면"},{"name":"두들마을 주차장","type":"공영","category":"노외","address":"경상북도 영양군 석보면 원리리 331-3","lat":36.55923178,"lng":129.1269268,"totalSpaces":23,"isFree":true,"operatingDays":"평일+토요일+공휴일","weekdayOpen":"00:00","weekdayClose":"23:59","weekendOpen":"00:00","weekendClose":"23:59","holidayOpen":"00:00","holidayClose":"23:59","feeInfo":"무료","phone":"054-680-6442","updatedAt":"2025-12-11","sido":"경상북도","sigungu":"영양군","dong":"석보면"},{"name":"석보행정복지센터","type":"공영","category":"부설","address":"경상북도 영양군 석보면 원리3길 19","lat":36.55793456,"lng":129.1242948,"totalSpaces":22,"isFree":true,"operatingDays":"평일+토요일+공휴일","weekdayOpen":"00:00","weekdayClose":"23:59","weekendOpen":"00:00","weekendClose":"23:59","holidayOpen":"00:00","holidayClose":"23:59","feeInfo":"무료","phone":"054-680-5913","updatedAt":"2025-12-11","sido":"경상북도","sigungu":"영양군","dong":"석보면"},{"name":"일월행정복지센터","type":"공영","category":"부설","address":"경상북도 영양군 일월면 영양로 2419","lat":36.702374,"lng":129.128765,"totalSpaces":20,"isFree":true,"operatingDays":"평일+토요일+공휴일","weekdayOpen":"00:00","weekdayClose":"23:59","weekendOpen":"00:00","weekendClose":"23:59","holidayOpen":"00:00","holidayClose":"23:59","feeInfo":"무료","phone":"054-680-5714","updatedAt":"2025-12-11","sido":"경상북도","sigungu":"영양군","dong":"일월면"},{"name":"수비행정복지센터","type":"공영","category":"부설","address":"경상북도 영양군 수비면 한티로 503","lat":36.765217,"lng":129.202568,"totalSpaces":18,"isFree":true,"operatingDays":"평일+토요일+공휴일","weekdayOpen":"00:00","weekdayClose":"23:59","weekendOpen":"00:00","weekendClose":"23:59","holidayOpen":"00:00","holidayClose":"23:59","feeInfo":"무료","phone":"054-680-5811","updatedAt":"2025-12-11","sido":"경상북도","sigungu":"영양군","dong":"수비면"},{"name":"청기면사무소주차장","type":"공영","category":"부설","address":"경상북도 영양군 청기면 청기1길 9-6","lat":36.661414,"lng":129.062462,"totalSpaces":17,"isFree":true,"operatingDays":"평일+토요일+공휴일","weekdayOpen":"06:00","weekdayClose":"23:59","weekendOpen":"06:00","weekendClose":"23:59","holidayOpen":"06:00","holidayClose":"23:59","feeInfo":"무료","phone":"054-680-5613","updatedAt":"2025-12-11","sido":"경상북도","sigungu":"영양군","dong":"청기면"},{"name":"청기면복지회관주차장","type":"공영","category":"부설","address":"경상북도 영양군 청기면 청기로 1139","lat":36.660875,"lng":129.063304,"totalSpaces":15,"isFree":true,"operatingDays":"평일+토요일+공휴일","weekdayOpen":"06:00","weekdayClose":"23:59","weekendOpen":"06:00","weekendClose":"23:59","holidayOpen":"06:00","holidayClose":"23:59","feeInfo":"무료","phone":"054-680-5613","updatedAt":"2025-12-11","sido":"경상북도","sigungu":"영양군","dong":"청기면"},{"name":"입암면복지회관","type":"공영","category":"부설","address":"경상북도 영양군 입암면 조기리길 18","lat":36.594105,"lng":129.090393,"totalSpaces":11,"isFree":true,"operatingDays":"평일+토요일+공휴일","weekdayOpen":"00:00","weekdayClose":"23:59","weekendOpen":"00:00","weekendClose":"23:59","holidayOpen":"00:00","holidayClose":"23:59","feeInfo":"무료","phone":"054-680-5512","updatedAt":"2025-12-11","sido":"경상북도","sigungu":"영양군","dong":"입암면"},{"name":"전통시장 주차장","type":"공영","category":"부설","address":"경상북도 영양군 영양읍 시장 6길 1-6","lat":36.66423521,"lng":129.1165135,"totalSpaces":10,"isFree":true,"operatingDays":"평일+토요일+공휴일","weekdayOpen":"00:00","weekdayClose":"23:59","weekendOpen":"00:00","weekendClose":"23:59","holidayOpen":"00:00","holidayClose":"23:59","feeInfo":"무료","phone":"054-680-6323","updatedAt":"2025-12-11","sido":"경상북도","sigungu":"영양군","dong":"영양읍"},{"name":"조지훈문학관","type":"공영","category":"부설","address":"경상북도 영양군 일월면 주실길 55","lat":36.718679,"lng":129.102553,"totalSpaces":10,"isFree":true,"operatingDays":"평일+토요일+공휴일","weekdayOpen":"00:00","weekdayClose":"23:59","weekendOpen":"00:00","weekendClose":"23:59","holidayOpen":"00:00","holidayClose":"23:59","feeInfo":"무료","phone":"054-680-6431","updatedAt":"2025-12-11","sido":"경상북도","sigungu":"영양군","dong":"일월면"}]}