{"sido":"강원도","sigungu":"평창군","totalCount":107,"validCount":107,"items":[{"name":"남안교위 둔치 주차장","type":"공영","category":"노외","address":"강원도 평창군 봉평면 기풍3길 3","lat":37.61522423,"lng":128.3748141,"totalSpaces":420,"isFree":true,"operatingDays":"평일+토요일+공휴일","weekdayOpen":"00:00","weekdayClose":"23:59","weekendOpen":"00:00","weekendClose":"23:59","holidayOpen":"00:00","holidayClose":"23:59","feeInfo":"무료","phone":"033-330-2285","updatedAt":"2022-09-27","sido":"강원도","sigungu":"평창군","dong":"봉평면"},{"name":"천변리 주차장","type":"공영","category":"노외","address":"강원도 평창군 평창읍 천변길 56","lat":37.3664892,"lng":128.3985184,"totalSpaces":230,"isFree":true,"operatingDays":"평일+토요일+공휴일","weekdayOpen":"00:00","weekdayClose":"23:59","weekendOpen":"00:00","weekendClose":"23:59","holidayOpen":"00:00","holidayClose":"23:59","feeInfo":"무료","phone":"033-330-2285","updatedAt":"2022-09-27","sido":"강원도","sigungu":"평창군","dong":"평창읍"},{"name":"중앙로 노상주차장","type":"공영","category":"노상","address":"강원도 평창군 진부면 진부중앙로 94","lat":37.6392384,"lng":128.5607073,"totalSpaces":187,"isFree":true,"operatingDays":"평일+토요일+공휴일","weekdayOpen":"00:00","weekdayClose":"23:59","weekendOpen":"00:00","weekendClose":"23:59","holidayOpen":"00:00","holidayClose":"23:59","feeInfo":"무료","phone":"033-330-2285","updatedAt":"2022-09-27","sido":"강원도","sigungu":"평창군","dong":"진부면"},{"name":"장터주차장","type":"공영","category":"노외","address":"강원도 평창군 봉평면 기풍3길 19","lat":37.61519852,"lng":128.3763936,"totalSpaces":170,"isFree":true,"operatingDays":"평일+토요일+공휴일","weekdayOpen":"00:00","weekdayClose":"23:59","weekendOpen":"00:00","weekendClose":"23:59","holidayOpen":"00:00","holidayClose":"23:59","feeInfo":"무료","phone":"033-330-2285","updatedAt":"2022-09-27","sido":"강원도","sigungu":"평창군","dong":"봉평면"},{"name":"오대천둔치주차장","type":"공영","category":"노외","address":"강원도 평창군 진부면 경강로 3554","lat":37.63212044,"lng":128.5564901,"totalSpaces":167,"isFree":true,"operatingDays":"평일+토요일+공휴일","weekdayOpen":"00:00","weekdayClose":"23:59","weekendOpen":"00:00","weekendClose":"23:59","holidayOpen":"00:00","holidayClose":"23:59","feeInfo":"무료","phone":"033-330-2285","updatedAt":"2022-09-27","sido":"강원도","sigungu":"평창군","dong":"진부면"},{"name":"진부주공아파트 앞 주차장","type":"공영","category":"노외","address":"강원도 평창군 진부면 경강로 3587","lat":37.63533428,"lng":128.5578984,"totalSpaces":166,"isFree":true,"operatingDays":"평일+토요일+공휴일","weekdayOpen":"00:00","weekdayClose":"23:59","weekendOpen":"00:00","weekendClose":"23:59","holidayOpen":"00:00","holidayClose":"23:59","feeInfo":"무료","phone":"033-330-2285","updatedAt":"2022-09-27","sido":"강원도","sigungu":"평창군","dong":"진부면"},{"name":"횡계초등학교 앞 주차장","type":"공영","category":"노외","address":"강원도 평창군 대관령면 꽃밭양지길 16-3","lat":37.67651721,"lng":128.7118375,"totalSpaces":110,"isFree":true,"operatingDays":"평일+토요일+공휴일","weekdayOpen":"00:00","weekdayClose":"23:59","weekendOpen":"00:00","weekendClose":"23:59","holidayOpen":"00:00","holidayClose":"23:59","feeInfo":"무료","phone":"033-330-2285","updatedAt":"2022-09-27","sido":"강원도","sigungu":"평창군","dong":"대관령면"},{"name":"군청 앞 주차장","type":"공영","category":"노외","address":"강원도 평창군 평창읍 군청길 77","lat":37.37127258,"lng":128.3901257,"totalSpaces":80,"isFree":true,"operatingDays":"평일+토요일+공휴일","weekdayOpen":"00:00","weekdayClose":"23:59","weekendOpen":"00:00","weekendClose":"23:59","holidayOpen":"00:00","holidayClose":"23:59","feeInfo":"무료","phone":"033-330-2285","updatedAt":"2022-09-27","sido":"강원도","sigungu":"평창군","dong":"평창읍"},{"name":"터미널 옆 주차장","type":"공영","category":"노외","address":"강원도 평창군 대화면 평창대로 894","lat":37.49988657,"lng":128.4528285,"totalSpaces":76,"isFree":true,"operatingDays":"평일+토요일+공휴일","weekdayOpen":"00:00","weekdayClose":"23:59","weekendOpen":"00:00","weekendClose":"23:59","holidayOpen":"00:00","holidayClose":"23:59","feeInfo":"무료","phone":"033-330-2285","updatedAt":"2022-09-27","sido":"강원도","sigungu":"평창군","dong":"대화면"},{"name":"백오로 노상주차장","type":"공영","category":"노상","address":"강원도 평창군 평창읍 백오로 6","lat":37.36778337,"lng":128.3903016,"totalSpaces":64,"isFree":true,"operatingDays":"평일+토요일+공휴일","weekdayOpen":"00:00","weekdayClose":"23:59","weekendOpen":"00:00","weekendClose":"23:59","holidayOpen":"00:00","holidayClose":"23:59","feeInfo":"무료","phone":"033-330-2285","updatedAt":"2022-09-27","sido":"강원도","sigungu":"평창군","dong":"평창읍"},{"name":"봉평중고등학교 옆","type":"공영","category":"노외","address":"강원도 평창군 봉평면 기풍3길 17","lat":37.61519806,"lng":128.3763946,"totalSpaces":63,"isFree":true,"operatingDays":"평일+토요일+공휴일","weekdayOpen":"00:00","weekdayClose":"23:59","weekendOpen":"00:00","weekendClose":"23:59","holidayOpen":"00:00","holidayClose":"23:59","feeInfo":"무료","phone":"033-330-2285","updatedAt":"2022-09-27","sido":"강원도","sigungu":"평창군","dong":"봉평면"},{"name":"봉평전통시장 주차장","type":"공영","category":"노외","address":"강원도 평창군 봉평면 애강나무길 109","lat":37.61446786,"lng":128.3747719,"totalSpaces":57,"isFree":true,"operatingDays":"평일+토요일+공휴일","weekdayOpen":"00:00","weekdayClose":"23:59","weekendOpen":"00:00","weekendClose":"23:59","holidayOpen":"00:00","holidayClose":"23:59","feeInfo":"무료","phone":"033-330-2285","updatedAt":"2022-09-27","sido":"강원도","sigungu":"평창군","dong":"봉평면"},{"name":"중앙로 노상주차장","type":"공영","category":"노상","address":"강원도 평창군 평창읍 평창중앙로 66","lat":37.36873182,"lng":128.3959442,"totalSpaces":53,"isFree":true,"operatingDays":"평일+토요일+공휴일","weekdayOpen":"00:00","weekdayClose":"23:59","weekendOpen":"00:00","weekendClose":"23:59","holidayOpen":"00:00","holidayClose":"23:59","feeInfo":"무료","phone":"033-330-2285","updatedAt":"2022-09-27","sido":"강원도","sigungu":"평창군","dong":"평창읍"},{"name":"제칠안식교회 뒤 주차장","type":"공영","category":"노외","address":"강원도 평창군 대관령면 눈마을길 27","lat":37.67067567,"lng":128.7096506,"totalSpaces":51,"isFree":true,"operatingDays":"평일+토요일+공휴일","weekdayOpen":"00:00","weekdayClose":"23:59","weekendOpen":"00:00","weekendClose":"23:59","holidayOpen":"00:00","holidayClose":"23:59","feeInfo":"무료","phone":"033-330-2285","updatedAt":"2022-09-27","sido":"강원도","sigungu":"평창군","dong":"대관령면"},{"name":"노성산 주차장","type":"공영","category":"노외","address":"강원도 평창군 평창읍 평창중앙로 158-8","lat":37.3735428,"lng":128.3947329,"totalSpaces":50,"isFree":true,"operatingDays":"평일+토요일+공휴일","weekdayOpen":"00:00","weekdayClose":"23:59","weekendOpen":"00:00","weekendClose":"23:59","holidayOpen":"00:00","holidayClose":"23:59","feeInfo":"무료","phone":"033-330-2285","updatedAt":"2022-09-27","sido":"강원도","sigungu":"평창군","dong":"평창읍"},{"name":"진부전통시장 주차장","type":"공영","category":"노외","address":"강원도 평창군 진부면 진부시장뒷길 27","lat":37.63774311,"lng":128.5574135,"totalSpaces":50,"isFree":true,"operatingDays":"평일+토요일+공휴일","weekdayOpen":"00:00","weekdayClose":"23:59","weekendOpen":"00:00","weekendClose":"23:59","holidayOpen":"00:00","holidayClose":"23:59","feeInfo":"무료","phone":"033-330-2285","updatedAt":"2022-09-27","sido":"강원도","sigungu":"평창군","dong":"진부면"},{"name":"백룡동굴 주차장","type":"공영","category":"노외","address":"강원도 평창군 미탄면 문희길 63","lat":37.27786222,"lng":128.5770659,"totalSpaces":49,"isFree":true,"operatingDays":"평일+토요일+공휴일","weekdayOpen":"00:00","weekdayClose":"23:59","weekendOpen":"00:00","weekendClose":"23:59","holidayOpen":"00:00","holidayClose":"23:59","feeInfo":"무료","phone":"033-330-2285","updatedAt":"2022-09-27","sido":"강원도","sigungu":"평창군","dong":"미탄면"},{"name":"횡계천둔치주차장","type":"공영","category":"노외","address":"강원도 평창군 대관령면 사부랑길 7","lat":37.6889518,"lng":128.7134941,"totalSpaces":46,"isFree":true,"operatingDays":"평일+토요일+공휴일","weekdayOpen":"00:00","weekdayClose":"23:59","weekendOpen":"00:00","weekendClose":"23:59","holidayOpen":"00:00","holidayClose":"23:59","feeInfo":"무료","phone":"033-330-2285","updatedAt":"2022-09-27","sido":"강원도","sigungu":"평창군","dong":"대관령면"},{"name":"계촌주차장(계촌초교 앞)","type":"공영","category":"노외","address":"강원도 평창군 방림면 계촌길 63","lat":37.45243776,"lng":128.3047583,"totalSpaces":45,"isFree":true,"operatingDays":"평일+토요일+공휴일","weekdayOpen":"00:00","weekdayClose":"23:59","weekendOpen":"00:00","weekendClose":"23:59","holidayOpen":"00:00","holidayClose":"23:59","feeInfo":"무료","phone":"033-330-2285","updatedAt":"2022-09-27","sido":"강원도","sigungu":"평창군","dong":"방림면"},{"name":"문화복지센터 주차장","type":"공영","category":"노외","address":"강원도 평창군 평창중앙로 67","lat":37.36876982,"lng":128.3948846,"totalSpaces":44,"isFree":true,"operatingDays":"평일+토요일+공휴일","weekdayOpen":"00:00","weekdayClose":"23:59","weekendOpen":"00:00","weekendClose":"23:59","holidayOpen":"00:00","holidayClose":"23:59","feeInfo":"무료","phone":"033-330-2285","updatedAt":"2022-09-27","sido":"강원도","sigungu":"평창군","dong":"평창읍"},{"name":"황태회관앞주차장","type":"공영","category":"노외","address":"강원도 평창군 대관령면 눈마을길 9","lat":37.66906061,"lng":128.7100083,"totalSpaces":44,"isFree":true,"operatingDays":"평일+토요일+공휴일","weekdayOpen":"00:00","weekdayClose":"23:59","weekendOpen":"00:00","weekendClose":"23:59","holidayOpen":"00:00","holidayClose":"23:59","feeInfo":"무료","phone":"033-330-2285","updatedAt":"2022-09-27","sido":"강원도","sigungu":"평창군","dong":"대관령면"},{"name":"터미널 뒤 주차장","type":"공영","category":"노외","address":"강원도 평창군 평창읍 백오1길 14","lat":37.36664748,"lng":128.394201,"totalSpaces":43,"isFree":true,"operatingDays":"평일+토요일+공휴일","weekdayOpen":"00:00","weekdayClose":"23:59","weekendOpen":"00:00","weekendClose":"23:59","holidayOpen":"00:00","holidayClose":"23:59","feeInfo":"무료","phone":"033-330-2285","updatedAt":"2022-09-27","sido":"강원도","sigungu":"평창군","dong":"평창읍"},{"name":"마하리 주차장","type":"공영","category":"노외","address":"강원도 평창군 미탄면 마하길 42-5","lat":37.29236819,"lng":128.5412837,"totalSpaces":42,"isFree":true,"operatingDays":"평일+토요일+공휴일","weekdayOpen":"00:00","weekdayClose":"23:59","weekendOpen":"00:00","weekendClose":"23:59","holidayOpen":"00:00","holidayClose":"23:59","feeInfo":"무료","phone":"033-330-2285","updatedAt":"2022-09-27","sido":"강원도","sigungu":"평창군","dong":"미탄면"},{"name":"대화의원","type":"공영","category":"노외","address":"강원도 평창군 대화면 대화1길 38-3","lat":37.49886951,"lng":128.4578433,"totalSpaces":40,"isFree":true,"operatingDays":"평일+토요일+공휴일","weekdayOpen":"00:00","weekdayClose":"23:59","weekendOpen":"00:00","weekendClose":"23:59","holidayOpen":"00:00","holidayClose":"23:59","feeInfo":"무료","phone":"033-330-2285","updatedAt":"2022-09-27","sido":"강원도","sigungu":"평창군","dong":"대화면"},{"name":"대화전통시장 주차공원","type":"공영","category":"노외","address":"강원도 평창군 대화면 대화1길 19","lat":37.49894413,"lng":128.4552091,"totalSpaces":40,"isFree":true,"operatingDays":"평일+토요일+공휴일","weekdayOpen":"00:00","weekdayClose":"23:59","weekendOpen":"00:00","weekendClose":"23:59","holidayOpen":"00:00","holidayClose":"23:59","feeInfo":"무료","phone":"033-330-2285","updatedAt":"2022-09-27","sido":"강원도","sigungu":"평창군","dong":"대화면"},{"name":"메달플라자 주차장","type":"공영","category":"노상","address":"강원도 평창군 대관령면 해당화3길 24","lat":37.67215604,"lng":128.7047008,"totalSpaces":39,"isFree":true,"operatingDays":"평일+토요일+공휴일","weekdayOpen":"00:00","weekdayClose":"23:59","weekendOpen":"00:00","weekendClose":"23:59","holidayOpen":"00:00","holidayClose":"23:59","feeInfo":"무료","phone":"033-330-2285","updatedAt":"2022-09-27","sido":"강원도","sigungu":"평창군","dong":"대관령면"},{"name":"백덕산 주차장","type":"공영","category":"노외","address":"강원도 평창군 방림면 여우재1길 13-2","lat":37.42678796,"lng":128.2993287,"totalSpaces":39,"isFree":true,"operatingDays":"평일+토요일+공휴일","weekdayOpen":"00:00","weekdayClose":"23:59","weekendOpen":"00:00","weekendClose":"23:59","holidayOpen":"00:00","holidayClose":"23:59","feeInfo":"무료","phone":"033-330-2285","updatedAt":"2022-09-27","sido":"강원도","sigungu":"평창군","dong":"방림면"},{"name":"면사무소옆 주차장","type":"공영","category":"노외","address":"강원도 평창군 봉평면 기풍로 150-2","lat":37.6161119,"lng":128.3784128,"totalSpaces":38,"isFree":true,"operatingDays":"평일+토요일+공휴일","weekdayOpen":"00:00","weekdayClose":"23:59","weekendOpen":"00:00","weekendClose":"23:59","holidayOpen":"00:00","holidayClose":"23:59","feeInfo":"무료","phone":"033-330-2285","updatedAt":"2022-09-27","sido":"강원도","sigungu":"평창군","dong":"봉평면"},{"name":"평창해장국 옆 주차장","type":"공영","category":"노외","address":"강원도 평창군 평창읍 백오로 178","lat":37.36741547,"lng":128.3999881,"totalSpaces":37,"isFree":true,"operatingDays":"평일+토요일+공휴일","weekdayOpen":"00:00","weekdayClose":"23:59","weekendOpen":"00:00","weekendClose":"23:59","holidayOpen":"00:00","holidayClose":"23:59","feeInfo":"무료","phone":"033-330-2285","updatedAt":"2022-09-27","sido":"강원도","sigungu":"평창군","dong":"평창읍"},{"name":"송정택지 3주차장","type":"공영","category":"노외","address":"강원도 평창군 진부면 송정택지1길 52-9","lat":37.63513253,"lng":128.5619815,"totalSpaces":36,"isFree":true,"operatingDays":"평일+토요일+공휴일","weekdayOpen":"00:00","weekdayClose":"23:59","weekendOpen":"00:00","weekendClose":"23:59","holidayOpen":"00:00","holidayClose":"23:59","feeInfo":"무료","phone":"033-330-2285","updatedAt":"2022-09-27","sido":"강원도","sigungu":"평창군","dong":"진부면"},{"name":"군청앞 노상주차장","type":"공영","category":"노상","address":"강원도 평창군 평창읍 군청길 77","lat":37.37127113,"lng":128.3901268,"totalSpaces":35,"isFree":true,"operatingDays":"평일+토요일+공휴일","weekdayOpen":"00:00","weekdayClose":"23:59","weekendOpen":"00:00","weekendClose":"23:59","holidayOpen":"00:00","holidayClose":"23:59","feeInfo":"무료","phone":"033-330-2285","updatedAt":"2022-09-27","sido":"강원도","sigungu":"평창군","dong":"평창읍"},{"name":"하진부리(구터미널)주차장","type":"공영","category":"노외","address":"강원도 평창군 진부면 진부시장뒷길 66","lat":37.63815035,"lng":128.5588564,"totalSpaces":35,"isFree":true,"operatingDays":"평일+토요일+공휴일","weekdayOpen":"00:00","weekdayClose":"23:59","weekendOpen":"00:00","weekendClose":"23:59","holidayOpen":"00:00","holidayClose":"23:59","feeInfo":"무료","phone":"033-330-2285","updatedAt":"2022-09-27","sido":"강원도","sigungu":"평창군","dong":"진부면"},{"name":"장평장로교회 앞 주차장","type":"공영","category":"노외","address":"강원도 평창군 용평면 금송2길 20-6","lat":37.58728276,"lng":128.4158208,"totalSpaces":34,"isFree":true,"operatingDays":"평일+토요일+공휴일","weekdayOpen":"00:00","weekdayClose":"23:59","weekendOpen":"00:00","weekendClose":"23:59","holidayOpen":"00:00","holidayClose":"23:59","feeInfo":"무료","phone":"033-330-2285","updatedAt":"2022-09-27","sido":"강원도","sigungu":"평창군","dong":"용평면"},{"name":"횡계의원 뒤 2주차장","type":"공영","category":"노외","address":"강원도 평창군 대관령면 축제길 36","lat":37.67144694,"lng":128.7079641,"totalSpaces":32,"isFree":true,"operatingDays":"평일+토요일+공휴일","weekdayOpen":"00:00","weekdayClose":"23:59","weekendOpen":"00:00","weekendClose":"23:59","holidayOpen":"00:00","holidayClose":"23:59","feeInfo":"무료","phone":"033-330-2285","updatedAt":"2022-09-27","sido":"강원도","sigungu":"평창군","dong":"대관령면"},{"name":"하이랜드 옆 1주차장","type":"공영","category":"노외","address":"강원도 평창군 대관령면 횡계2길 331-28","lat":37.673161,"lng":128.7092909,"totalSpaces":32,"isFree":true,"operatingDays":"평일+토요일+공휴일","weekdayOpen":"00:00","weekdayClose":"23:59","weekendOpen":"00:00","weekendClose":"23:59","holidayOpen":"00:00","holidayClose":"23:59","feeInfo":"무료","phone":"033-330-2285","updatedAt":"2022-09-27","sido":"강원도","sigungu":"평창군","dong":"대관령면"},{"name":"면사무소앞주차장","type":"공영","category":"노외","address":"강원도 평창군 진부면 석두산2길 13","lat":37.63726765,"lng":128.553517,"totalSpaces":30,"isFree":true,"operatingDays":"평일+토요일+공휴일","weekdayOpen":"00:00","weekdayClose":"23:59","weekendOpen":"00:00","weekendClose":"23:59","holidayOpen":"00:00","holidayClose":"23:59","feeInfo":"무료","phone":"033-330-2285","updatedAt":"2022-09-27","sido":"강원도","sigungu":"평창군","dong":"진부면"},{"name":"문화마을 2주차장","type":"공영","category":"노외","address":"강원도 평창군 대화면 문화택지길 58","lat":37.48938206,"lng":128.4542797,"totalSpaces":30,"isFree":true,"operatingDays":"평일+토요일+공휴일","weekdayOpen":"00:00","weekdayClose":"23:59","weekendOpen":"00:00","weekendClose":"23:59","holidayOpen":"00:00","holidayClose":"23:59","feeInfo":"무료","phone":"033-330-2285","updatedAt":"2022-09-27","sido":"강원도","sigungu":"평창군","dong":"대화면"},{"name":"계방산 주차장","type":"공영","category":"노외","address":"강원도 평창군 용평면 운두령로 743","lat":37.69015156,"lng":128.4686436,"totalSpaces":30,"isFree":true,"operatingDays":"평일+토요일+공휴일","weekdayOpen":"00:00","weekdayClose":"23:59","weekendOpen":"00:00","weekendClose":"23:59","holidayOpen":"00:00","holidayClose":"23:59","feeInfo":"무료","phone":"033-330-2285","updatedAt":"2022-09-27","sido":"강원도","sigungu":"평창군","dong":"봉평면"},{"name":"면사무소앞 주차장(신설)","type":"공영","category":"노외","address":"강원도 평창군 대화면 남산2길 20","lat":37.50106008,"lng":128.4570814,"totalSpaces":30,"isFree":true,"operatingDays":"평일+토요일+공휴일","weekdayOpen":"00:00","weekdayClose":"23:59","weekendOpen":"00:00","weekendClose":"23:59","holidayOpen":"00:00","holidayClose":"23:59","feeInfo":"무료","phone":"033-330-2285","updatedAt":"2022-09-27","sido":"강원도","sigungu":"평창군","dong":"대화면"},{"name":"용평생활관 앞 주차장","type":"공영","category":"노외","address":"강원도 평창군 대관령면 횡계3길 14","lat":37.67532973,"lng":128.7090822,"totalSpaces":30,"isFree":true,"operatingDays":"평일+토요일+공휴일","weekdayOpen":"00:00","weekdayClose":"23:59","weekendOpen":"00:00","weekendClose":"23:59","holidayOpen":"00:00","holidayClose":"23:59","feeInfo":"무료","phone":"033-330-2285","updatedAt":"2022-09-27","sido":"강원도","sigungu":"평창군","dong":"대관령면"},{"name":"대화면 공원주차장","type":"공영","category":"노외","address":"강원도 평창군 대화면 대화중앙로 95","lat":37.49745995,"lng":128.4554347,"totalSpaces":29,"isFree":true,"operatingDays":"평일+토요일+공휴일","weekdayOpen":"00:00","weekdayClose":"23:59","weekendOpen":"00:00","weekendClose":"23:59","holidayOpen":"00:00","holidayClose":"23:59","feeInfo":"무료","phone":"033-330-2285","updatedAt":"2022-09-27","sido":"강원도","sigungu":"평창군","dong":"대화면"},{"name":"금당광고 앞 주차장","type":"공영","category":"노외","address":"강원도 평창군 대화면 대화중앙로 52","lat":37.49391524,"lng":128.4573417,"totalSpaces":29,"isFree":true,"operatingDays":"평일+토요일+공휴일","weekdayOpen":"00:00","weekdayClose":"23:59","weekendOpen":"00:00","weekendClose":"23:59","holidayOpen":"00:00","holidayClose":"23:59","feeInfo":"무료","phone":"033-330-2285","updatedAt":"2022-09-27","sido":"강원도","sigungu":"평창군","dong":"대화면"},{"name":"송학로 노상주차장","type":"공영","category":"노상","address":"강원도 평창군 평창읍 송학로 71","lat":37.3701109,"lng":128.3923535,"totalSpaces":28,"isFree":true,"operatingDays":"평일+토요일+공휴일","weekdayOpen":"00:00","weekdayClose":"23:59","weekendOpen":"00:00","weekendClose":"23:59","holidayOpen":"00:00","holidayClose":"23:59","feeInfo":"무료","phone":"033-330-2285","updatedAt":"2022-09-27","sido":"강원도","sigungu":"평창군","dong":"평창읍"},{"name":"횡계의원 뒤 1주차장","type":"공영","category":"노외","address":"강원도 평창군 대관령면 축제길 40","lat":37.67170099,"lng":128.7079653,"totalSpaces":28,"isFree":true,"operatingDays":"평일+토요일+공휴일","weekdayOpen":"00:00","weekdayClose":"23:59","weekendOpen":"00:00","weekendClose":"23:59","holidayOpen":"00:00","holidayClose":"23:59","feeInfo":"무료","phone":"033-330-2285","updatedAt":"2022-09-27","sido":"강원도","sigungu":"평창군","dong":"대관령면"},{"name":"면사무소 앞 주차장","type":"공영","category":"노외","address":"강원도 평창군 대화면 대화중앙로 154-1","lat":37.50265294,"lng":128.455275,"totalSpaces":27,"isFree":true,"operatingDays":"평일+토요일+공휴일","weekdayOpen":"00:00","weekdayClose":"23:59","weekendOpen":"00:00","weekendClose":"23:59","holidayOpen":"00:00","holidayClose":"23:59","feeInfo":"무료","phone":"033-330-2285","updatedAt":"2022-09-27","sido":"강원도","sigungu":"평창군","dong":"대화면"},{"name":"대화중고등학교 앞 주차장","type":"공영","category":"노외","address":"강원도 평창군 대화면 대화중앙로 32-8","lat":37.49329724,"lng":128.4599825,"totalSpaces":26,"isFree":true,"operatingDays":"평일+토요일+공휴일","weekdayOpen":"00:00","weekdayClose":"23:59","weekendOpen":"00:00","weekendClose":"23:59","holidayOpen":"00:00","holidayClose":"23:59","feeInfo":"무료","phone":"033-330-2285","updatedAt":"2022-09-27","sido":"강원도","sigungu":"평창군","dong":"대화면"},{"name":"평창 중리 주차장","type":"공영","category":"노외","address":"강원도 평창군 평창읍 노성로 266","lat":37.36905827,"lng":128.4045927,"totalSpaces":25,"isFree":true,"operatingDays":"평일+토요일+공휴일","weekdayOpen":"00:00","weekdayClose":"23:59","weekendOpen":"00:00","weekendClose":"23:59","holidayOpen":"00:00","holidayClose":"23:59","feeInfo":"무료","phone":"033-330-2285","updatedAt":"2022-09-27","sido":"강원도","sigungu":"평창군","dong":"평창읍"},{"name":"송정택지 5주차장","type":"공영","category":"노외","address":"강원도 평창군 진부면 송정택지2길 31-9","lat":37.63407146,"lng":128.5608423,"totalSpaces":25,"isFree":true,"operatingDays":"평일+토요일+공휴일","weekdayOpen":"00:00","weekdayClose":"23:59","weekendOpen":"00:00","weekendClose":"23:59","holidayOpen":"00:00","holidayClose":"23:59","feeInfo":"무료","phone":"033-330-2285","updatedAt":"2022-09-27","sido":"강원도","sigungu":"평창군","dong":"진부면"},{"name":"대관령파출소 뒤 주차장","type":"공영","category":"노외","address":"강원도 평창군 대관령면 대관령로 91-8","lat":37.67305341,"lng":128.7068799,"totalSpaces":25,"isFree":true,"operatingDays":"평일+토요일+공휴일","weekdayOpen":"00:00","weekdayClose":"23:59","weekendOpen":"00:00","weekendClose":"23:59","holidayOpen":"00:00","holidayClose":"23:59","feeInfo":"무료","phone":"033-330-2285","updatedAt":"2022-09-27","sido":"강원도","sigungu":"평창군","dong":"대관령면"},{"name":"본전갈비 앞 주차장","type":"공영","category":"노외","address":"강원도 평창군 평창읍 천변길 23","lat":37.36682524,"lng":128.3965681,"totalSpaces":24,"isFree":true,"operatingDays":"평일+토요일+공휴일","weekdayOpen":"00:00","weekdayClose":"23:59","weekendOpen":"00:00","weekendClose":"23:59","holidayOpen":"00:00","holidayClose":"23:59","feeInfo":"무료","phone":"033-330-2285","updatedAt":"2022-09-27","sido":"강원도","sigungu":"평창군","dong":"평창읍"},{"name":"진부초교앞 주차장","type":"공영","category":"노외","address":"강원도 평창군 진부면 진부새싹길 42","lat":37.63852586,"lng":128.5574439,"totalSpaces":24,"isFree":true,"operatingDays":"평일+토요일+공휴일","weekdayOpen":"00:00","weekdayClose":"23:59","weekendOpen":"00:00","weekendClose":"23:59","holidayOpen":"00:00","holidayClose":"23:59","feeInfo":"무료","phone":"033-330-2285","updatedAt":"2022-09-27","sido":"강원도","sigungu":"평창군","dong":"진부면"},{"name":"우체국 뒤 주차장","type":"공영","category":"노외","address":"강원도 평창군 평창읍 평창중앙로 66","lat":37.36873227,"lng":128.3959439,"totalSpaces":23,"isFree":true,"operatingDays":"평일+토요일+공휴일","weekdayOpen":"00:00","weekdayClose":"23:59","weekendOpen":"00:00","weekendClose":"23:59","holidayOpen":"00:00","holidayClose":"23:59","feeInfo":"무료","phone":"033-330-2285","updatedAt":"2022-09-27","sido":"강원도","sigungu":"평창군","dong":"평창읍"},{"name":"효석문학관 (소형)","type":"공영","category":"노외","address":"강원도 평창군 봉평면 효석문학길 73-25","lat":37.61317497,"lng":128.3701153,"totalSpaces":23,"isFree":true,"operatingDays":"평일+토요일+공휴일","weekdayOpen":"00:00","weekdayClose":"23:59","weekendOpen":"00:00","weekendClose":"23:59","holidayOpen":"00:00","holidayClose":"23:59","feeInfo":"무료","phone":"033-330-2285","updatedAt":"2022-09-27","sido":"강원도","sigungu":"평창군","dong":"봉평면"},{"name":"삼삼오식당 옆 주차장","type":"공영","category":"노외","address":"강원도 평창군 평창읍 노산성길 13","lat":37.36737663,"lng":128.3962623,"totalSpaces":23,"isFree":true,"operatingDays":"평일+토요일+공휴일","weekdayOpen":"00:00","weekdayClose":"23:59","weekendOpen":"00:00","weekendClose":"23:59","holidayOpen":"00:00","holidayClose":"23:59","feeInfo":"무료","phone":"033-330-2285","updatedAt":"2022-09-27","sido":"강원도","sigungu":"평창군","dong":"평창읍"},{"name":"대화체육관 옆 주차장","type":"공영","category":"노외","address":"강원도 평창군 대화면 대화1길 28-5","lat":37.49852494,"lng":128.4568775,"totalSpaces":22,"isFree":true,"operatingDays":"평일+토요일+공휴일","weekdayOpen":"00:00","weekdayClose":"23:59","weekendOpen":"00:00","weekendClose":"23:59","holidayOpen":"00:00","holidayClose":"23:59","feeInfo":"무료","phone":"033-330-2285","updatedAt":"2022-09-27","sido":"강원도","sigungu":"평창군","dong":"대화면"},{"name":"할인마트 앞 주차장","type":"공영","category":"노외","address":"강원도 평창군 평창읍 백오로 171","lat":37.36775598,"lng":128.3997561,"totalSpaces":22,"isFree":true,"operatingDays":"평일+토요일+공휴일","weekdayOpen":"00:00","weekdayClose":"23:59","weekendOpen":"00:00","weekendClose":"23:59","holidayOpen":"00:00","holidayClose":"23:59","feeInfo":"무료","phone":"033-330-2285","updatedAt":"2022-09-27","sido":"강원도","sigungu":"평창군","dong":"평창읍"},{"name":"창리주차공원","type":"공영","category":"노외","address":"강원도 평창군 미탄면 미탄중앙로 69","lat":37.34130984,"lng":128.5008582,"totalSpaces":22,"isFree":true,"operatingDays":"평일+토요일+공휴일","weekdayOpen":"00:00","weekdayClose":"23:59","weekendOpen":"00:00","weekendClose":"23:59","holidayOpen":"00:00","holidayClose":"23:59","feeInfo":"무료","phone":"033-330-2285","updatedAt":"2022-09-27","sido":"강원도","sigungu":"평창군","dong":"미탄면"},{"name":"청옥막국수 옆 주차장","type":"공영","category":"노외","address":"강원도 평창군 평창읍 송학로 27-5","lat":37.36735955,"lng":128.3923852,"totalSpaces":20,"isFree":true,"operatingDays":"평일+토요일+공휴일","weekdayOpen":"00:00","weekdayClose":"23:59","weekendOpen":"00:00","weekendClose":"23:59","holidayOpen":"00:00","holidayClose":"23:59","feeInfo":"무료","phone":"033-330-2285","updatedAt":"2022-09-27","sido":"강원도","sigungu":"평창군","dong":"평창읍"},{"name":"진부주공아파트 뒤 주차장","type":"공영","category":"노외","address":"강원도 평창군 진부면 진부중앙로 46","lat":37.63557338,"lng":128.5574956,"totalSpaces":20,"isFree":true,"operatingDays":"평일+토요일+공휴일","weekdayOpen":"00:00","weekdayClose":"23:59","weekendOpen":"00:00","weekendClose":"23:59","holidayOpen":"00:00","holidayClose":"23:59","feeInfo":"무료","phone":"033-330-2285","updatedAt":"2022-09-27","sido":"강원도","sigungu":"평창군","dong":"진부면"},{"name":"제일교회 앞 주차장","type":"공영","category":"노외","address":"강원도 평창군 평창읍 노성2길 10","lat":37.36809267,"lng":128.4002507,"totalSpaces":20,"isFree":true,"operatingDays":"평일+토요일+공휴일","weekdayOpen":"00:00","weekdayClose":"23:59","weekendOpen":"00:00","weekendClose":"23:59","holidayOpen":"00:00","holidayClose":"23:59","feeInfo":"무료","phone":"033-330-2285","updatedAt":"2022-09-27","sido":"강원도","sigungu":"평창군","dong":"평창읍"},{"name":"바다회식당 옆 주차장","type":"공영","category":"노외","address":"강원도 평창군 평창읍 천변길 24-7","lat":37.36623871,"lng":128.3970187,"totalSpaces":20,"isFree":true,"operatingDays":"평일+토요일+공휴일","weekdayOpen":"00:00","weekdayClose":"23:59","weekendOpen":"00:00","weekendClose":"23:59","holidayOpen":"00:00","holidayClose":"23:59","feeInfo":"무료","phone":"033-330-2285","updatedAt":"2022-09-27","sido":"강원도","sigungu":"평창군","dong":"평창읍"},{"name":"로얄장 앞 주차장","type":"민영","category":"노외","address":"강원도 평창군 평창읍 백오로 73","lat":37.36789127,"lng":128.3940315,"totalSpaces":20,"isFree":true,"operatingDays":"평일+토요일+공휴일","weekdayOpen":"00:00","weekdayClose":"23:59","weekendOpen":"00:00","weekendClose":"23:59","holidayOpen":"00:00","holidayClose":"23:59","feeInfo":"무료","phone":"033-330-2285","updatedAt":"2022-09-27","sido":"강원도","sigungu":"평창군","dong":"평창읍"},{"name":"진부방앗간 앞 주차장","type":"공영","category":"노외","address":"강원도 평창군 진부면 진부시장뒷길 15","lat":37.63727999,"lng":128.5568236,"totalSpaces":19,"isFree":true,"operatingDays":"평일+토요일+공휴일","weekdayOpen":"00:00","weekdayClose":"23:59","weekendOpen":"00:00","weekendClose":"23:59","holidayOpen":"00:00","holidayClose":"23:59","feeInfo":"무료","phone":"033-330-2285","updatedAt":"2022-09-27","sido":"강원도","sigungu":"평창군","dong":"진부면"},{"name":"면사무소 앞 주차장","type":"공영","category":"노외","address":"강원도 평창군 봉평면 기풍4길 10","lat":37.61610088,"lng":128.3793248,"totalSpaces":19,"isFree":true,"operatingDays":"평일+토요일+공휴일","weekdayOpen":"00:00","weekdayClose":"23:59","weekendOpen":"00:00","weekendClose":"23:59","holidayOpen":"00:00","holidayClose":"23:59","feeInfo":"무료","phone":"033-330-2285","updatedAt":"2022-09-27","sido":"강원도","sigungu":"평창군","dong":"봉평면"},{"name":"효성타운 뒤 주차장","type":"공영","category":"노외","address":"강원도 평창군 평창읍 향교길 43","lat":37.36720204,"lng":128.3912693,"totalSpaces":19,"isFree":true,"operatingDays":"평일+토요일+공휴일","weekdayOpen":"00:00","weekdayClose":"23:59","weekendOpen":"00:00","weekendClose":"23:59","holidayOpen":"00:00","holidayClose":"23:59","feeInfo":"무료","phone":"033-330-2285","updatedAt":"2022-09-27","sido":"강원도","sigungu":"평창군","dong":"평창읍"},{"name":"강변아파트 뒤 노상주차장","type":"공영","category":"노상","address":"강원도 평창군 평창읍 서동로 2543-6","lat":37.36733667,"lng":128.4005555,"totalSpaces":18,"isFree":true,"operatingDays":"평일+토요일+공휴일","weekdayOpen":"00:00","weekdayClose":"23:59","weekendOpen":"00:00","weekendClose":"23:59","holidayOpen":"00:00","holidayClose":"23:59","feeInfo":"무료","phone":"033-330-2285","updatedAt":"2022-09-27","sido":"강원도","sigungu":"평창군","dong":"평창읍"},{"name":"남산로 노상주차장","type":"공영","category":"노상","address":"강원도 평창군 대화면 대화중앙로 112","lat":37.4989959,"lng":128.4560338,"totalSpaces":18,"isFree":true,"operatingDays":"평일+토요일+공휴일","weekdayOpen":"00:00","weekdayClose":"23:59","weekendOpen":"00:00","weekendClose":"23:59","holidayOpen":"00:00","holidayClose":"23:59","feeInfo":"무료","phone":"033-330-2285","updatedAt":"2022-09-27","sido":"강원도","sigungu":"평창군","dong":"대화면"},{"name":"방범대 앞 주차장","type":"공영","category":"노외","address":"강원도 평창군 평창읍 백오로 150","lat":37.36797499,"lng":128.3982722,"totalSpaces":18,"isFree":true,"operatingDays":"평일+토요일+공휴일","weekdayOpen":"00:00","weekdayClose":"23:59","weekendOpen":"00:00","weekendClose":"23:59","holidayOpen":"00:00","holidayClose":"23:59","feeInfo":"무료","phone":"033-330-2285","updatedAt":"2022-09-27","sido":"강원도","sigungu":"평창군","dong":"평창읍"},{"name":"고려회관 앞 주차장","type":"공영","category":"노외","address":"강원도 평창군 용평면 금송1길 19-7","lat":37.58515289,"lng":128.413325,"totalSpaces":18,"isFree":true,"operatingDays":"평일+토요일+공휴일","weekdayOpen":"00:00","weekdayClose":"23:59","weekendOpen":"00:00","weekendClose":"23:59","holidayOpen":"00:00","holidayClose":"23:59","feeInfo":"무료","phone":"033-330-2285","updatedAt":"2022-09-27","sido":"강원도","sigungu":"평창군","dong":"용평면"},{"name":"미탄 주차장","type":"공영","category":"노외","address":"강원도 평창군 미탄면 미탄시장길 22","lat":37.3410916,"lng":128.4994946,"totalSpaces":18,"isFree":true,"operatingDays":"평일+토요일+공휴일","weekdayOpen":"00:00","weekdayClose":"23:59","weekendOpen":"00:00","weekendClose":"23:59","holidayOpen":"00:00","holidayClose":"23:59","feeInfo":"무료","phone":"033-330-2285","updatedAt":"2022-09-27","sido":"강원도","sigungu":"평창군","dong":"미탄면"},{"name":"올림픽시장 주차장","type":"공영","category":"노외","address":"강원도 평창군 평창읍 문화길 73","lat":37.36700053,"lng":128.3938947,"totalSpaces":18,"isFree":true,"operatingDays":"평일+토요일+공휴일","weekdayOpen":"00:00","weekdayClose":"23:59","weekendOpen":"00:00","weekendClose":"23:59","holidayOpen":"00:00","holidayClose":"23:59","feeInfo":"무료","phone":"033-330-2285","updatedAt":"2022-09-27","sido":"강원도","sigungu":"평창군","dong":"평창읍"},{"name":"kt앞 노상 주차장","type":"공영","category":"노상","address":"강원도 평창군 대화면 남산2길 5","lat":37.50101191,"lng":128.4556175,"totalSpaces":17,"isFree":true,"operatingDays":"평일+토요일+공휴일","weekdayOpen":"00:00","weekdayClose":"23:59","weekendOpen":"00:00","weekendClose":"23:59","holidayOpen":"00:00","holidayClose":"23:59","feeInfo":"무료","phone":"033-330-2285","updatedAt":"2022-09-27","sido":"강원도","sigungu":"평창군","dong":"대화면"},{"name":"하진부리(태백주유소뒤)주차장","type":"공영","category":"노외","address":"강원도 평창군 진부면 진부중앙로 100-5","lat":37.63928553,"lng":128.5610397,"totalSpaces":17,"isFree":true,"operatingDays":"평일+토요일+공휴일","weekdayOpen":"00:00","weekdayClose":"23:59","weekendOpen":"00:00","weekendClose":"23:59","holidayOpen":"00:00","holidayClose":"23:59","feeInfo":"무료","phone":"033-330-2285","updatedAt":"2022-09-27","sido":"강원도","sigungu":"평창군","dong":"진부면"},{"name":"방림복지회관 앞 주차장","type":"공영","category":"노외","address":"강원도 평창군 방림면 서동로 1338-3","lat":37.42556123,"lng":128.3940255,"totalSpaces":17,"isFree":true,"operatingDays":"평일+토요일+공휴일","weekdayOpen":"00:00","weekdayClose":"23:59","weekendOpen":"00:00","weekendClose":"23:59","holidayOpen":"00:00","holidayClose":"23:59","feeInfo":"무료","phone":"033-330-2285","updatedAt":"2022-09-27","sido":"강원도","sigungu":"평창군","dong":"방림면"},{"name":"문화마을 주차장","type":"공영","category":"노외","address":"강원도 평창군 대화면 문화택지길 57-1","lat":37.48978694,"lng":128.4545354,"totalSpaces":17,"isFree":true,"operatingDays":"평일+토요일+공휴일","weekdayOpen":"00:00","weekdayClose":"23:59","weekendOpen":"00:00","weekendClose":"23:59","holidayOpen":"00:00","holidayClose":"23:59","feeInfo":"무료","phone":"033-330-2285","updatedAt":"2022-09-27","sido":"강원도","sigungu":"평창군","dong":"대화면"},{"name":"평창초교 앞 (산림조합 옆)","type":"공영","category":"노외","address":"강원도 평창군 평창읍 송학로 59","lat":37.36889652,"lng":128.3926736,"totalSpaces":17,"isFree":true,"operatingDays":"평일+토요일+공휴일","weekdayOpen":"00:00","weekdayClose":"23:59","weekendOpen":"00:00","weekendClose":"23:59","holidayOpen":"00:00","holidayClose":"23:59","feeInfo":"무료","phone":"033-330-2285","updatedAt":"2022-09-27","sido":"강원도","sigungu":"평창군","dong":"평창읍"},{"name":"오삼불고기거리 주차장","type":"공영","category":"노외","address":"강원도 평창군 대관령면 횡계2길 3-3","lat":37.67244568,"lng":128.7084785,"totalSpaces":17,"isFree":true,"operatingDays":"평일+토요일+공휴일","weekdayOpen":"00:00","weekdayClose":"23:59","weekendOpen":"00:00","weekendClose":"23:59","holidayOpen":"00:00","holidayClose":"23:59","feeInfo":"무료","phone":"033-330-2285","updatedAt":"2022-09-27","sido":"강원도","sigungu":"평창군","dong":"대관령면"},{"name":"백오아파트 뒤 주차장","type":"공영","category":"노외","address":"강원도 평창군 평창읍 노람들길 18","lat":37.36806695,"lng":128.4021611,"totalSpaces":16,"isFree":true,"operatingDays":"평일+토요일+공휴일","weekdayOpen":"00:00","weekdayClose":"23:59","weekendOpen":"00:00","weekendClose":"23:59","holidayOpen":"00:00","holidayClose":"23:59","feeInfo":"무료","phone":"033-330-2285","updatedAt":"2022-09-27","sido":"강원도","sigungu":"평창군","dong":"평창읍"},{"name":"두레아트빌 옆 주차장","type":"공영","category":"노외","address":"강원도 평창군 평창읍 노성2길 60","lat":37.36838881,"lng":128.4035646,"totalSpaces":16,"isFree":true,"operatingDays":"평일+토요일+공휴일","weekdayOpen":"00:00","weekdayClose":"23:59","weekendOpen":"00:00","weekendClose":"23:59","holidayOpen":"00:00","holidayClose":"23:59","feeInfo":"무료","phone":"033-330-2285","updatedAt":"2022-09-27","sido":"강원도","sigungu":"평창군","dong":"평창읍"},{"name":"문화마을 3주차장","type":"공영","category":"노외","address":"강원도 평창군 대화면 문화택지길 58","lat":37.48938187,"lng":128.4542803,"totalSpaces":16,"isFree":true,"operatingDays":"평일+토요일+공휴일","weekdayOpen":"00:00","weekdayClose":"23:59","weekendOpen":"00:00","weekendClose":"23:59","holidayOpen":"00:00","holidayClose":"23:59","feeInfo":"무료","phone":"033-330-2285","updatedAt":"2022-09-27","sido":"강원도","sigungu":"평창군","dong":"대화면"},{"name":"금파정 옆 노상주차장","type":"공영","category":"노상","address":"강원도 평창군 미탄면 미탄중앙로 54","lat":37.34157736,"lng":128.4998383,"totalSpaces":15,"isFree":true,"operatingDays":"평일+토요일+공휴일","weekdayOpen":"00:00","weekdayClose":"23:59","weekendOpen":"00:00","weekendClose":"23:59","holidayOpen":"00:00","holidayClose":"23:59","feeInfo":"무료","phone":"033-330-2285","updatedAt":"2022-09-27","sido":"강원도","sigungu":"평창군","dong":"미탄면"},{"name":"운교치안센터 옆 주차장","type":"공영","category":"노외","address":"강원도 평창군 방림면 서동로 275","lat":37.43063628,"lng":128.2850505,"totalSpaces":15,"isFree":true,"operatingDays":"평일+토요일+공휴일","weekdayOpen":"00:00","weekdayClose":"23:59","weekendOpen":"00:00","weekendClose":"23:59","holidayOpen":"00:00","holidayClose":"23:59","feeInfo":"무료","phone":"033-330-2285","updatedAt":"2022-09-27","sido":"강원도","sigungu":"평창군","dong":"방림면"},{"name":"평창식당 옆 주차장","type":"공영","category":"노외","address":"강원도 평창군 미탄면 새터길 6","lat":37.34224023,"lng":128.4995716,"totalSpaces":14,"isFree":true,"operatingDays":"평일+토요일+공휴일","weekdayOpen":"00:00","weekdayClose":"23:59","weekendOpen":"00:00","weekendClose":"23:59","holidayOpen":"00:00","holidayClose":"23:59","feeInfo":"무료","phone":"033-330-2285","updatedAt":"2022-09-27","sido":"강원도","sigungu":"평창군","dong":"미탄면"},{"name":"유현아파트 앞 주차장","type":"공영","category":"노외","address":"강원도 평창군 평창읍 평창중앙로 136","lat":37.37211747,"lng":128.3951812,"totalSpaces":14,"isFree":true,"operatingDays":"평일+토요일+공휴일","weekdayOpen":"00:00","weekdayClose":"23:59","weekendOpen":"00:00","weekendClose":"23:59","holidayOpen":"00:00","holidayClose":"23:59","feeInfo":"무료","phone":"033-330-2285","updatedAt":"2022-09-27","sido":"강원도","sigungu":"평창군","dong":"평창읍"},{"name":"평창교회 앞 주차장","type":"공영","category":"노외","address":"강원도 평창군 평창읍 노산성길 56","lat":37.36703932,"lng":128.3984729,"totalSpaces":13,"isFree":true,"operatingDays":"평일+토요일+공휴일","weekdayOpen":"00:00","weekdayClose":"23:59","weekendOpen":"00:00","weekendClose":"23:59","holidayOpen":"00:00","holidayClose":"23:59","feeInfo":"무료","phone":"033-330-2285","updatedAt":"2022-09-27","sido":"강원도","sigungu":"평창군","dong":"평창읍"},{"name":"유존빌라앞 노상주차장","type":"공영","category":"노상","address":"강원도 평창군 평창읍 백오로 205","lat":37.36765859,"lng":128.401498,"totalSpaces":13,"isFree":true,"operatingDays":"평일+토요일+공휴일","weekdayOpen":"00:00","weekdayClose":"23:59","weekendOpen":"00:00","weekendClose":"23:59","holidayOpen":"00:00","holidayClose":"23:59","feeInfo":"무료","phone":"033-330-2285","updatedAt":"2022-09-27","sido":"강원도","sigungu":"평창군","dong":"평창읍"},{"name":"카페마커모얘 앞 주차장","type":"공영","category":"노외","address":"강원도 평창군 미탄면 미탄중앙로 6","lat":37.34125961,"lng":128.4978956,"totalSpaces":13,"isFree":true,"operatingDays":"평일+토요일+공휴일","weekdayOpen":"00:00","weekdayClose":"23:59","weekendOpen":"00:00","weekendClose":"23:59","holidayOpen":"00:00","holidayClose":"23:59","feeInfo":"무료","phone":"033-330-2285","updatedAt":"2022-09-27","sido":"강원도","sigungu":"평창군","dong":"미탄면"},{"name":"대화전통시장입구주차장","type":"공영","category":"노외","address":"강원도 평창군 대화면 대화시장2길 23-3","lat":37.49988167,"lng":128.4538567,"totalSpaces":12,"isFree":true,"operatingDays":"평일+토요일+공휴일","weekdayOpen":"00:00","weekdayClose":"23:59","weekendOpen":"00:00","weekendClose":"23:59","holidayOpen":"00:00","holidayClose":"23:59","feeInfo":"무료","phone":"033-330-2285","updatedAt":"2022-09-27","sido":"강원도","sigungu":"평창군","dong":"대화면"},{"name":"대원아파트 앞 주차장","type":"공영","category":"노외","address":"강원도 평창군 평창읍 노성로 213-4","lat":37.36902659,"lng":128.4021009,"totalSpaces":12,"isFree":true,"operatingDays":"평일+토요일+공휴일","weekdayOpen":"00:00","weekdayClose":"23:59","weekendOpen":"00:00","weekendClose":"23:59","holidayOpen":"00:00","holidayClose":"23:59","feeInfo":"무료","phone":"033-330-2285","updatedAt":"2022-09-27","sido":"강원도","sigungu":"평창군","dong":"평창읍"},{"name":"하이랜드 옆 3주차장","type":"공영","category":"노외","address":"강원도 평창군 대관령면 눈마을길 57","lat":37.67355649,"lng":128.7095638,"totalSpaces":11,"isFree":true,"operatingDays":"평일+토요일+공휴일","weekdayOpen":"00:00","weekdayClose":"23:59","weekendOpen":"00:00","weekendClose":"23:59","holidayOpen":"00:00","holidayClose":"23:59","feeInfo":"무료","phone":"033-330-2285","updatedAt":"2022-09-27","sido":"강원도","sigungu":"평창군","dong":"대관령면"},{"name":"법장사입구 주차장","type":"공영","category":"노외","address":"강원도 평창군 대화면 고대동길 168","lat":37.5215367,"lng":128.4517371,"totalSpaces":10,"isFree":true,"operatingDays":"평일+토요일+공휴일","weekdayOpen":"00:00","weekdayClose":"23:59","weekendOpen":"00:00","weekendClose":"23:59","holidayOpen":"00:00","holidayClose":"23:59","feeInfo":"무료","phone":"033-330-2285","updatedAt":"2022-09-27","sido":"강원도","sigungu":"평창군","dong":"대화면"},{"name":"한답모퉁이 주차장","type":"공영","category":"노외","address":"강원도 평창군 봉평면 평촌리 602","lat":37.60488062,"lng":128.3763353,"totalSpaces":10,"isFree":true,"operatingDays":"평일+토요일+공휴일","weekdayOpen":"00:00","weekdayClose":"23:59","weekendOpen":"00:00","weekendClose":"23:59","holidayOpen":"00:00","holidayClose":"23:59","feeInfo":"무료","phone":"033-330-2285","updatedAt":"2022-09-27","sido":"강원도","sigungu":"평창군","dong":"봉평면"},{"name":"방림 1주차장(농협 옆)","type":"공영","category":"노외","address":"강원도 평창군 방림면 서동로 1329-3","lat":37.42659964,"lng":128.3930984,"totalSpaces":10,"isFree":true,"operatingDays":"평일+토요일+공휴일","weekdayOpen":"00:00","weekdayClose":"23:59","weekendOpen":"00:00","weekendClose":"23:59","holidayOpen":"00:00","holidayClose":"23:59","feeInfo":"무료","phone":"033-330-2285","updatedAt":"2022-09-27","sido":"강원도","sigungu":"평창군","dong":"방림면"},{"name":"소방서 앞 주차장","type":"공영","category":"노외","address":"강원도 평창군 노성로 145","lat":37.3684969,"lng":128.3974965,"totalSpaces":9,"isFree":true,"operatingDays":"평일+토요일+공휴일","weekdayOpen":"00:00","weekdayClose":"23:59","weekendOpen":"00:00","weekendClose":"23:59","holidayOpen":"00:00","holidayClose":"23:59","feeInfo":"무료","phone":"033-330-2285","updatedAt":"2022-09-27","sido":"강원도","sigungu":"평창군","dong":"평창읍"},{"name":"송정택지 4주차장","type":"공영","category":"노외","address":"강원도 평창군 진부면 송정택지1길 52-9","lat":37.63513127,"lng":128.5619814,"totalSpaces":9,"isFree":true,"operatingDays":"평일+토요일+공휴일","weekdayOpen":"00:00","weekdayClose":"23:59","weekendOpen":"00:00","weekendClose":"23:59","holidayOpen":"00:00","holidayClose":"23:59","feeInfo":"무료","phone":"033-330-2285","updatedAt":"2022-09-27","sido":"강원도","sigungu":"평창군","dong":"진부면"},{"name":"대화전통시장 주차장","type":"공영","category":"노외","address":"강원도 평창군 대화면 대화3길 34","lat":37.5004695,"lng":128.4543641,"totalSpaces":9,"isFree":true,"operatingDays":"평일+토요일+공휴일","weekdayOpen":"00:00","weekdayClose":"23:59","weekendOpen":"00:00","weekendClose":"23:59","holidayOpen":"00:00","holidayClose":"23:59","feeInfo":"무료","phone":"033-330-2285","updatedAt":"2022-09-27","sido":"강원도","sigungu":"평창군","dong":"대화면"},{"name":"효석문학관 (대형)","type":"공영","category":"노외","address":"강원도 평창군 봉평면 효석문학길 73-25","lat":37.61317426,"lng":128.3701138,"totalSpaces":9,"isFree":true,"operatingDays":"평일+토요일+공휴일","weekdayOpen":"00:00","weekdayClose":"23:59","weekendOpen":"00:00","weekendClose":"23:59","holidayOpen":"00:00","holidayClose":"23:59","feeInfo":"무료","phone":"033-330-2285","updatedAt":"2022-09-27","sido":"강원도","sigungu":"평창군","dong":"봉평면"},{"name":"장평농협뒤 주차장","type":"민영","category":"노외","address":"강원도 평창군 용평면 경강로 1667","lat":37.58703475,"lng":128.4148651,"totalSpaces":9,"isFree":true,"operatingDays":"평일+토요일+공휴일","weekdayOpen":"00:00","weekdayClose":"23:59","weekendOpen":"00:00","weekendClose":"23:59","holidayOpen":"00:00","holidayClose":"23:59","feeInfo":"무료","phone":"033-330-2285","updatedAt":"2022-09-27","sido":"강원도","sigungu":"평창군","dong":"용평면"},{"name":"진부고등학교 앞 주차장","type":"공영","category":"노외","address":"강원도 평창군 진부면 청송로 64","lat":37.63620482,"lng":128.5534444,"totalSpaces":8,"isFree":true,"operatingDays":"평일+토요일+공휴일","weekdayOpen":"00:00","weekdayClose":"23:59","weekendOpen":"00:00","weekendClose":"23:59","holidayOpen":"00:00","holidayClose":"23:59","feeInfo":"무료","phone":"033-330-2285","updatedAt":"2022-09-27","sido":"강원도","sigungu":"평창군","dong":"진부면"},{"name":"송정택지 주차공원","type":"공영","category":"노외","address":"강원도 평창군 진부면 송정택지2길 28-20","lat":37.63264305,"lng":128.5608464,"totalSpaces":8,"isFree":true,"operatingDays":"평일+토요일+공휴일","weekdayOpen":"00:00","weekdayClose":"23:59","weekendOpen":"00:00","weekendClose":"23:59","holidayOpen":"00:00","holidayClose":"23:59","feeInfo":"무료","phone":"033-330-2285","updatedAt":"2022-09-27","sido":"강원도","sigungu":"평창군","dong":"진부면"},{"name":"하이랜드 옆 2주차장","type":"공영","category":"노외","address":"강원도 평창군 대관령면 횡계2길 16","lat":37.67353092,"lng":128.7093765,"totalSpaces":8,"isFree":true,"operatingDays":"평일+토요일+공휴일","weekdayOpen":"00:00","weekdayClose":"23:59","weekendOpen":"00:00","weekendClose":"23:59","holidayOpen":"00:00","holidayClose":"23:59","feeInfo":"무료","phone":"033-330-2285","updatedAt":"2022-09-27","sido":"강원도","sigungu":"평창군","dong":"대관령면"},{"name":"백강파크빌 옆 주차장","type":"공영","category":"노외","address":"강원도 평창군 미탄면 창천변길 9","lat":37.33946439,"lng":128.5006246,"totalSpaces":7,"isFree":true,"operatingDays":"평일+토요일+공휴일","weekdayOpen":"00:00","weekdayClose":"23:59","weekendOpen":"00:00","weekendClose":"23:59","holidayOpen":"00:00","holidayClose":"23:59","feeInfo":"무료","phone":"033-330-2285","updatedAt":"2022-09-27","sido":"강원도","sigungu":"평창군","dong":"미탄면"},{"name":"대관령성당앞 주차장","type":"공영","category":"노상","address":"강원도 평창군 대관령면 눈마을길 47","lat":37.67255532,"lng":128.7093483,"totalSpaces":6,"isFree":true,"operatingDays":"평일+토요일+공휴일","weekdayOpen":"00:00","weekdayClose":"23:59","weekendOpen":"00:00","weekendClose":"23:59","holidayOpen":"00:00","holidayClose":"23:59","feeInfo":"무료","phone":"033-330-2285","updatedAt":"2022-09-27","sido":"강원도","sigungu":"평창군","dong":"대관령면"},{"name":"흥일회관 앞 주차장","type":"공영","category":"노외","address":"강원도 평창군 대관령면 횡계3길 3","lat":37.67439084,"lng":128.7089698,"totalSpaces":6,"isFree":true,"operatingDays":"평일+토요일+공휴일","weekdayOpen":"00:00","weekdayClose":"23:59","weekendOpen":"00:00","weekendClose":"23:59","holidayOpen":"00:00","holidayClose":"23:59","feeInfo":"무료","phone":"033-330-2285","updatedAt":"2022-09-27","sido":"강원도","sigungu":"평창군","dong":"대관령면"},{"name":"송정택지 2주차장","type":"공영","category":"노외","address":"강원도 평창군 진부면 송정택지2길 33-10","lat":37.6339316,"lng":128.5615077,"totalSpaces":5,"isFree":true,"operatingDays":"평일+토요일+공휴일","weekdayOpen":"00:00","weekdayClose":"23:59","weekendOpen":"00:00","weekendClose":"23:59","holidayOpen":"00:00","holidayClose":"23:59","feeInfo":"무료","phone":"033-330-2285","updatedAt":"2022-09-27","sido":"강원도","sigungu":"평창군","dong":"진부면"},{"name":"봉평축협 앞 주차장","type":"공영","category":"노외","address":"강원도 평창군 봉평면 동이장터길 26","lat":37.61699533,"lng":128.3767785,"totalSpaces":5,"isFree":true,"operatingDays":"평일+토요일+공휴일","weekdayOpen":"00:00","weekdayClose":"23:59","weekendOpen":"00:00","weekendClose":"23:59","holidayOpen":"00:00","holidayClose":"23:59","feeInfo":"무료","phone":"033-330-2285","updatedAt":"2022-09-27","sido":"강원도","sigungu":"평창군","dong":"봉평면"},{"name":"계촌초등학교 정문 주차장","type":"공영","category":"노외","address":"강원도 평창군 방림면 계촌길 61","lat":37.45205596,"lng":128.3040872,"totalSpaces":5,"isFree":true,"operatingDays":"평일+토요일+공휴일","weekdayOpen":"00:00","weekdayClose":"23:59","weekendOpen":"00:00","weekendClose":"23:59","holidayOpen":"00:00","holidayClose":"23:59","feeInfo":"무료","phone":"033-330-2285","updatedAt":"2022-09-27","sido":"강원도","sigungu":"평창군","dong":"방림면"}]}