{"sido":"전북특별자치도","sigungu":"부안군","totalCount":21,"validCount":21,"items":[{"name":"부안스포츠파트주차장","type":"공영","category":"부설","address":"전북특별자치도 부안군 부안군 행안면 체육공원길 32","lat":35.70216897,"lng":126.7220351,"totalSpaces":1092,"isFree":true,"operatingDays":"평일+토요일+공휴일","weekdayOpen":"00:00","weekdayClose":"23:59","weekendOpen":"00:00","weekendClose":"23:59","holidayOpen":"00:00","holidayClose":"23:59","feeInfo":"무료","phone":"063-580-4691","updatedAt":"2025-07-08","sido":"전북특별자치도","sigungu":"부안군","dong":""},{"name":"변산해수욕장주차장","type":"공영","category":"노외","address":"전북특별자치도 부안군 부안군 변산면 대항리 609","lat":35.68258319,"lng":126.5345118,"totalSpaces":875,"isFree":true,"operatingDays":"평일+토요일+공휴일","weekdayOpen":"00:00","weekdayClose":"23:59","weekendOpen":"00:00","weekendClose":"23:59","holidayOpen":"00:00","holidayClose":"23:59","feeInfo":"무료","phone":"063-580-4738","updatedAt":"2025-07-08","sido":"전북특별자치도","sigungu":"부안군","dong":""},{"name":"곰소다용도부지공영주차장","type":"공영","category":"노외","address":"전북특별자치도 부안군 부안군 진서면 곰소리 911","lat":35.58880281,"lng":126.6124509,"totalSpaces":400,"isFree":true,"operatingDays":"평일+토요일+공휴일","weekdayOpen":"00:00","weekdayClose":"23:59","weekendOpen":"00:00","weekendClose":"23:59","holidayOpen":"00:00","holidayClose":"23:59","feeInfo":"무료","phone":"063-580-4877","updatedAt":"2025-07-08","sido":"전북특별자치도","sigungu":"부안군","dong":""},{"name":"모항해수욕장주차장","type":"공영","category":"노외","address":"전북특별자치도 부안군 부안군 변산면 도청리 172","lat":35.58287178,"lng":126.508663,"totalSpaces":266,"isFree":true,"operatingDays":"평일+토요일+공휴일","weekdayOpen":"00:00","weekdayClose":"23:59","weekendOpen":"00:00","weekendClose":"23:59","holidayOpen":"00:00","holidayClose":"23:59","feeInfo":"무료","phone":"063-580-4738","updatedAt":"2025-07-08","sido":"전북특별자치도","sigungu":"부안군","dong":""},{"name":"격포항주차장","type":"공영","category":"부설","address":"전북특별자치도 부안군 부안군 변산면 격포리 788-13","lat":35.62263119,"lng":126.4702633,"totalSpaces":229,"isFree":true,"operatingDays":"평일+토요일+공휴일","weekdayOpen":"00:00","weekdayClose":"23:59","weekendOpen":"00:00","weekendClose":"23:59","holidayOpen":"00:00","holidayClose":"23:59","feeInfo":"무료","phone":"063-580-4489","updatedAt":"2025-07-08","sido":"전북특별자치도","sigungu":"부안군","dong":""},{"name":"부안자연생태공원주차장","type":"공영","category":"부설","address":"전북특별자치도 부안군 부안군 줄포면 우포리 513","lat":35.58298467,"lng":126.6741306,"totalSpaces":215,"isFree":true,"operatingDays":"평일+토요일+공휴일","weekdayOpen":"00:00","weekdayClose":"23:59","weekendOpen":"00:00","weekendClose":"23:59","holidayOpen":"00:00","holidayClose":"23:59","feeInfo":"무료","phone":"063-580-3176","updatedAt":"2025-07-08","sido":"전북특별자치도","sigungu":"부안군","dong":""},{"name":"오정주차장","type":"공영","category":"노외","address":"전북특별자치도 부안군 부안군 부안읍 서외리 30-1","lat":35.72543844,"lng":126.732666,"totalSpaces":190,"isFree":true,"operatingDays":"평일+토요일+공휴일","weekdayOpen":"00:00","weekdayClose":"23:59","weekendOpen":"00:00","weekendClose":"23:59","holidayOpen":"00:00","holidayClose":"23:59","feeInfo":"무료","phone":"063-580-4536","updatedAt":"2025-07-08","sido":"전북특별자치도","sigungu":"부안군","dong":""},{"name":"격포채석강주차장","type":"공영","category":"노외","address":"전북특별자치도 부안군 부안군 변산면 격포리 283-1","lat":35.62829867,"lng":126.4710153,"totalSpaces":175,"isFree":true,"operatingDays":"평일+토요일+공휴일","weekdayOpen":"00:00","weekdayClose":"23:59","weekendOpen":"00:00","weekendClose":"23:59","holidayOpen":"00:00","holidayClose":"23:59","feeInfo":"무료","phone":"063-580-4536","updatedAt":"2025-07-08","sido":"전북특별자치도","sigungu":"부안군","dong":""},{"name":"부안영상테마파트주차장","type":"공영","category":"부설","address":"전북특별자치도 부안군 부안군 변산면 격포리 804","lat":35.61993091,"lng":126.4821111,"totalSpaces":146,"isFree":true,"operatingDays":"평일+토요일+공휴일","weekdayOpen":"00:00","weekdayClose":"23:59","weekendOpen":"00:00","weekendClose":"23:59","holidayOpen":"00:00","holidayClose":"23:59","feeInfo":"무료","phone":"063-580-4361","updatedAt":"2025-07-08","sido":"전북특별자치도","sigungu":"부안군","dong":""},{"name":"상설시장주차장","type":"공영","category":"노외","address":"전북특별자치도 부안군 부안군 부안읍 서외리 55-3","lat":35.72717632,"lng":126.731248,"totalSpaces":134,"isFree":true,"operatingDays":"평일+토요일+공휴일","weekdayOpen":"00:00","weekdayClose":"23:59","weekendOpen":"00:00","weekendClose":"23:59","holidayOpen":"00:00","holidayClose":"23:59","feeInfo":"무료","phone":"063-580-4536","updatedAt":"2025-07-08","sido":"전북특별자치도","sigungu":"부안군","dong":""},{"name":"곰소다용도부지공영주차장","type":"공영","category":"노외","address":"전북특별자치도 부안군 부안군 진서면 곰소리 960","lat":35.588341,"lng":126.6172474,"totalSpaces":110,"isFree":true,"operatingDays":"평일+토요일+공휴일","weekdayOpen":"00:00","weekdayClose":"23:59","weekendOpen":"00:00","weekendClose":"23:59","holidayOpen":"00:00","holidayClose":"23:59","feeInfo":"무료","phone":"063-580-4877","updatedAt":"2025-07-08","sido":"전북특별자치도","sigungu":"부안군","dong":""},{"name":"부안누에타운주차장","type":"공영","category":"부설","address":"전북특별자치도 부안군 부안군 변산면 참뽕로 434-20","lat":35.63184627,"lng":126.5130121,"totalSpaces":93,"isFree":true,"operatingDays":"평일+토요일+공휴일","weekdayOpen":"00:00","weekdayClose":"23:59","weekendOpen":"00:00","weekendClose":"23:59","holidayOpen":"00:00","holidayClose":"23:59","feeInfo":"무료","phone":"063-580-4616","updatedAt":"2025-07-08","sido":"전북특별자치도","sigungu":"부안군","dong":""},{"name":"예술회관부설주차장","type":"공영","category":"부설","address":"전북특별자치도 부안군 부안군 부안읍 예술회관길 11","lat":35.72430809,"lng":126.7254764,"totalSpaces":91,"isFree":true,"operatingDays":"평일+토요일+공휴일","weekdayOpen":"00:00","weekdayClose":"23:59","weekendOpen":"00:00","weekendClose":"23:59","holidayOpen":"00:00","holidayClose":"23:59","feeInfo":"무료","phone":"063-580-3923","updatedAt":"2025-07-08","sido":"전북특별자치도","sigungu":"부안군","dong":""},{"name":"부안청자박물관주차장","type":"공영","category":"부설","address":"전북특별자치도 부안군 부안군 보안면 청자로 1493","lat":35.61149913,"lng":126.6513338,"totalSpaces":78,"isFree":true,"operatingDays":"평일+토요일+공휴일","weekdayOpen":"00:00","weekdayClose":"23:59","weekendOpen":"00:00","weekendClose":"23:59","holidayOpen":"00:00","holidayClose":"23:59","feeInfo":"무료","phone":"063-580-3958","updatedAt":"2025-07-08","sido":"전북특별자치도","sigungu":"부안군","dong":""},{"name":"쌈지주차장","type":"공영","category":"노외","address":"전북특별자치도 부안군 부안군 부안읍 선은리 25-5","lat":35.727374,"lng":126.7398435,"totalSpaces":53,"isFree":true,"operatingDays":"평일+토요일+공휴일","weekdayOpen":"00:00","weekdayClose":"23:59","weekendOpen":"00:00","weekendClose":"23:59","holidayOpen":"00:00","holidayClose":"23:59","feeInfo":"무료","phone":"063-580-4536","updatedAt":"2025-07-08","sido":"전북특별자치도","sigungu":"부안군","dong":""},{"name":"부풍로공영주차장","type":"공영","category":"노외","address":"전북특별자치도 부안군 부안군 부안읍 서외리 103-10","lat":35.728507,"lng":126.732517,"totalSpaces":50,"isFree":true,"operatingDays":"평일+토요일+공휴일","weekdayOpen":"00:00","weekdayClose":"23:59","weekendOpen":"00:00","weekendClose":"23:59","holidayOpen":"00:00","holidayClose":"23:59","feeInfo":"무료","phone":"063-580-4873","updatedAt":"2025-07-08","sido":"전북특별자치도","sigungu":"부안군","dong":""},{"name":"송신공영주차장","type":"공영","category":"노외","address":"전북특별자치도 부안군 부안군 부안읍 봉덕리 804","lat":35.72670333,"lng":126.7393449,"totalSpaces":40,"isFree":true,"operatingDays":"평일+토요일+공휴일","weekdayOpen":"00:00","weekdayClose":"23:59","weekendOpen":"00:00","weekendClose":"23:59","holidayOpen":"00:00","holidayClose":"23:59","feeInfo":"무료","phone":"063-580-4536","updatedAt":"2025-07-08","sido":"전북특별자치도","sigungu":"부안군","dong":""},{"name":"부림공영주차장","type":"공영","category":"노외","address":"전북특별자치도 부안군 부안군 부안읍 서외리 25-1","lat":35.72762697,"lng":126.7328612,"totalSpaces":40,"isFree":true,"operatingDays":"평일+토요일+공휴일","weekdayOpen":"00:00","weekdayClose":"23:59","weekendOpen":"00:00","weekendClose":"23:59","holidayOpen":"00:00","holidayClose":"23:59","feeInfo":"무료","phone":"063-580-4536","updatedAt":"2025-07-08","sido":"전북특별자치도","sigungu":"부안군","dong":""},{"name":"읍사무소 옆 주차장","type":"공영","category":"노외","address":"전북특별자치도 부안군 부안군 부안읍 동중리 123-10","lat":35.729819,"lng":126.736685,"totalSpaces":40,"isFree":true,"operatingDays":"평일+토요일+공휴일","weekdayOpen":"00:00","weekdayClose":"23:59","weekendOpen":"00:00","weekendClose":"23:59","holidayOpen":"00:00","holidayClose":"23:59","feeInfo":"무료","phone":"063-580-4536","updatedAt":"2025-07-08","sido":"전북특별자치도","sigungu":"부안군","dong":""},{"name":"석동지구 주차장","type":"공영","category":"노외","address":"전북특별자치도 부안군 부안군 부안읍 봉덕리 752-1","lat":35.725092,"lng":126.733534,"totalSpaces":22,"isFree":true,"operatingDays":"평일+토요일+공휴일","weekdayOpen":"00:00","weekdayClose":"23:59","weekendOpen":"00:00","weekendClose":"23:59","holidayOpen":"00:00","holidayClose":"23:59","feeInfo":"무료","phone":"063-580-4536","updatedAt":"2025-07-08","sido":"전북특별자치도","sigungu":"부안군","dong":""},{"name":"마실공영주차장","type":"공영","category":"노외","address":"전북특별자치도 부안군 부안군 부안읍 번영로 121","lat":35.726535,"lng":126.733656,"totalSpaces":99,"isFree":false,"operatingDays":"평일+토요일+공휴일","weekdayOpen":"00:00","weekdayClose":"23:59","weekendOpen":"00:00","weekendClose":"23:59","holidayOpen":"00:00","holidayClose":"23:59","feeInfo":"기본 120분 2,000원 / 추가 20분당 1,000원","phone":"063-580-4117","updatedAt":"2025-07-08","sido":"전북특별자치도","sigungu":"부안군","dong":""}]}