{"sido":"전북특별자치도","sigungu":"진안군","totalCount":13,"validCount":13,"items":[{"name":"고원2","type":"공영","category":"노외","address":"전북특별자치도 진안군 진안읍 군상리 103-2","lat":35.79651854,"lng":127.4355142,"totalSpaces":121,"isFree":true,"operatingDays":"평일+토요일+공휴일","weekdayOpen":"00:00","weekdayClose":"23:59","weekendOpen":"00:00","weekendClose":"23:59","holidayOpen":"00:00","holidayClose":"23:59","feeInfo":"무료","phone":"","updatedAt":"2025-07-28","sido":"전북특별자치도","sigungu":"진안군","dong":"진안읍"},{"name":"진안군청","type":"공영","category":"노외","address":"전북특별자치도 진안군 진안읍 군하리 97-4","lat":35.79125388,"lng":127.424668,"totalSpaces":120,"isFree":true,"operatingDays":"평일+토요일+공휴일","weekdayOpen":"00:00","weekdayClose":"23:59","weekendOpen":"00:00","weekendClose":"23:59","holidayOpen":"00:00","holidayClose":"23:59","feeInfo":"무료","phone":"","updatedAt":"2025-07-28","sido":"전북특별자치도","sigungu":"진안군","dong":"진안읍"},{"name":"진안읍행정복지센터 앞","type":"공영","category":"노외","address":"전북특별자치도 진안군 진안읍 군하리 143","lat":35.78906921,"lng":127.4234361,"totalSpaces":89,"isFree":true,"operatingDays":"평일+토요일+공휴일","weekdayOpen":"00:00","weekdayClose":"23:59","weekendOpen":"00:00","weekendClose":"23:59","holidayOpen":"00:00","holidayClose":"23:59","feeInfo":"무료","phone":"","updatedAt":"2025-07-28","sido":"전북특별자치도","sigungu":"진안군","dong":"진안읍"},{"name":"군민참여센터","type":"공영","category":"노외","address":"전북특별자치도 진안군 진안읍 군하리 81-11","lat":35.790684,"lng":127.425594,"totalSpaces":85,"isFree":true,"operatingDays":"평일+토요일+공휴일","weekdayOpen":"00:00","weekdayClose":"23:59","weekendOpen":"00:00","weekendClose":"23:59","holidayOpen":"00:00","holidayClose":"23:59","feeInfo":"무료","phone":"","updatedAt":"2025-07-28","sido":"전북특별자치도","sigungu":"진안군","dong":"진안읍"},{"name":"진안시장","type":"공영","category":"노외","address":"전북특별자치도 진안군 진안읍 군상리 406-7","lat":35.79221983,"lng":127.4297706,"totalSpaces":72,"isFree":true,"operatingDays":"평일+토요일+공휴일","weekdayOpen":"00:00","weekdayClose":"23:59","weekendOpen":"00:00","weekendClose":"23:59","holidayOpen":"00:00","holidayClose":"23:59","feeInfo":"무료","phone":"","updatedAt":"2025-07-28","sido":"전북특별자치도","sigungu":"진안군","dong":"진안읍"},{"name":"진안중앙1","type":"공영","category":"노외","address":"전북특별자치도 진안군 진안읍 군상리 888","lat":35.793209,"lng":127.425535,"totalSpaces":61,"isFree":true,"operatingDays":"평일+토요일+공휴일","weekdayOpen":"00:00","weekdayClose":"23:59","weekendOpen":"00:00","weekendClose":"23:59","holidayOpen":"00:00","holidayClose":"23:59","feeInfo":"무료","phone":"","updatedAt":"2025-07-28","sido":"전북특별자치도","sigungu":"진안군","dong":"진안읍"},{"name":"고원1","type":"공영","category":"노외","address":"전북특별자치도 진안군 진안읍 군상리 394","lat":35.79132953,"lng":127.4311591,"totalSpaces":46,"isFree":true,"operatingDays":"평일+토요일+공휴일","weekdayOpen":"00:00","weekdayClose":"23:59","weekendOpen":"00:00","weekendClose":"23:59","holidayOpen":"00:00","holidayClose":"23:59","feeInfo":"무료","phone":"","updatedAt":"2025-07-28","sido":"전북특별자치도","sigungu":"진안군","dong":"진안읍"},{"name":"진안중앙2","type":"공영","category":"노외","address":"전북특별자치도 진안군 진안읍 군상리 938-9","lat":35.79202816,"lng":127.4256899,"totalSpaces":45,"isFree":true,"operatingDays":"평일+토요일+공휴일","weekdayOpen":"00:00","weekdayClose":"23:59","weekendOpen":"00:00","weekendClose":"23:59","holidayOpen":"00:00","holidayClose":"23:59","feeInfo":"무료","phone":"","updatedAt":"2025-07-28","sido":"전북특별자치도","sigungu":"진안군","dong":"진안읍"},{"name":"중앙3","type":"공영","category":"노외","address":"전북특별자치도 진안군 진안읍 군상리 891-11","lat":35.79348163,"lng":127.424737,"totalSpaces":27,"isFree":true,"operatingDays":"평일+토요일+공휴일","weekdayOpen":"00:00","weekdayClose":"23:59","weekendOpen":"00:00","weekendClose":"23:59","holidayOpen":"00:00","holidayClose":"23:59","feeInfo":"무료","phone":"","updatedAt":"2025-07-28","sido":"전북특별자치도","sigungu":"진안군","dong":"진안읍"},{"name":"고원3","type":"공영","category":"노외","address":"전북특별자치도 진안군 진안읍 군상리 404-24","lat":35.79201698,"lng":127.4320037,"totalSpaces":22,"isFree":true,"operatingDays":"평일+토요일+공휴일","weekdayOpen":"00:00","weekdayClose":"23:59","weekendOpen":"00:00","weekendClose":"23:59","holidayOpen":"00:00","holidayClose":"23:59","feeInfo":"무료","phone":"","updatedAt":"2025-07-28","sido":"전북특별자치도","sigungu":"진안군","dong":"진안읍"},{"name":"우화2길 근린공원 앞","type":"공영","category":"노상","address":"전북특별자치도 진안군 진안읍 군상리 367-1","lat":35.791271,"lng":127.429156,"totalSpaces":12,"isFree":true,"operatingDays":"평일+토요일+공휴일","weekdayOpen":"00:00","weekdayClose":"23:59","weekendOpen":"00:00","weekendClose":"23:59","holidayOpen":"00:00","holidayClose":"23:59","feeInfo":"무료","phone":"","updatedAt":"2025-07-28","sido":"전북특별자치도","sigungu":"진안군","dong":"진안읍"},{"name":"고원시장","type":"공영","category":"노상","address":"전북특별자치도 진안군 진안읍 군상리 476-2","lat":35.79350836,"lng":127.429258,"totalSpaces":10,"isFree":true,"operatingDays":"평일+토요일+공휴일","weekdayOpen":"00:00","weekdayClose":"23:59","weekendOpen":"00:00","weekendClose":"23:59","holidayOpen":"00:00","holidayClose":"23:59","feeInfo":"무료","phone":"","updatedAt":"2025-07-28","sido":"전북특별자치도","sigungu":"진안군","dong":"진안읍"},{"name":"이웃사촌앞","type":"공영","category":"노상","address":"전북특별자치도 진안군 진안읍 군상리 507-1","lat":35.793003,"lng":127.4273755,"totalSpaces":6,"isFree":true,"operatingDays":"평일+토요일+공휴일","weekdayOpen":"00:00","weekdayClose":"23:59","weekendOpen":"00:00","weekendClose":"23:59","holidayOpen":"00:00","holidayClose":"23:59","feeInfo":"무료","phone":"","updatedAt":"2025-07-28","sido":"전북특별자치도","sigungu":"진안군","dong":"진안읍"}]}