{"sido":"대전광역시","sigungu":"대덕구","totalCount":68,"validCount":68,"items":[{"name":"대덕산업단지주차장","type":"공영","category":"노외","address":"대전광역시 대덕구 문평동로 16","lat":36.44610531,"lng":127.4035766,"totalSpaces":111,"isFree":true,"operatingDays":"평일+토요일+공휴일","weekdayOpen":"09:00","weekdayClose":"23:59","weekendOpen":"00:00","weekendClose":"23:59","holidayOpen":"00:00","holidayClose":"23:59","feeInfo":"무료","phone":"042-120","updatedAt":"2022-12-15","sido":"대전광역시","sigungu":"대덕구","dong":"문평동"},{"name":"대덕산업단지주차장","type":"공영","category":"노외","address":"대전광역시 대덕구 문평동로 16","lat":36.44610531,"lng":127.4035766,"totalSpaces":111,"isFree":true,"operatingDays":"평일+토요일+공휴일","weekdayOpen":"09:00","weekdayClose":"23:59","weekendOpen":"00:00","weekendClose":"23:59","holidayOpen":"00:00","holidayClose":"23:59","feeInfo":"무료","phone":"042-120","updatedAt":"2025-08-31","sido":"대전광역시","sigungu":"대덕구","dong":"문평동"},{"name":"장동욕골지구 공영주차장","type":"공영","category":"노외","address":"대전광역시 대덕구 장동로 223-10","lat":36.4140307,"lng":127.438006,"totalSpaces":91,"isFree":true,"operatingDays":"평일+토요일+공휴일","weekdayOpen":"09:00","weekdayClose":"23:59","weekendOpen":"00:00","weekendClose":"23:59","holidayOpen":"00:00","holidayClose":"23:59","feeInfo":"무료","phone":"042-120","updatedAt":"2022-12-15","sido":"대전광역시","sigungu":"대덕구","dong":"장동"},{"name":"장동욕골지구 공영주차장","type":"공영","category":"노외","address":"대전광역시 대덕구 장동로 223-10","lat":36.4140307,"lng":127.438006,"totalSpaces":91,"isFree":true,"operatingDays":"평일+토요일+공휴일","weekdayOpen":"09:00","weekdayClose":"23:59","weekendOpen":"00:00","weekendClose":"23:59","holidayOpen":"00:00","holidayClose":"23:59","feeInfo":"무료","phone":"042-120","updatedAt":"2025-08-31","sido":"대전광역시","sigungu":"대덕구","dong":"장동"},{"name":"산중골주차장","type":"공영","category":"노외","address":"대전광역시 대덕구 계족로740번길 80","lat":36.37825836,"lng":127.4314387,"totalSpaces":89,"isFree":true,"operatingDays":"평일+토요일+공휴일","weekdayOpen":"09:00","weekdayClose":"23:59","weekendOpen":"00:00","weekendClose":"23:59","holidayOpen":"00:00","holidayClose":"23:59","feeInfo":"무료","phone":"042-120","updatedAt":"2025-08-31","sido":"대전광역시","sigungu":"대덕구","dong":"읍내동"},{"name":"회덕동 공영주차장","type":"공영","category":"노외","address":"대전광역시 대덕구 읍내동 247-3","lat":36.3767305,"lng":127.4217681,"totalSpaces":66,"isFree":true,"operatingDays":"평일+토요일+공휴일","weekdayOpen":"09:00","weekdayClose":"23:59","weekendOpen":"00:00","weekendClose":"23:59","holidayOpen":"00:00","holidayClose":"23:59","feeInfo":"무료","phone":"042-120","updatedAt":"2022-12-15","sido":"대전광역시","sigungu":"대덕구","dong":"읍내동"},{"name":"계족산로81번길 노상주차장","type":"공영","category":"노상","address":"대전광역시 대덕구 계족산로81번길 11","lat":36.36366408,"lng":127.4399173,"totalSpaces":56,"isFree":true,"operatingDays":"평일+토요일+공휴일","weekdayOpen":"09:00","weekdayClose":"22:00","weekendOpen":"09:00","weekendClose":"22:00","holidayOpen":"00:00","holidayClose":"23:59","feeInfo":"무료","phone":"042-120","updatedAt":"2025-08-31","sido":"대전광역시","sigungu":"대덕구","dong":""},{"name":"중리미래공영주차장","type":"공영","category":"노외","address":"대전광역시 대덕구 중리로75번길 9","lat":36.36564901,"lng":127.4244429,"totalSpaces":51,"isFree":true,"operatingDays":"평일+토요일+공휴일","weekdayOpen":"09:00","weekdayClose":"23:59","weekendOpen":"00:00","weekendClose":"23:59","holidayOpen":"00:00","holidayClose":"23:59","feeInfo":"무료","phone":"042-120","updatedAt":"2025-08-31","sido":"대전광역시","sigungu":"대덕구","dong":"중리동"},{"name":"한촌공원 주차장","type":"공영","category":"노외","address":"대전광역시 대덕구 중리동 223-1","lat":36.35715496,"lng":127.4217853,"totalSpaces":50,"isFree":true,"operatingDays":"평일+토요일+공휴일","weekdayOpen":"09:00","weekdayClose":"23:59","weekendOpen":"00:00","weekendClose":"23:59","holidayOpen":"00:00","holidayClose":"23:59","feeInfo":"무료","phone":"042-120","updatedAt":"2022-12-15","sido":"대전광역시","sigungu":"대덕구","dong":"중리동"},{"name":"용호마을테마먹거리촌공영주차장","type":"공영","category":"노외","address":"대전광역시 대덕구 대청로 238","lat":36.44832071,"lng":127.4512973,"totalSpaces":50,"isFree":true,"operatingDays":"평일+토요일+공휴일","weekdayOpen":"09:00","weekdayClose":"23:59","weekendOpen":"00:00","weekendClose":"23:59","holidayOpen":"00:00","holidayClose":"23:59","feeInfo":"무료","phone":"042-120","updatedAt":"2025-08-31","sido":"대전광역시","sigungu":"대덕구","dong":"용호동"},{"name":"동춘당로94번길 노상주차장","type":"공영","category":"노상","address":"대전광역시 대덕구 동춘당로94번길 11-15","lat":36.36604843,"lng":127.4394172,"totalSpaces":48,"isFree":true,"operatingDays":"평일+토요일+공휴일","weekdayOpen":"09:00","weekdayClose":"22:00","weekendOpen":"09:00","weekendClose":"22:00","holidayOpen":"00:00","holidayClose":"23:59","feeInfo":"무료","phone":"042-120","updatedAt":"2025-08-31","sido":"대전광역시","sigungu":"대덕구","dong":""},{"name":"용호마을테마먹거리촌공영주차장","type":"공영","category":"노외","address":"대전광역시 대덕구 대청로 238","lat":36.44832071,"lng":127.4512973,"totalSpaces":47,"isFree":true,"operatingDays":"평일+토요일+공휴일","weekdayOpen":"09:00","weekdayClose":"23:59","weekendOpen":"00:00","weekendClose":"23:59","holidayOpen":"00:00","holidayClose":"23:59","feeInfo":"무료","phone":"042-120","updatedAt":"2022-12-15","sido":"대전광역시","sigungu":"대덕구","dong":"용호동"},{"name":"송촌도서관 주차장","type":"공영","category":"노외","address":"대전광역시 대덕구 송촌로 59","lat":36.360082,"lng":127.4401573,"totalSpaces":39,"isFree":true,"operatingDays":"평일+토요일+공휴일","weekdayOpen":"09:00","weekdayClose":"23:59","weekendOpen":"00:00","weekendClose":"23:59","holidayOpen":"00:00","holidayClose":"23:59","feeInfo":"무료","phone":"042-120","updatedAt":"2022-12-15","sido":"대전광역시","sigungu":"대덕구","dong":"송촌동"},{"name":"송촌도서관 주차장","type":"공영","category":"노외","address":"대전광역시 대덕구 송촌로 59","lat":36.360082,"lng":127.4401573,"totalSpaces":39,"isFree":true,"operatingDays":"평일+토요일+공휴일","weekdayOpen":"09:00","weekdayClose":"23:59","weekendOpen":"00:00","weekendClose":"23:59","holidayOpen":"00:00","holidayClose":"23:59","feeInfo":"무료","phone":"042-120","updatedAt":"2025-08-31","sido":"대전광역시","sigungu":"대덕구","dong":"송촌동"},{"name":"읍내어울림공영주차장","type":"공영","category":"노외","address":"대전광역시 대덕구 계족로 728","lat":36.37632865,"lng":127.4277639,"totalSpaces":35,"isFree":true,"operatingDays":"평일+토요일+공휴일","weekdayOpen":"09:00","weekdayClose":"23:59","weekendOpen":"00:00","weekendClose":"23:59","holidayOpen":"00:00","holidayClose":"23:59","feeInfo":"무료","phone":"042-120","updatedAt":"2022-12-15","sido":"대전광역시","sigungu":"대덕구","dong":"읍내동"},{"name":"법동생활체육공영주차장","type":"공영","category":"노외","address":"대전광역시 대덕구 선비마을로 260","lat":36.37496754,"lng":127.428366,"totalSpaces":34,"isFree":true,"operatingDays":"평일+토요일+공휴일","weekdayOpen":"09:00","weekdayClose":"23:59","weekendOpen":"00:00","weekendClose":"23:59","holidayOpen":"00:00","holidayClose":"23:59","feeInfo":"무료","phone":"042-120","updatedAt":"2022-12-15","sido":"대전광역시","sigungu":"대덕구","dong":"법동"},{"name":"법동생활체육공영주차장","type":"공영","category":"노외","address":"대전광역시 대덕구 선비마을로 260","lat":36.37496754,"lng":127.428366,"totalSpaces":34,"isFree":true,"operatingDays":"평일+토요일+공휴일","weekdayOpen":"09:00","weekdayClose":"23:59","weekendOpen":"00:00","weekendClose":"23:59","holidayOpen":"00:00","holidayClose":"23:59","feeInfo":"무료","phone":"042-120","updatedAt":"2025-08-31","sido":"대전광역시","sigungu":"대덕구","dong":"법동"},{"name":"비래동 제2공영주차장","type":"공영","category":"노외","address":"대전광역시 대덕구 비래동 412-2","lat":36.36621624,"lng":127.4474996,"totalSpaces":31,"isFree":true,"operatingDays":"평일+토요일+공휴일","weekdayOpen":"09:00","weekdayClose":"23:59","weekendOpen":"00:00","weekendClose":"23:59","holidayOpen":"00:00","holidayClose":"23:59","feeInfo":"무료","phone":"042-120","updatedAt":"2022-12-15","sido":"대전광역시","sigungu":"대덕구","dong":"비래동"},{"name":"송촌대양공영주차장","type":"공영","category":"노외","address":"대전광역시 대덕구 계족산로36번길 71","lat":36.36225469,"lng":127.439054,"totalSpaces":29,"isFree":true,"operatingDays":"평일+토요일+공휴일","weekdayOpen":"09:00","weekdayClose":"23:59","weekendOpen":"00:00","weekendClose":"23:59","holidayOpen":"00:00","holidayClose":"23:59","feeInfo":"무료","phone":"042-120","updatedAt":"2022-12-15","sido":"대전광역시","sigungu":"대덕구","dong":"송촌동"},{"name":"송촌대양공영주차장","type":"공영","category":"노외","address":"대전광역시 대덕구 계족산로36번길 71","lat":36.36225469,"lng":127.439054,"totalSpaces":29,"isFree":true,"operatingDays":"평일+토요일+공휴일","weekdayOpen":"09:00","weekdayClose":"23:59","weekendOpen":"00:00","weekendClose":"23:59","holidayOpen":"00:00","holidayClose":"23:59","feeInfo":"무료","phone":"042-120","updatedAt":"2025-08-31","sido":"대전광역시","sigungu":"대덕구","dong":"송촌동"},{"name":"비래동로 23번길 공영주차장","type":"공영","category":"노외","address":"대전광역시 대덕구 비래동로23번길 28","lat":36.356673,"lng":127.4490253,"totalSpaces":26,"isFree":true,"operatingDays":"평일+토요일+공휴일","weekdayOpen":"09:00","weekdayClose":"23:59","weekendOpen":"00:00","weekendClose":"23:59","holidayOpen":"00:00","holidayClose":"23:59","feeInfo":"무료","phone":"042-120","updatedAt":"2022-12-15","sido":"대전광역시","sigungu":"대덕구","dong":"비래동"},{"name":"송촌소리공영주차장","type":"공영","category":"노외","address":"대전광역시 대덕구 계족산로81번길 116","lat":36.36731791,"lng":127.4364683,"totalSpaces":24,"isFree":true,"operatingDays":"평일+토요일+공휴일","weekdayOpen":"09:00","weekdayClose":"23:59","weekendOpen":"00:00","weekendClose":"23:59","holidayOpen":"00:00","holidayClose":"23:59","feeInfo":"무료","phone":"042-120","updatedAt":"2022-12-15","sido":"대전광역시","sigungu":"대덕구","dong":"송촌동"},{"name":"송촌소리공영주차장","type":"공영","category":"노외","address":"대전광역시 대덕구 계족산로81번길 116","lat":36.36731791,"lng":127.4364683,"totalSpaces":24,"isFree":true,"operatingDays":"평일+토요일+공휴일","weekdayOpen":"09:00","weekdayClose":"23:59","weekendOpen":"00:00","weekendClose":"23:59","holidayOpen":"00:00","holidayClose":"23:59","feeInfo":"무료","phone":"042-120","updatedAt":"2025-08-31","sido":"대전광역시","sigungu":"대덕구","dong":"송촌동"},{"name":"벌말지구 주차장","type":"공영","category":"노외","address":"대전광역시 대덕구 대청로 526번길 33","lat":36.46720558,"lng":127.4708289,"totalSpaces":18,"isFree":true,"operatingDays":"평일+토요일+공휴일","weekdayOpen":"09:00","weekdayClose":"23:59","weekendOpen":"00:00","weekendClose":"23:59","holidayOpen":"00:00","holidayClose":"23:59","feeInfo":"무료","phone":"042-120","updatedAt":"2022-12-15","sido":"대전광역시","sigungu":"대덕구","dong":"미호동"},{"name":"벌말지구 주차장","type":"공영","category":"노외","address":"대전광역시 대덕구 대청로 526번길 33","lat":36.46720558,"lng":127.4708289,"totalSpaces":18,"isFree":true,"operatingDays":"평일+토요일+공휴일","weekdayOpen":"09:00","weekdayClose":"23:59","weekendOpen":"00:00","weekendClose":"23:59","holidayOpen":"00:00","holidayClose":"23:59","feeInfo":"무료","phone":"042-120","updatedAt":"2025-08-31","sido":"대전광역시","sigungu":"대덕구","dong":"미호동"},{"name":"남경지구 제2공영주차장","type":"공영","category":"노외","address":"대전광역시 대덕구 신탄진동 295-128","lat":36.4428146,"lng":127.4304192,"totalSpaces":16,"isFree":true,"operatingDays":"평일+토요일+공휴일","weekdayOpen":"09:00","weekdayClose":"23:59","weekendOpen":"00:00","weekendClose":"23:59","holidayOpen":"00:00","holidayClose":"23:59","feeInfo":"무료","phone":"042-120","updatedAt":"2022-12-15","sido":"대전광역시","sigungu":"대덕구","dong":"신탄진동"},{"name":"남경지구 제1공영주차장","type":"공영","category":"노외","address":"대전광역시 대덕구 신탄진동 266-15","lat":36.44350713,"lng":127.4317855,"totalSpaces":16,"isFree":true,"operatingDays":"평일+토요일+공휴일","weekdayOpen":"09:00","weekdayClose":"23:59","weekendOpen":"00:00","weekendClose":"23:59","holidayOpen":"00:00","holidayClose":"23:59","feeInfo":"무료","phone":"042-120","updatedAt":"2022-12-15","sido":"대전광역시","sigungu":"대덕구","dong":"신탄진동"},{"name":"석봉과선교 철도주변 공영주차장","type":"공영","category":"노외","address":"대전광역시 대덕구 석봉동 387-3","lat":36.44657096,"lng":127.428621,"totalSpaces":15,"isFree":true,"operatingDays":"평일+토요일+공휴일","weekdayOpen":"09:00","weekdayClose":"23:59","weekendOpen":"00:00","weekendClose":"23:59","holidayOpen":"00:00","holidayClose":"23:59","feeInfo":"무료","phone":"042-120","updatedAt":"2022-12-15","sido":"대전광역시","sigungu":"대덕구","dong":"석봉동"},{"name":"신대지구 제1공영주차장","type":"공영","category":"노외","address":"대전광역시 대덕구 신대동 357-5","lat":36.3977378,"lng":127.4205356,"totalSpaces":15,"isFree":true,"operatingDays":"평일+토요일+공휴일","weekdayOpen":"09:00","weekdayClose":"23:59","weekendOpen":"00:00","weekendClose":"23:59","holidayOpen":"00:00","holidayClose":"23:59","feeInfo":"무료","phone":"042-120","updatedAt":"2022-12-15","sido":"대전광역시","sigungu":"대덕구","dong":"신대동"},{"name":"신대지구 제2공영주차장","type":"공영","category":"노외","address":"대전광역시 대덕구 신대동 238-1","lat":36.39820079,"lng":127.4187879,"totalSpaces":14,"isFree":true,"operatingDays":"평일+토요일+공휴일","weekdayOpen":"09:00","weekdayClose":"23:59","weekendOpen":"00:00","weekendClose":"23:59","holidayOpen":"00:00","holidayClose":"23:59","feeInfo":"무료","phone":"042-120","updatedAt":"2022-12-15","sido":"대전광역시","sigungu":"대덕구","dong":"신대동"},{"name":"남경지구 제3공영주차장","type":"공영","category":"노외","address":"대전광역시 대덕구 신탄진동 295-137","lat":36.4429067,"lng":127.4314286,"totalSpaces":12,"isFree":true,"operatingDays":"평일+토요일+공휴일","weekdayOpen":"09:00","weekdayClose":"23:59","weekendOpen":"00:00","weekendClose":"23:59","holidayOpen":"00:00","holidayClose":"23:59","feeInfo":"무료","phone":"042-120","updatedAt":"2022-12-15","sido":"대전광역시","sigungu":"대덕구","dong":"신탄진동"},{"name":"삼정동 제1공영주차장","type":"공영","category":"노외","address":"대전광역시 대덕구 삼정동 310-1","lat":36.45001037,"lng":127.4668463,"totalSpaces":11,"isFree":true,"operatingDays":"평일+토요일+공휴일","weekdayOpen":"09:00","weekdayClose":"23:59","weekendOpen":"00:00","weekendClose":"23:59","holidayOpen":"00:00","holidayClose":"23:59","feeInfo":"무료","phone":"042-120","updatedAt":"2022-12-15","sido":"대전광역시","sigungu":"대덕구","dong":"삼정동"},{"name":"비래동로 31번길 공영주차장","type":"공영","category":"노외","address":"대전광역시 대덕구 비래동로31번길 13","lat":36.35661308,"lng":127.4497824,"totalSpaces":10,"isFree":true,"operatingDays":"평일+토요일+공휴일","weekdayOpen":"09:00","weekdayClose":"23:59","weekendOpen":"00:00","weekendClose":"23:59","holidayOpen":"00:00","holidayClose":"23:59","feeInfo":"무료","phone":"042-120","updatedAt":"2022-12-15","sido":"대전광역시","sigungu":"대덕구","dong":"비래동"},{"name":"용호동주차장","type":"공영","category":"노외","address":"대전광역시 대덕구 용호동 177-1","lat":36.436087,"lng":127.4509039,"totalSpaces":8,"isFree":true,"operatingDays":"평일+토요일+공휴일","weekdayOpen":"09:00","weekdayClose":"23:59","weekendOpen":"00:00","weekendClose":"23:59","holidayOpen":"00:00","holidayClose":"23:59","feeInfo":"무료","phone":"042-120","updatedAt":"2022-12-15","sido":"대전광역시","sigungu":"대덕구","dong":"용호동"},{"name":"산디마을 공영주차장","type":"공영","category":"노외","address":"대전광역시 대덕구 장동 670","lat":36.3952939,"lng":127.4424192,"totalSpaces":7,"isFree":true,"operatingDays":"평일+토요일+공휴일","weekdayOpen":"09:00","weekdayClose":"23:59","weekendOpen":"00:00","weekendClose":"23:59","holidayOpen":"00:00","holidayClose":"23:59","feeInfo":"무료","phone":"042-120","updatedAt":"2022-12-15","sido":"대전광역시","sigungu":"대덕구","dong":"장동"},{"name":"새뜸마을안길 공영주차장","type":"공영","category":"노외","address":"대전광역시 대덕구 장동 783","lat":36.40287276,"lng":127.4359382,"totalSpaces":7,"isFree":true,"operatingDays":"평일+토요일+공휴일","weekdayOpen":"09:00","weekdayClose":"23:59","weekendOpen":"00:00","weekendClose":"23:59","holidayOpen":"00:00","holidayClose":"23:59","feeInfo":"무료","phone":"042-120","updatedAt":"2022-12-15","sido":"대전광역시","sigungu":"대덕구","dong":"장동"},{"name":"산중골주차장","type":"공영","category":"노외","address":"대전광역시 대덕구 계족로740번길 80","lat":36.37825836,"lng":127.4314387,"totalSpaces":4,"isFree":true,"operatingDays":"평일+토요일+공휴일","weekdayOpen":"09:00","weekdayClose":"23:59","weekendOpen":"00:00","weekendClose":"23:59","holidayOpen":"00:00","holidayClose":"23:59","feeInfo":"무료","phone":"042-120","updatedAt":"2022-12-15","sido":"대전광역시","sigungu":"대덕구","dong":"읍내동"},{"name":"송촌먹자골목공영주차장","type":"공영","category":"노외","address":"대전광역시 대덕구 송촌북로32번길 28","lat":36.36549657,"lng":127.4377195,"totalSpaces":173,"isFree":false,"operatingDays":"평일+토요일+공휴일","weekdayOpen":"09:00","weekdayClose":"23:59","weekendOpen":"00:00","weekendClose":"23:59","holidayOpen":"00:00","holidayClose":"23:59","feeInfo":"기본 10분 150원 / 추가 10분당 150원","phone":"042-120","updatedAt":"2022-12-15","sido":"대전광역시","sigungu":"대덕구","dong":"송촌동"},{"name":"송촌먹자골목공영주차장","type":"공영","category":"노외","address":"대전광역시 대덕구 송촌북로32번길 28","lat":36.36549657,"lng":127.4377195,"totalSpaces":173,"isFree":false,"operatingDays":"평일+토요일+공휴일","weekdayOpen":"09:00","weekdayClose":"23:59","weekendOpen":"00:00","weekendClose":"23:59","holidayOpen":"00:00","holidayClose":"23:59","feeInfo":"기본 10분 150원 / 추가 10분당 150원","phone":"042-120","updatedAt":"2025-08-31","sido":"대전광역시","sigungu":"대덕구","dong":"송촌동"},{"name":"동춘당생애길②공영주차장","type":"공영","category":"노외","address":"대전광역시 대덕구 계족산로 2","lat":36.36130697,"lng":127.4320404,"totalSpaces":172,"isFree":false,"operatingDays":"평일+토요일+공휴일","weekdayOpen":"09:00","weekdayClose":"23:59","weekendOpen":"00:00","weekendClose":"23:59","holidayOpen":"00:00","holidayClose":"23:59","feeInfo":"기본 10분 100원 / 추가 10분당 100원","phone":"042-120","updatedAt":"2022-12-15","sido":"대전광역시","sigungu":"대덕구","dong":"중리동"},{"name":"동춘당생애길②공영주차장","type":"공영","category":"노외","address":"대전광역시 대덕구 계족산로 2","lat":36.36130697,"lng":127.4320404,"totalSpaces":172,"isFree":false,"operatingDays":"평일+토요일+공휴일","weekdayOpen":"09:00","weekdayClose":"23:59","weekendOpen":"00:00","weekendClose":"23:59","holidayOpen":"00:00","holidayClose":"23:59","feeInfo":"기본 10분 100원 / 추가 10분당 100원","phone":"042-120","updatedAt":"2025-08-31","sido":"대전광역시","sigungu":"대덕구","dong":"중리동"},{"name":"송촌공영주차장","type":"공영","category":"노외","address":"대전광역시 대덕구 계족산로81번길 11","lat":36.36366454,"lng":127.4399154,"totalSpaces":93,"isFree":false,"operatingDays":"평일+토요일+공휴일","weekdayOpen":"09:00","weekdayClose":"23:59","weekendOpen":"00:00","weekendClose":"23:59","holidayOpen":"00:00","holidayClose":"23:59","feeInfo":"기본 10분 150원 / 추가 10분당 150원","phone":"042-120","updatedAt":"2022-12-15","sido":"대전광역시","sigungu":"대덕구","dong":"송촌동"},{"name":"송촌공영주차장","type":"공영","category":"노외","address":"대전광역시 대덕구 계족산로81번길 11","lat":36.36366454,"lng":127.4399154,"totalSpaces":93,"isFree":false,"operatingDays":"평일+토요일+공휴일","weekdayOpen":"09:00","weekdayClose":"23:59","weekendOpen":"00:00","weekendClose":"23:59","holidayOpen":"00:00","holidayClose":"23:59","feeInfo":"기본 10분 150원 / 추가 10분당 150원","phone":"042-120","updatedAt":"2025-08-31","sido":"대전광역시","sigungu":"대덕구","dong":"송촌동"},{"name":"송촌주민센터공영주차장","type":"공영","category":"노외","address":"대전광역시 대덕구 동춘당로114번길 9","lat":36.36700874,"lng":127.4382093,"totalSpaces":72,"isFree":false,"operatingDays":"평일+토요일+공휴일","weekdayOpen":"09:00","weekdayClose":"23:59","weekendOpen":"00:00","weekendClose":"23:59","holidayOpen":"00:00","holidayClose":"23:59","feeInfo":"기본 10분 150원 / 추가 10분당 150원","phone":"042-120","updatedAt":"2022-12-15","sido":"대전광역시","sigungu":"대덕구","dong":"송촌동"},{"name":"송촌주민센터공영주차장","type":"공영","category":"노외","address":"대전광역시 대덕구 동춘당로114번길 9","lat":36.36700874,"lng":127.4382093,"totalSpaces":72,"isFree":false,"operatingDays":"평일+토요일+공휴일","weekdayOpen":"09:00","weekdayClose":"23:59","weekendOpen":"00:00","weekendClose":"23:59","holidayOpen":"00:00","holidayClose":"23:59","feeInfo":"기본 10분 150원 / 추가 10분당 150원","phone":"042-120","updatedAt":"2025-08-31","sido":"대전광역시","sigungu":"대덕구","dong":"송촌동"},{"name":"비래동로노상공영주차장","type":"공영","category":"노상","address":"대전광역시 대덕구 비래동로 10","lat":36.35490718,"lng":127.4500177,"totalSpaces":59,"isFree":false,"operatingDays":"평일+토요일+공휴일","weekdayOpen":"09:00","weekdayClose":"20:00","weekendOpen":"00:00","weekendClose":"23:59","holidayOpen":"00:00","holidayClose":"23:59","feeInfo":"기본 10분 100원 / 추가 10분당 100원","phone":"042-120","updatedAt":"2025-08-31","sido":"대전광역시","sigungu":"대덕구","dong":""},{"name":"계족산로81번길 노상주차장","type":"공영","category":"노상","address":"대전광역시 대덕구 계족산로81번길 11","lat":36.36366408,"lng":127.4399173,"totalSpaces":56,"isFree":false,"operatingDays":"평일+토요일+공휴일","weekdayOpen":"09:00","weekdayClose":"22:00","weekendOpen":"09:00","weekendClose":"22:00","holidayOpen":"00:00","holidayClose":"23:59","feeInfo":"기본 10분 150원 / 추가 10분당 150원","phone":"042-120","updatedAt":"2022-12-15","sido":"대전광역시","sigungu":"대덕구","dong":""},{"name":"비래동로노상공영주차장","type":"공영","category":"노상","address":"대전광역시 대덕구 비래동로 10","lat":36.35490718,"lng":127.4500177,"totalSpaces":56,"isFree":false,"operatingDays":"평일+토요일+공휴일","weekdayOpen":"09:00","weekdayClose":"20:00","weekendOpen":"00:00","weekendClose":"23:59","holidayOpen":"00:00","holidayClose":"23:59","feeInfo":"기본 10분 100원 / 추가 10분당 100원","phone":"042-120","updatedAt":"2022-12-15","sido":"대전광역시","sigungu":"대덕구","dong":""},{"name":"송촌진가쟁이공영주차장","type":"공영","category":"노외","address":"대전광역시 대덕구 선비마을로5번길 26","lat":36.36283038,"lng":127.4451787,"totalSpaces":54,"isFree":false,"operatingDays":"평일+토요일+공휴일","weekdayOpen":"09:00","weekdayClose":"20:00","weekendOpen":"00:00","weekendClose":"23:59","holidayOpen":"00:00","holidayClose":"23:59","feeInfo":"기본 10분 100원 / 추가 10분당 100원","phone":"042-120","updatedAt":"2022-12-15","sido":"대전광역시","sigungu":"대덕구","dong":"송촌동"},{"name":"송촌진가쟁이공영주차장","type":"공영","category":"노외","address":"대전광역시 대덕구 선비마을로5번길 26","lat":36.36283038,"lng":127.4451787,"totalSpaces":54,"isFree":false,"operatingDays":"평일+토요일+공휴일","weekdayOpen":"09:00","weekdayClose":"20:00","weekendOpen":"00:00","weekendClose":"23:59","holidayOpen":"00:00","holidayClose":"23:59","feeInfo":"기본 10분 100원 / 추가 10분당 100원","phone":"042-120","updatedAt":"2025-08-31","sido":"대전광역시","sigungu":"대덕구","dong":"송촌동"},{"name":"중리미래공영주차장","type":"공영","category":"노외","address":"대전광역시 대덕구 중리로75번길 9","lat":36.36564901,"lng":127.4244429,"totalSpaces":50,"isFree":false,"operatingDays":"평일+토요일+공휴일","weekdayOpen":"09:00","weekdayClose":"23:59","weekendOpen":"00:00","weekendClose":"23:59","holidayOpen":"00:00","holidayClose":"23:59","feeInfo":"기본 10분 100원 / 추가 10분당 100원","phone":"042-120","updatedAt":"2022-12-15","sido":"대전광역시","sigungu":"대덕구","dong":"중리동"},{"name":"동춘당로94번길 노상주차장","type":"공영","category":"노상","address":"대전광역시 대덕구 동춘당로94번길 11-15","lat":36.36604843,"lng":127.4394172,"totalSpaces":46,"isFree":false,"operatingDays":"평일+토요일+공휴일","weekdayOpen":"09:00","weekdayClose":"22:00","weekendOpen":"09:00","weekendClose":"22:00","holidayOpen":"00:00","holidayClose":"23:59","feeInfo":"기본 10분 150원 / 추가 10분당 150원","phone":"042-120","updatedAt":"2022-12-15","sido":"대전광역시","sigungu":"대덕구","dong":""},{"name":"중리정려각공영주자장","type":"공영","category":"노외","address":"대전광역시 대덕구 송촌북로5번길 10","lat":36.36293133,"lng":127.4363814,"totalSpaces":42,"isFree":false,"operatingDays":"평일+토요일+공휴일","weekdayOpen":"09:00","weekdayClose":"23:59","weekendOpen":"00:00","weekendClose":"23:59","holidayOpen":"00:00","holidayClose":"23:59","feeInfo":"기본 10분 100원 / 추가 10분당 100원","phone":"042-120","updatedAt":"2022-12-15","sido":"대전광역시","sigungu":"대덕구","dong":"중리동"},{"name":"중리정려각공영주자장","type":"공영","category":"노외","address":"대전광역시 대덕구 송촌북로5번길 10","lat":36.36293133,"lng":127.4363814,"totalSpaces":42,"isFree":false,"operatingDays":"평일+토요일+공휴일","weekdayOpen":"09:00","weekdayClose":"23:59","weekendOpen":"00:00","weekendClose":"23:59","holidayOpen":"00:00","holidayClose":"23:59","feeInfo":"기본 10분 100원 / 추가 10분당 100원","phone":"042-120","updatedAt":"2025-08-31","sido":"대전광역시","sigungu":"대덕구","dong":"중리동"},{"name":"신탄진역앞공영주차장","type":"공영","category":"노외","address":"대전광역시 대덕구 신탄진동로7번길 64","lat":36.45041533,"lng":127.4297186,"totalSpaces":41,"isFree":false,"operatingDays":"평일+토요일+공휴일","weekdayOpen":"09:00","weekdayClose":"23:59","weekendOpen":"00:00","weekendClose":"23:59","holidayOpen":"00:00","holidayClose":"23:59","feeInfo":"기본 10분 150원 / 추가 10분당 150원","phone":"042-120","updatedAt":"2022-12-15","sido":"대전광역시","sigungu":"대덕구","dong":"신탄진동"},{"name":"신탄진역앞공영주차장","type":"공영","category":"노외","address":"대전광역시 대덕구 신탄진동로7번길 64","lat":36.45041533,"lng":127.4297186,"totalSpaces":41,"isFree":false,"operatingDays":"평일+토요일+공휴일","weekdayOpen":"09:00","weekdayClose":"23:59","weekendOpen":"00:00","weekendClose":"23:59","holidayOpen":"00:00","holidayClose":"23:59","feeInfo":"기본 10분 150원 / 추가 10분당 150원","phone":"042-120","updatedAt":"2025-08-31","sido":"대전광역시","sigungu":"대덕구","dong":"신탄진동"},{"name":"중리행복길①공영주차장","type":"공영","category":"노외","address":"대전광역시 대덕구 중리남로27번길 5","lat":36.360762,"lng":127.4288059,"totalSpaces":34,"isFree":false,"operatingDays":"평일+토요일+공휴일","weekdayOpen":"09:00","weekdayClose":"22:00","weekendOpen":"00:00","weekendClose":"23:59","holidayOpen":"00:00","holidayClose":"23:59","feeInfo":"기본 10분 100원 / 추가 10분당 100원","phone":"042-120","updatedAt":"2025-08-31","sido":"대전광역시","sigungu":"대덕구","dong":"중리동"},{"name":"중리행복길①공영주차장","type":"공영","category":"노외","address":"대전광역시 대덕구 중리남로27번길 5","lat":36.360762,"lng":127.4288059,"totalSpaces":34,"isFree":false,"operatingDays":"평일+토요일+공휴일","weekdayOpen":"09:00","weekdayClose":"22:00","weekendOpen":"00:00","weekendClose":"23:59","holidayOpen":"00:00","holidayClose":"23:59","feeInfo":"기본 15분 200원 / 추가 15분당 200원","phone":"042-120","updatedAt":"2022-12-15","sido":"대전광역시","sigungu":"대덕구","dong":"중리동"},{"name":"중리구봉공영주차장","type":"공영","category":"노외","address":"대전광역시 대덕구 중리동 164-5","lat":36.361489,"lng":127.4270616,"totalSpaces":30,"isFree":false,"operatingDays":"평일+토요일+공휴일","weekdayOpen":"09:00","weekdayClose":"23:59","weekendOpen":"00:00","weekendClose":"23:59","holidayOpen":"00:00","holidayClose":"23:59","feeInfo":"기본 10분 100원 / 추가 10분당 100원","phone":"042-120","updatedAt":"2022-12-15","sido":"대전광역시","sigungu":"대덕구","dong":"중리동"},{"name":"읍내어울림공영주차장","type":"공영","category":"노외","address":"대전광역시 대덕구 계족로 728","lat":36.37632865,"lng":127.4277639,"totalSpaces":30,"isFree":false,"operatingDays":"평일+토요일+공휴일","weekdayOpen":"09:00","weekdayClose":"23:59","weekendOpen":"00:00","weekendClose":"23:59","holidayOpen":"00:00","holidayClose":"23:59","feeInfo":"기본 10분 100원 / 추가 10분당 100원","phone":"042-120","updatedAt":"2025-08-31","sido":"대전광역시","sigungu":"대덕구","dong":"읍내동"},{"name":"동춘당생애길①공영주차장","type":"공영","category":"노외","address":"대전광역시 대덕구 계족산로 2","lat":36.36130697,"lng":127.4320404,"totalSpaces":27,"isFree":false,"operatingDays":"평일+토요일+공휴일","weekdayOpen":"09:00","weekdayClose":"23:59","weekendOpen":"00:00","weekendClose":"23:59","holidayOpen":"00:00","holidayClose":"23:59","feeInfo":"기본 10분 100원 / 추가 10분당 100원","phone":"042-120","updatedAt":"2022-12-15","sido":"대전광역시","sigungu":"대덕구","dong":"중리동"},{"name":"동춘당생애길①공영주차장","type":"공영","category":"노외","address":"대전광역시 대덕구 계족산로 2","lat":36.36130697,"lng":127.4320404,"totalSpaces":27,"isFree":false,"operatingDays":"평일+토요일+공휴일","weekdayOpen":"09:00","weekdayClose":"23:59","weekendOpen":"00:00","weekendClose":"23:59","holidayOpen":"00:00","holidayClose":"23:59","feeInfo":"기본 10분 100원 / 추가 10분당 100원","phone":"042-120","updatedAt":"2025-08-31","sido":"대전광역시","sigungu":"대덕구","dong":"중리동"},{"name":"비래동로 23번길 공영주차장","type":"공영","category":"노외","address":"대전광역시 대덕구 비래동로23번길 28","lat":36.35669822,"lng":127.4490229,"totalSpaces":22,"isFree":false,"operatingDays":"평일+토요일+공휴일","weekdayOpen":"09:00","weekdayClose":"23:59","weekendOpen":"00:00","weekendClose":"23:59","holidayOpen":"00:00","holidayClose":"23:59","feeInfo":"기본 10분 100원 / 추가 10분당 100원","phone":"042-120","updatedAt":"2025-08-31","sido":"대전광역시","sigungu":"대덕구","dong":"비래동"},{"name":"중리만남공영주차장","type":"공영","category":"노외","address":"대전광역시 대덕구 중리남로8번길 3","lat":36.36149254,"lng":127.4305618,"totalSpaces":21,"isFree":false,"operatingDays":"평일+토요일+공휴일","weekdayOpen":"09:00","weekdayClose":"23:59","weekendOpen":"00:00","weekendClose":"23:59","holidayOpen":"00:00","holidayClose":"23:59","feeInfo":"기본 10분 100원 / 추가 10분당 100원","phone":"042-120","updatedAt":"2022-12-15","sido":"대전광역시","sigungu":"대덕구","dong":"중리동"},{"name":"중리만남공영주차장","type":"공영","category":"노외","address":"대전광역시 대덕구 중리남로8번길 3","lat":36.36149254,"lng":127.4305618,"totalSpaces":17,"isFree":false,"operatingDays":"평일+토요일+공휴일","weekdayOpen":"09:00","weekdayClose":"23:59","weekendOpen":"00:00","weekendClose":"23:59","holidayOpen":"00:00","holidayClose":"23:59","feeInfo":"기본 10분 100원 / 추가 10분당 100원","phone":"042-120","updatedAt":"2025-08-31","sido":"대전광역시","sigungu":"대덕구","dong":"중리동"},{"name":"중리행복길②공영주차장","type":"공영","category":"노외","address":"대전광역시 대덕구 중리동로17번길 32","lat":36.360553,"lng":127.4279318,"totalSpaces":15,"isFree":false,"operatingDays":"평일+토요일+공휴일","weekdayOpen":"09:00","weekdayClose":"22:00","weekendOpen":"00:00","weekendClose":"23:59","holidayOpen":"00:00","holidayClose":"23:59","feeInfo":"기본 10분 100원 / 추가 10분당 100원","phone":"042-120","updatedAt":"2025-08-31","sido":"대전광역시","sigungu":"대덕구","dong":"중리동"},{"name":"중리행복길②공영주차장","type":"공영","category":"노외","address":"대전광역시 대덕구 중리동로17번길 32","lat":36.360553,"lng":127.4279318,"totalSpaces":15,"isFree":false,"operatingDays":"평일+토요일+공휴일","weekdayOpen":"09:00","weekdayClose":"22:00","weekendOpen":"00:00","weekendClose":"23:59","holidayOpen":"00:00","holidayClose":"23:59","feeInfo":"기본 15분 200원 / 추가 15분당 200원","phone":"042-120","updatedAt":"2022-12-15","sido":"대전광역시","sigungu":"대덕구","dong":"중리동"},{"name":"비래동로 31번길 공영주차장","type":"공영","category":"노외","address":"대전광역시 대덕구 비래동로31번길 13","lat":36.35661236,"lng":127.4497837,"totalSpaces":10,"isFree":false,"operatingDays":"평일+토요일+공휴일","weekdayOpen":"09:00","weekdayClose":"23:59","weekendOpen":"00:00","weekendClose":"23:59","holidayOpen":"00:00","holidayClose":"23:59","feeInfo":"기본 10분 100원 / 추가 10분당 100원","phone":"042-120","updatedAt":"2025-08-31","sido":"대전광역시","sigungu":"대덕구","dong":"비래동"}]}