{"sido":"대전광역시","sigungu":"서구","totalCount":129,"validCount":129,"items":[{"name":"갈마2동공영주차장","type":"공영","category":"노외","address":"대전광역시 서구 갈마동 343-28","lat":36.34828643,"lng":127.371588,"totalSpaces":277,"isFree":true,"operatingDays":"평일+토요일+공휴일","weekdayOpen":"00:00","weekdayClose":"23:59","weekendOpen":"00:00","weekendClose":"23:59","holidayOpen":"00:00","holidayClose":"23:59","feeInfo":"무료","phone":"042-288-4120","updatedAt":"2025-12-12","sido":"대전광역시","sigungu":"서구","dong":"갈마동"},{"name":"조달청 주변 노상주차장","type":"공영","category":"노상","address":"대전광역시 서구 도마동 499","lat":36.3192402,"lng":127.3809664,"totalSpaces":141,"isFree":true,"operatingDays":"평일+토요일+공휴일","weekdayOpen":"00:00","weekdayClose":"23:59","weekendOpen":"00:00","weekendClose":"23:59","holidayOpen":"00:00","holidayClose":"23:59","feeInfo":"무료","phone":"042-288-4120","updatedAt":"2025-12-12","sido":"대전광역시","sigungu":"서구","dong":"도마동"},{"name":"정림서로 노상주차장","type":"공영","category":"노상","address":"대전광역시 서구 정림로 55","lat":36.3045748,"lng":127.3650814,"totalSpaces":137,"isFree":true,"operatingDays":"평일+토요일+공휴일","weekdayOpen":"00:00","weekdayClose":"23:59","weekendOpen":"00:00","weekendClose":"23:59","holidayOpen":"00:00","holidayClose":"23:59","feeInfo":"무료","phone":"042-288-4120","updatedAt":"2025-12-12","sido":"대전광역시","sigungu":"서구","dong":"정림동"},{"name":"도마로 걸친주차장","type":"공영","category":"노상","address":"대전광역시 서구 도마로 94","lat":36.3217161,"lng":127.380468,"totalSpaces":122,"isFree":true,"operatingDays":"평일+토요일+공휴일","weekdayOpen":"00:00","weekdayClose":"23:59","weekendOpen":"00:00","weekendClose":"23:59","holidayOpen":"00:00","holidayClose":"23:59","feeInfo":"무료","phone":"042-288-4120","updatedAt":"2025-12-12","sido":"대전광역시","sigungu":"서구","dong":"도마동"},{"name":"관저중로95번길 노상주차장","type":"공영","category":"노상","address":"대전광역시 서구 관저로 83","lat":36.3003815,"lng":127.3314903,"totalSpaces":119,"isFree":true,"operatingDays":"평일+토요일+공휴일","weekdayOpen":"00:00","weekdayClose":"23:59","weekendOpen":"00:00","weekendClose":"23:59","holidayOpen":"00:00","holidayClose":"23:59","feeInfo":"무료","phone":"042-288-4120","updatedAt":"2025-12-12","sido":"대전광역시","sigungu":"서구","dong":"관저동"},{"name":"도마5길 노상주차장","type":"공영","category":"노상","address":"대전광역시 서구 유등로 285","lat":36.3173246,"lng":127.3834984,"totalSpaces":97,"isFree":true,"operatingDays":"평일+토요일+공휴일","weekdayOpen":"00:00","weekdayClose":"23:59","weekendOpen":"00:00","weekendClose":"23:59","holidayOpen":"00:00","holidayClose":"23:59","feeInfo":"무료","phone":"042-288-4120","updatedAt":"2025-12-12","sido":"대전광역시","sigungu":"서구","dong":"도마동"},{"name":"관저문예회관 공영주차장","type":"공영","category":"노외","address":"대전광역시 서구 관저동로105번길 20","lat":36.30167117,"lng":127.3395517,"totalSpaces":94,"isFree":true,"operatingDays":"평일+토요일+공휴일","weekdayOpen":"00:00","weekdayClose":"23:59","weekendOpen":"00:00","weekendClose":"23:59","holidayOpen":"00:00","holidayClose":"23:59","feeInfo":"무료","phone":"042-288-4120","updatedAt":"2025-12-12","sido":"대전광역시","sigungu":"서구","dong":"관저동"},{"name":"관저동제5공한지무료주차장","type":"공영","category":"노외","address":"대전광역시 서구 관저동1992-2","lat":36.2960184,"lng":127.3264728,"totalSpaces":94,"isFree":true,"operatingDays":"평일+토요일+공휴일","weekdayOpen":"00:00","weekdayClose":"23:59","weekendOpen":"00:00","weekendClose":"23:59","holidayOpen":"00:00","holidayClose":"23:59","feeInfo":"무료","phone":"042-288-4120","updatedAt":"2025-12-12","sido":"대전광역시","sigungu":"서구","dong":""},{"name":"문정로9번길,계룡로491번길노상주차장","type":"공영","category":"노상","address":"대전광역시 서구 둔산남로 30","lat":36.3484249,"lng":127.3813822,"totalSpaces":87,"isFree":true,"operatingDays":"평일+토요일+공휴일","weekdayOpen":"00:00","weekdayClose":"23:59","weekendOpen":"00:00","weekendClose":"23:59","holidayOpen":"00:00","holidayClose":"23:59","feeInfo":"무료","phone":"042-288-4120","updatedAt":"2025-12-12","sido":"대전광역시","sigungu":"서구","dong":"둔산동"},{"name":"정림동제2공영주차장","type":"공영","category":"노외","address":"대전광역시 서구 정림동 127-1","lat":36.3055023,"lng":127.3683476,"totalSpaces":84,"isFree":true,"operatingDays":"평일+토요일+공휴일","weekdayOpen":"00:00","weekdayClose":"23:59","weekendOpen":"00:00","weekendClose":"23:59","holidayOpen":"00:00","holidayClose":"23:59","feeInfo":"무료","phone":"042-288-4120","updatedAt":"2025-12-12","sido":"대전광역시","sigungu":"서구","dong":"정림동"},{"name":"사마1길 노상주차장","type":"공영","category":"노상","address":"대전광역시 서구 사마1길 29","lat":36.3166364,"lng":127.3759087,"totalSpaces":78,"isFree":true,"operatingDays":"평일+토요일+공휴일","weekdayOpen":"00:00","weekdayClose":"23:59","weekendOpen":"00:00","weekendClose":"23:59","holidayOpen":"00:00","holidayClose":"23:59","feeInfo":"무료","phone":"042-288-4120","updatedAt":"2025-12-12","sido":"대전광역시","sigungu":"서구","dong":"도마동"},{"name":"변동중로45번길 노상주차장","type":"공영","category":"노상","address":"대전광역시 서구 변동중로45번길 36","lat":36.3295537,"lng":127.3729144,"totalSpaces":73,"isFree":true,"operatingDays":"평일+토요일+공휴일","weekdayOpen":"00:00","weekdayClose":"23:59","weekendOpen":"00:00","weekendClose":"23:59","holidayOpen":"00:00","holidayClose":"23:59","feeInfo":"무료","phone":"042-288-4120","updatedAt":"2025-12-12","sido":"대전광역시","sigungu":"서구","dong":"변동"},{"name":"도마로 걸친주차장","type":"공영","category":"노상","address":"대전광역시 서구 도마로 50","lat":36.3221778,"lng":127.375653,"totalSpaces":71,"isFree":true,"operatingDays":"평일+토요일+공휴일","weekdayOpen":"00:00","weekdayClose":"23:59","weekendOpen":"00:00","weekendClose":"23:59","holidayOpen":"00:00","holidayClose":"23:59","feeInfo":"무료","phone":"042-288-4120","updatedAt":"2025-12-12","sido":"대전광역시","sigungu":"서구","dong":"도마동"},{"name":"대덕대로162번길 노상주차장","type":"공영","category":"노상","address":"대전광역시 서구 대덕대로150","lat":36.3450672,"lng":127.3769302,"totalSpaces":69,"isFree":true,"operatingDays":"평일+토요일+공휴일","weekdayOpen":"00:00","weekdayClose":"23:59","weekendOpen":"00:00","weekendClose":"23:59","holidayOpen":"00:00","holidayClose":"23:59","feeInfo":"무료","phone":"042-288-4120","updatedAt":"2025-12-12","sido":"대전광역시","sigungu":"서구","dong":"갈마동"},{"name":"대덕대로167, 168번길 노상주차장","type":"공영","category":"노상","address":"대전광역시 서구 대덕대로167번길 5","lat":36.3484058,"lng":127.3759678,"totalSpaces":67,"isFree":true,"operatingDays":"평일+토요일+공휴일","weekdayOpen":"00:00","weekdayClose":"23:59","weekendOpen":"00:00","weekendClose":"23:59","holidayOpen":"00:00","holidayClose":"23:59","feeInfo":"무료","phone":"042-288-4120","updatedAt":"2025-12-12","sido":"대전광역시","sigungu":"서구","dong":"갈마동"},{"name":"가수원로 노상주차장","type":"공영","category":"노상","address":"대전광역시 서구 가수원로 26","lat":36.2984711,"lng":127.3545536,"totalSpaces":67,"isFree":true,"operatingDays":"평일+토요일+공휴일","weekdayOpen":"00:00","weekdayClose":"23:59","weekendOpen":"00:00","weekendClose":"23:59","holidayOpen":"00:00","holidayClose":"23:59","feeInfo":"무료","phone":"042-288-4120","updatedAt":"2025-12-12","sido":"대전광역시","sigungu":"서구","dong":"가수원동"},{"name":"문정로40번길 노상주차장","type":"공영","category":"노상","address":"대전광역시 서구 문정로10번길39(개나리아파트)","lat":36.3456681,"lng":127.3833313,"totalSpaces":65,"isFree":true,"operatingDays":"평일+토요일+공휴일","weekdayOpen":"00:00","weekdayClose":"23:59","weekendOpen":"00:00","weekendClose":"23:59","holidayOpen":"00:00","holidayClose":"23:59","feeInfo":"무료","phone":"042-288-4120","updatedAt":"2025-12-12","sido":"대전광역시","sigungu":"서구","dong":"탄방동"},{"name":"둔산동제2공한지유료주차장","type":"공영","category":"노외","address":"대전광역시 서구 둔산동1113","lat":36.3498568,"lng":127.3759674,"totalSpaces":64,"isFree":true,"operatingDays":"평일+토요일+공휴일","weekdayOpen":"00:00","weekdayClose":"23:59","weekendOpen":"00:00","weekendClose":"23:59","holidayOpen":"00:00","holidayClose":"23:59","feeInfo":"무료","phone":"042-288-4120","updatedAt":"2025-12-12","sido":"대전광역시","sigungu":"서구","dong":""},{"name":"동서대로 노상주차장","type":"공영","category":"노상","address":"대전광역시 서구 가장동 36-30","lat":36.3290565,"lng":127.3847762,"totalSpaces":63,"isFree":true,"operatingDays":"평일+토요일+공휴일","weekdayOpen":"00:00","weekdayClose":"23:59","weekendOpen":"00:00","weekendClose":"23:59","holidayOpen":"00:00","holidayClose":"23:59","feeInfo":"무료","phone":"042-288-4120","updatedAt":"2025-12-12","sido":"대전광역시","sigungu":"서구","dong":"가장동"},{"name":"관저제1공한지무료주차장","type":"공영","category":"노외","address":"대전광역시 서구 관저동 1550-2","lat":36.2960861,"lng":127.3369934,"totalSpaces":60,"isFree":true,"operatingDays":"평일+토요일+공휴일","weekdayOpen":"00:00","weekdayClose":"23:59","weekendOpen":"00:00","weekendClose":"23:59","holidayOpen":"00:00","holidayClose":"23:59","feeInfo":"무료","phone":"042-288-4120","updatedAt":"2025-12-12","sido":"대전광역시","sigungu":"서구","dong":"관저동"},{"name":"둔산서로10 노상주차장","type":"공영","category":"노상","address":"대전광역시 서구 탄방동 589","lat":36.3482354,"lng":127.3848262,"totalSpaces":58,"isFree":true,"operatingDays":"평일+토요일+공휴일","weekdayOpen":"00:00","weekdayClose":"23:59","weekendOpen":"00:00","weekendClose":"23:59","holidayOpen":"00:00","holidayClose":"23:59","feeInfo":"무료","phone":"042-288-4120","updatedAt":"2025-12-12","sido":"대전광역시","sigungu":"서구","dong":"탄방동"},{"name":"만년중,만년고주변 노상주차장","type":"공영","category":"노상","address":"대전광역시 서구 만년로 6","lat":36.3672622,"lng":127.3729537,"totalSpaces":53,"isFree":true,"operatingDays":"평일+토요일+공휴일","weekdayOpen":"00:00","weekdayClose":"23:59","weekendOpen":"00:00","weekendClose":"23:59","holidayOpen":"00:00","holidayClose":"23:59","feeInfo":"무료","phone":"042-288-4120","updatedAt":"2025-12-12","sido":"대전광역시","sigungu":"서구","dong":"만년동"},{"name":"청사서로 노상주차장","type":"공영","category":"노상","address":"대전광역시 서구 청사서로 11","lat":36.3595763,"lng":127.3749986,"totalSpaces":51,"isFree":true,"operatingDays":"평일+토요일+공휴일","weekdayOpen":"00:00","weekdayClose":"23:59","weekendOpen":"00:00","weekendClose":"23:59","holidayOpen":"00:00","holidayClose":"23:59","feeInfo":"무료","phone":"042-288-4120","updatedAt":"2025-12-12","sido":"대전광역시","sigungu":"서구","dong":"월평동"},{"name":"관저제16공한지무료주차장","type":"공영","category":"노외","address":"대전광역시 서구 관저동 1944-6~8","lat":36.3054061,"lng":127.3339305,"totalSpaces":41,"isFree":true,"operatingDays":"평일+토요일+공휴일","weekdayOpen":"00:00","weekdayClose":"23:59","weekendOpen":"00:00","weekendClose":"23:59","holidayOpen":"00:00","holidayClose":"23:59","feeInfo":"무료","phone":"042-288-4120","updatedAt":"2025-12-12","sido":"대전광역시","sigungu":"서구","dong":"관저동"},{"name":"도솔로 걸친주차장","type":"공영","category":"노상","address":"대전광역시 서구 용문동226-4","lat":36.3406963,"lng":127.3981085,"totalSpaces":39,"isFree":true,"operatingDays":"평일+토요일+공휴일","weekdayOpen":"00:00","weekdayClose":"23:59","weekendOpen":"00:00","weekendClose":"23:59","holidayOpen":"00:00","holidayClose":"23:59","feeInfo":"무료","phone":"042-288-4120","updatedAt":"2025-12-12","sido":"대전광역시","sigungu":"서구","dong":""},{"name":"복수동제2공영주차장","type":"공영","category":"노외","address":"대전광역시 서구 복수동 645","lat":36.2990352,"lng":127.3794334,"totalSpaces":38,"isFree":true,"operatingDays":"평일+토요일+공휴일","weekdayOpen":"00:00","weekdayClose":"23:59","weekendOpen":"00:00","weekendClose":"23:59","holidayOpen":"00:00","holidayClose":"23:59","feeInfo":"무료","phone":"042-288-4120","updatedAt":"2025-12-12","sido":"대전광역시","sigungu":"서구","dong":"복수동"},{"name":"월평새뜰로 노상주차장","type":"공영","category":"노상","address":"대전광역시 서구 월평새뜸로 5","lat":36.351933,"lng":127.3528212,"totalSpaces":36,"isFree":true,"operatingDays":"평일+토요일+공휴일","weekdayOpen":"00:00","weekdayClose":"23:59","weekendOpen":"00:00","weekendClose":"23:59","holidayOpen":"00:00","holidayClose":"23:59","feeInfo":"무료","phone":"042-288-4120","updatedAt":"2025-12-12","sido":"대전광역시","sigungu":"서구","dong":"월평동"},{"name":"관저중로 노상주차장","type":"공영","category":"노상","address":"대전광역시 서구 관저로 83","lat":36.3003815,"lng":127.3314903,"totalSpaces":36,"isFree":true,"operatingDays":"평일+토요일+공휴일","weekdayOpen":"00:00","weekdayClose":"23:59","weekendOpen":"00:00","weekendClose":"23:59","holidayOpen":"00:00","holidayClose":"23:59","feeInfo":"무료","phone":"042-288-4120","updatedAt":"2025-12-12","sido":"대전광역시","sigungu":"서구","dong":"관저동"},{"name":"변동중로 노상주차장(2)","type":"공영","category":"노상","address":"대전광역시 서구 변동중로 63","lat":36.3295528,"lng":127.3761958,"totalSpaces":35,"isFree":true,"operatingDays":"평일+토요일+공휴일","weekdayOpen":"00:00","weekdayClose":"23:59","weekendOpen":"00:00","weekendClose":"23:59","holidayOpen":"00:00","holidayClose":"23:59","feeInfo":"무료","phone":"042-288-4120","updatedAt":"2025-12-12","sido":"대전광역시","sigungu":"서구","dong":"변동"},{"name":"변동중로 노상주차장","type":"공영","category":"노상","address":"대전광역시 서구 변동중로 24-2","lat":36.3271828,"lng":127.3727953,"totalSpaces":35,"isFree":true,"operatingDays":"평일+토요일+공휴일","weekdayOpen":"00:00","weekdayClose":"23:59","weekendOpen":"00:00","weekendClose":"23:59","holidayOpen":"00:00","holidayClose":"23:59","feeInfo":"무료","phone":"042-288-4120","updatedAt":"2025-12-12","sido":"대전광역시","sigungu":"서구","dong":"도마동"},{"name":"괴정로 노상주차장(3)","type":"공영","category":"노상","address":"대전광역시 서구 괴정로 114","lat":36.3375039,"lng":127.3853115,"totalSpaces":34,"isFree":true,"operatingDays":"평일+토요일+공휴일","weekdayOpen":"00:00","weekdayClose":"23:59","weekendOpen":"00:00","weekendClose":"23:59","holidayOpen":"00:00","holidayClose":"23:59","feeInfo":"무료","phone":"042-288-4120","updatedAt":"2025-12-12","sido":"대전광역시","sigungu":"서구","dong":"괴정동"},{"name":"둔산남로9번길 노상주차장","type":"공영","category":"노상","address":"대전광역시 서구 둔산남로 15","lat":36.3500224,"lng":127.3800772,"totalSpaces":33,"isFree":true,"operatingDays":"평일+토요일+공휴일","weekdayOpen":"00:00","weekdayClose":"23:59","weekendOpen":"00:00","weekendClose":"23:59","holidayOpen":"00:00","holidayClose":"23:59","feeInfo":"무료","phone":"042-288-4120","updatedAt":"2025-12-12","sido":"대전광역시","sigungu":"서구","dong":"둔산동"},{"name":"무궁화아파트 주변 노상주차장","type":"공영","category":"노상","address":"대전광역시 서구 청사서로 70","lat":36.3635178,"lng":127.3773184,"totalSpaces":32,"isFree":true,"operatingDays":"평일+토요일+공휴일","weekdayOpen":"00:00","weekdayClose":"23:59","weekendOpen":"00:00","weekendClose":"23:59","holidayOpen":"00:00","holidayClose":"23:59","feeInfo":"무료","phone":"042-288-4120","updatedAt":"2025-12-12","sido":"대전광역시","sigungu":"서구","dong":"월평동"},{"name":"도마2동제2공영주차장","type":"공영","category":"노외","address":"대전광역시 서구 도마동 109-2","lat":36.3175417,"lng":127.3732287,"totalSpaces":32,"isFree":true,"operatingDays":"평일+토요일+공휴일","weekdayOpen":"00:00","weekdayClose":"23:59","weekendOpen":"00:00","weekendClose":"23:59","holidayOpen":"00:00","holidayClose":"23:59","feeInfo":"무료","phone":"042-288-4120","updatedAt":"2025-12-12","sido":"대전광역시","sigungu":"서구","dong":"도마동"},{"name":"용문동제2공영주차장","type":"공영","category":"노외","address":"대전광역시 서구 용문동 263-30","lat":36.3356459,"lng":127.3903052,"totalSpaces":32,"isFree":true,"operatingDays":"평일+토요일+공휴일","weekdayOpen":"00:00","weekdayClose":"23:59","weekendOpen":"00:00","weekendClose":"23:59","holidayOpen":"00:00","holidayClose":"23:59","feeInfo":"무료","phone":"042-288-4120","updatedAt":"2025-12-12","sido":"대전광역시","sigungu":"서구","dong":"용문동"},{"name":"용문로 노상주차장","type":"공영","category":"노상","address":"대전광역시 서구 용문로 118","lat":36.3338052,"lng":127.3934496,"totalSpaces":31,"isFree":true,"operatingDays":"평일+토요일+공휴일","weekdayOpen":"00:00","weekdayClose":"23:59","weekendOpen":"00:00","weekendClose":"23:59","holidayOpen":"00:00","holidayClose":"23:59","feeInfo":"무료","phone":"042-288-4120","updatedAt":"2025-12-12","sido":"대전광역시","sigungu":"서구","dong":"용문동"},{"name":"벌곡로1379번길 노상주차장","type":"공영","category":"노상","address":"대전광역시 서구 가수원로 106","lat":36.3037394,"lng":127.3504684,"totalSpaces":31,"isFree":true,"operatingDays":"평일+토요일+공휴일","weekdayOpen":"00:00","weekdayClose":"23:59","weekendOpen":"00:00","weekendClose":"23:59","holidayOpen":"00:00","holidayClose":"23:59","feeInfo":"무료","phone":"042-288-4120","updatedAt":"2025-12-12","sido":"대전광역시","sigungu":"서구","dong":"가수원동"},{"name":"월평1동제1공영주차장","type":"공영","category":"노외","address":"대전광역시 서구 월평동 1275","lat":36.3543912,"lng":127.3557423,"totalSpaces":30,"isFree":true,"operatingDays":"평일+토요일+공휴일","weekdayOpen":"00:00","weekdayClose":"23:59","weekendOpen":"00:00","weekendClose":"23:59","holidayOpen":"00:00","holidayClose":"23:59","feeInfo":"무료","phone":"042-288-4120","updatedAt":"2025-12-12","sido":"대전광역시","sigungu":"서구","dong":"월평동"},{"name":"탄방제1공한지무료주차장","type":"공영","category":"노외","address":"대전광역시 서구 탄방동 1053","lat":36.3461835,"lng":127.3960499,"totalSpaces":30,"isFree":true,"operatingDays":"평일+토요일+공휴일","weekdayOpen":"00:00","weekdayClose":"23:59","weekendOpen":"00:00","weekendClose":"23:59","holidayOpen":"00:00","holidayClose":"23:59","feeInfo":"무료","phone":"042-288-4120","updatedAt":"2025-12-12","sido":"대전광역시","sigungu":"서구","dong":"탄방동"},{"name":"도안중로 노상주차장","type":"공영","category":"노상","address":"대전광역시 서구 관저동 980","lat":36.3082825,"lng":127.3358103,"totalSpaces":29,"isFree":true,"operatingDays":"평일+토요일+공휴일","weekdayOpen":"00:00","weekdayClose":"23:59","weekendOpen":"00:00","weekendClose":"23:59","holidayOpen":"00:00","holidayClose":"23:59","feeInfo":"무료","phone":"042-288-4120","updatedAt":"2025-12-12","sido":"대전광역시","sigungu":"서구","dong":"관저동"},{"name":"복수동제1공영주차장","type":"공영","category":"노외","address":"대전광역시 서구 복수동 613","lat":36.3005198,"lng":127.3789651,"totalSpaces":28,"isFree":true,"operatingDays":"평일+토요일+공휴일","weekdayOpen":"00:00","weekdayClose":"23:59","weekendOpen":"00:00","weekendClose":"23:59","holidayOpen":"00:00","holidayClose":"23:59","feeInfo":"무료","phone":"042-288-4120","updatedAt":"2025-12-12","sido":"대전광역시","sigungu":"서구","dong":"복수동"},{"name":"용문동 공영주차장","type":"공영","category":"노외","address":"대전광역시 서구 용문동 256-27","lat":36.3368168,"lng":127.3937159,"totalSpaces":28,"isFree":true,"operatingDays":"평일+토요일+공휴일","weekdayOpen":"00:00","weekdayClose":"23:59","weekendOpen":"00:00","weekendClose":"23:59","holidayOpen":"00:00","holidayClose":"23:59","feeInfo":"무료","phone":"042-288-4120","updatedAt":"2025-12-12","sido":"대전광역시","sigungu":"서구","dong":"용문동"},{"name":"기성동공영주차장","type":"공영","category":"노외","address":"대전광역시 서구 흑석동 966","lat":36.254192,"lng":127.3412414,"totalSpaces":27,"isFree":true,"operatingDays":"평일+토요일+공휴일","weekdayOpen":"00:00","weekdayClose":"23:59","weekendOpen":"00:00","weekendClose":"23:59","holidayOpen":"00:00","holidayClose":"23:59","feeInfo":"무료","phone":"042-288-4120","updatedAt":"2025-12-12","sido":"대전광역시","sigungu":"서구","dong":"흑석동"},{"name":"변동제4공한지무료주차장","type":"공영","category":"노외","address":"대전광역시 서구 변동 3-13","lat":36.3267694,"lng":127.385184,"totalSpaces":27,"isFree":true,"operatingDays":"평일+토요일+공휴일","weekdayOpen":"00:00","weekdayClose":"23:59","weekendOpen":"00:00","weekendClose":"23:59","holidayOpen":"00:00","holidayClose":"23:59","feeInfo":"무료","phone":"042-288-4120","updatedAt":"2025-12-12","sido":"대전광역시","sigungu":"서구","dong":"변동"},{"name":"괴정로 노상주차장(4)","type":"공영","category":"노상","address":"대전광역시 서구 괴정로 12","lat":36.3401674,"lng":127.375766,"totalSpaces":25,"isFree":true,"operatingDays":"평일+토요일+공휴일","weekdayOpen":"00:00","weekdayClose":"23:59","weekendOpen":"00:00","weekendClose":"23:59","holidayOpen":"00:00","holidayClose":"23:59","feeInfo":"무료","phone":"042-288-4120","updatedAt":"2025-12-12","sido":"대전광역시","sigungu":"서구","dong":"괴정동"},{"name":"갈마도서관공영주차장","type":"공영","category":"노외","address":"대전광역시 서구 갈마동 427-20","lat":36.3408563,"lng":127.3662359,"totalSpaces":25,"isFree":true,"operatingDays":"평일+토요일+공휴일","weekdayOpen":"00:00","weekdayClose":"23:59","weekendOpen":"00:00","weekendClose":"23:59","holidayOpen":"00:00","holidayClose":"23:59","feeInfo":"무료","phone":"042-288-4120","updatedAt":"2025-12-12","sido":"대전광역시","sigungu":"서구","dong":"갈마동"},{"name":"복수동제4공영주차장","type":"공영","category":"노외","address":"대전광역시 서구 복수동 751","lat":36.2977108,"lng":127.376048,"totalSpaces":25,"isFree":true,"operatingDays":"평일+토요일+공휴일","weekdayOpen":"00:00","weekdayClose":"23:59","weekendOpen":"00:00","weekendClose":"23:59","holidayOpen":"00:00","holidayClose":"23:59","feeInfo":"무료","phone":"042-288-4120","updatedAt":"2025-12-12","sido":"대전광역시","sigungu":"서구","dong":"복수동"},{"name":"용문로 걸친주차장","type":"공영","category":"노상","address":"대전광역시 서구 계룡로620번길 49","lat":36.3381649,"lng":127.389439,"totalSpaces":24,"isFree":true,"operatingDays":"평일+토요일+공휴일","weekdayOpen":"00:00","weekdayClose":"23:59","weekendOpen":"00:00","weekendClose":"23:59","holidayOpen":"00:00","holidayClose":"23:59","feeInfo":"무료","phone":"042-288-4120","updatedAt":"2025-12-12","sido":"대전광역시","sigungu":"서구","dong":"용문동"},{"name":"복수동제3공영주차장","type":"공영","category":"노외","address":"대전광역시 서구 복수동 690","lat":36.2978685,"lng":127.3804001,"totalSpaces":24,"isFree":true,"operatingDays":"평일+토요일+공휴일","weekdayOpen":"00:00","weekdayClose":"23:59","weekendOpen":"00:00","weekendClose":"23:59","holidayOpen":"00:00","holidayClose":"23:59","feeInfo":"무료","phone":"042-288-4120","updatedAt":"2025-12-12","sido":"대전광역시","sigungu":"서구","dong":"복수동"},{"name":"변동제4공영주차장(목운)","type":"공영","category":"노외","address":"대전광역시 서구 변동 252-12","lat":36.3295151,"lng":127.3689785,"totalSpaces":24,"isFree":true,"operatingDays":"평일+토요일+공휴일","weekdayOpen":"00:00","weekdayClose":"23:59","weekendOpen":"00:00","weekendClose":"23:59","holidayOpen":"00:00","holidayClose":"23:59","feeInfo":"무료","phone":"042-288-4120","updatedAt":"2025-12-12","sido":"대전광역시","sigungu":"서구","dong":"변동"},{"name":"가수원도서관 주변 노상주차장","type":"공영","category":"노상","address":"대전광역시 서구 가수원로 98","lat":36.3026875,"lng":127.3509448,"totalSpaces":22,"isFree":true,"operatingDays":"평일+토요일+공휴일","weekdayOpen":"00:00","weekdayClose":"23:59","weekendOpen":"00:00","weekendClose":"23:59","holidayOpen":"00:00","holidayClose":"23:59","feeInfo":"무료","phone":"042-288-4120","updatedAt":"2025-12-12","sido":"대전광역시","sigungu":"서구","dong":"가수원동"},{"name":"복수동제5공영주차장","type":"공영","category":"노외","address":"대전광역시 서구 복수동 781","lat":36.2976215,"lng":127.3779415,"totalSpaces":22,"isFree":true,"operatingDays":"평일+토요일+공휴일","weekdayOpen":"00:00","weekdayClose":"23:59","weekendOpen":"00:00","weekendClose":"23:59","holidayOpen":"00:00","holidayClose":"23:59","feeInfo":"무료","phone":"042-288-4120","updatedAt":"2025-12-12","sido":"대전광역시","sigungu":"서구","dong":"복수동"},{"name":"복수제4공한지무료주차장","type":"공영","category":"노외","address":"대전광역시 서구 복수동 934","lat":36.2960822,"lng":127.3782988,"totalSpaces":22,"isFree":true,"operatingDays":"평일+토요일+공휴일","weekdayOpen":"00:00","weekdayClose":"23:59","weekendOpen":"00:00","weekendClose":"23:59","holidayOpen":"00:00","holidayClose":"23:59","feeInfo":"무료","phone":"042-288-4120","updatedAt":"2025-12-12","sido":"대전광역시","sigungu":"서구","dong":"복수동"},{"name":"조달청길 노상주차장","type":"공영","category":"노상","address":"대전광역시 서구 도마동 492","lat":36.3192753,"lng":127.3755648,"totalSpaces":21,"isFree":true,"operatingDays":"평일+토요일+공휴일","weekdayOpen":"00:00","weekdayClose":"23:59","weekendOpen":"00:00","weekendClose":"23:59","holidayOpen":"00:00","holidayClose":"23:59","feeInfo":"무료","phone":"042-288-4120","updatedAt":"2025-12-12","sido":"대전광역시","sigungu":"서구","dong":"도마동"},{"name":"대덕대로127번길 노상주차장","type":"공영","category":"노상","address":"대전광역시 서구 갈마로 103번길 36","lat":36.3447658,"lng":127.3727104,"totalSpaces":21,"isFree":true,"operatingDays":"평일+토요일+공휴일","weekdayOpen":"00:00","weekdayClose":"23:59","weekendOpen":"00:00","weekendClose":"23:59","holidayOpen":"00:00","holidayClose":"23:59","feeInfo":"무료","phone":"042-288-4120","updatedAt":"2025-12-12","sido":"대전광역시","sigungu":"서구","dong":"갈마동"},{"name":"월평1동제3공영주차장","type":"공영","category":"노외","address":"대전광역시 서구 월평동 1184","lat":36.3549754,"lng":127.3571191,"totalSpaces":21,"isFree":true,"operatingDays":"평일+토요일+공휴일","weekdayOpen":"00:00","weekdayClose":"23:59","weekendOpen":"00:00","weekendClose":"23:59","holidayOpen":"00:00","holidayClose":"23:59","feeInfo":"무료","phone":"042-288-4120","updatedAt":"2025-12-12","sido":"대전광역시","sigungu":"서구","dong":"월평동"},{"name":"관저로 노상주차장","type":"공영","category":"노상","address":"대전광역시 서구 관저동 1458","lat":36.2991657,"lng":127.3397731,"totalSpaces":20,"isFree":true,"operatingDays":"평일+토요일+공휴일","weekdayOpen":"00:00","weekdayClose":"23:59","weekendOpen":"00:00","weekendClose":"23:59","holidayOpen":"00:00","holidayClose":"23:59","feeInfo":"무료","phone":"042-288-4120","updatedAt":"2025-12-12","sido":"대전광역시","sigungu":"서구","dong":"관저동"},{"name":"관저제2공한지무료주차장","type":"공영","category":"노외","address":"대전광역시 서구 관저동 1343","lat":36.2986825,"lng":127.3387752,"totalSpaces":20,"isFree":true,"operatingDays":"평일+토요일+공휴일","weekdayOpen":"00:00","weekdayClose":"23:59","weekendOpen":"00:00","weekendClose":"23:59","holidayOpen":"00:00","holidayClose":"23:59","feeInfo":"무료","phone":"042-288-4120","updatedAt":"2025-12-12","sido":"대전광역시","sigungu":"서구","dong":"관저동"},{"name":"관저제14공한지무료주차장","type":"공영","category":"노외","address":"대전광역시 서구 관저동 1961-5","lat":36.2945912262,"lng":127.3249792594,"totalSpaces":19,"isFree":true,"operatingDays":"평일+토요일+공휴일","weekdayOpen":"00:00","weekdayClose":"23:59","weekendOpen":"00:00","weekendClose":"23:59","holidayOpen":"00:00","holidayClose":"23:59","feeInfo":"무료","phone":"042-288-4120","updatedAt":"2025-12-12","sido":"대전광역시","sigungu":"서구","dong":"관저동"},{"name":"갈마동제2공영주차장","type":"공영","category":"노외","address":"대전광역시 서구 갈마동 1203","lat":36.3446029,"lng":127.3743159,"totalSpaces":18,"isFree":true,"operatingDays":"평일+토요일+공휴일","weekdayOpen":"00:00","weekdayClose":"23:59","weekendOpen":"00:00","weekendClose":"23:59","holidayOpen":"00:00","holidayClose":"23:59","feeInfo":"무료","phone":"042-288-4120","updatedAt":"2025-12-12","sido":"대전광역시","sigungu":"서구","dong":"갈마동"},{"name":"관저제15공한지무료주차장","type":"공영","category":"노외","address":"대전광역시 서구 관저동 1963-7~8","lat":36.3054061,"lng":127.3339305,"totalSpaces":18,"isFree":true,"operatingDays":"평일+토요일+공휴일","weekdayOpen":"00:00","weekdayClose":"23:59","weekendOpen":"00:00","weekendClose":"23:59","holidayOpen":"00:00","holidayClose":"23:59","feeInfo":"무료","phone":"042-288-4120","updatedAt":"2025-12-12","sido":"대전광역시","sigungu":"서구","dong":"관저동"},{"name":"월평1동제2공영주차장","type":"공영","category":"노외","address":"대전광역시 서구 월평동 1185","lat":36.3551818,"lng":127.3569503,"totalSpaces":17,"isFree":true,"operatingDays":"평일+토요일+공휴일","weekdayOpen":"00:00","weekdayClose":"23:59","weekendOpen":"00:00","weekendClose":"23:59","holidayOpen":"00:00","holidayClose":"23:59","feeInfo":"무료","phone":"042-288-4120","updatedAt":"2025-12-12","sido":"대전광역시","sigungu":"서구","dong":"월평동"},{"name":"탄방로 노상주차장","type":"공영","category":"노상","address":"대전광역시 서구 탄방로 56","lat":36.3423622,"lng":127.3924699,"totalSpaces":16,"isFree":true,"operatingDays":"평일+토요일+공휴일","weekdayOpen":"00:00","weekdayClose":"23:59","weekendOpen":"00:00","weekendClose":"23:59","holidayOpen":"00:00","holidayClose":"23:59","feeInfo":"무료","phone":"042-288-4120","updatedAt":"2025-12-12","sido":"대전광역시","sigungu":"서구","dong":"탄방동"},{"name":"관저동제2공영주차장","type":"공영","category":"노외","address":"대전광역시 서구 관저동 999-1","lat":36.3043255,"lng":127.3373469,"totalSpaces":16,"isFree":true,"operatingDays":"평일+토요일+공휴일","weekdayOpen":"00:00","weekdayClose":"23:59","weekendOpen":"00:00","weekendClose":"23:59","holidayOpen":"00:00","holidayClose":"23:59","feeInfo":"무료","phone":"042-288-4120","updatedAt":"2025-12-12","sido":"대전광역시","sigungu":"서구","dong":"관저동"},{"name":"괴곡동공영주차장","type":"공영","category":"노외","address":"대전광역시 서구 괴곡동 782-1","lat":36.2843382,"lng":127.3509851,"totalSpaces":16,"isFree":true,"operatingDays":"평일+토요일+공휴일","weekdayOpen":"00:00","weekdayClose":"23:59","weekendOpen":"00:00","weekendClose":"23:59","holidayOpen":"00:00","holidayClose":"23:59","feeInfo":"무료","phone":"042-288-4120","updatedAt":"2025-12-12","sido":"대전광역시","sigungu":"서구","dong":"괴곡동"},{"name":"관저동제7공한지무료주차장","type":"공영","category":"노외","address":"대전광역시 서구 관저동 1886","lat":36.3049111,"lng":127.3356829,"totalSpaces":16,"isFree":true,"operatingDays":"평일+토요일+공휴일","weekdayOpen":"00:00","weekdayClose":"23:59","weekendOpen":"00:00","weekendClose":"23:59","holidayOpen":"00:00","holidayClose":"23:59","feeInfo":"무료","phone":"042-288-4120","updatedAt":"2025-12-12","sido":"대전광역시","sigungu":"서구","dong":"관저동"},{"name":"관저제13공한지무료주차장","type":"공영","category":"노외","address":"대전광역시 서구 관저동 1691","lat":36.3054061,"lng":127.3339305,"totalSpaces":16,"isFree":true,"operatingDays":"평일+토요일+공휴일","weekdayOpen":"00:00","weekdayClose":"23:59","weekendOpen":"00:00","weekendClose":"23:59","holidayOpen":"00:00","holidayClose":"23:59","feeInfo":"무료","phone":"042-288-4120","updatedAt":"2025-12-12","sido":"대전광역시","sigungu":"서구","dong":"관저동"},{"name":"유등로669번길 노상주차장","type":"공영","category":"노상","address":"대전광역시 서구 유등로 669번길 11","lat":36.3467855,"lng":127.4010586,"totalSpaces":14,"isFree":true,"operatingDays":"평일+토요일+공휴일","weekdayOpen":"00:00","weekdayClose":"23:59","weekendOpen":"00:00","weekendClose":"23:59","holidayOpen":"00:00","holidayClose":"23:59","feeInfo":"무료","phone":"042-288-4120","updatedAt":"2025-12-12","sido":"대전광역시","sigungu":"서구","dong":"탄방동"},{"name":"관저동로 노상주차장","type":"공영","category":"노상","address":"대전광역시 서구 관저동로 86","lat":36.2998034,"lng":127.3410148,"totalSpaces":12,"isFree":true,"operatingDays":"평일+토요일+공휴일","weekdayOpen":"00:00","weekdayClose":"23:59","weekendOpen":"00:00","weekendClose":"23:59","holidayOpen":"00:00","holidayClose":"23:59","feeInfo":"무료","phone":"042-288-4120","updatedAt":"2025-12-12","sido":"대전광역시","sigungu":"서구","dong":"관저동"},{"name":"괴정제1공한지무료주차장","type":"공영","category":"노외","address":"대전광역시 서구 괴정동 46-9","lat":36.3398973,"lng":127.3862841,"totalSpaces":11,"isFree":true,"operatingDays":"평일+토요일+공휴일","weekdayOpen":"00:00","weekdayClose":"23:59","weekendOpen":"00:00","weekendClose":"23:59","holidayOpen":"00:00","holidayClose":"23:59","feeInfo":"무료","phone":"042-288-4120","updatedAt":"2025-12-12","sido":"대전광역시","sigungu":"서구","dong":"괴정동"},{"name":"관저동제9공한지무료주차장","type":"공영","category":"노외","address":"대전광역시 서구 관저동 1711","lat":36.3048792,"lng":127.3331778,"totalSpaces":11,"isFree":true,"operatingDays":"평일+토요일+공휴일","weekdayOpen":"00:00","weekdayClose":"23:59","weekendOpen":"00:00","weekendClose":"23:59","holidayOpen":"00:00","holidayClose":"23:59","feeInfo":"무료","phone":"042-288-4120","updatedAt":"2025-12-12","sido":"대전광역시","sigungu":"서구","dong":"관저동"},{"name":"관저제10공한지무료주차장","type":"공영","category":"노외","address":"대전광역시 서구 관저동 1866","lat":36.3062193,"lng":127.3359279,"totalSpaces":11,"isFree":true,"operatingDays":"평일+토요일+공휴일","weekdayOpen":"00:00","weekdayClose":"23:59","weekendOpen":"00:00","weekendClose":"23:59","holidayOpen":"00:00","holidayClose":"23:59","feeInfo":"무료","phone":"042-288-4120","updatedAt":"2025-12-12","sido":"대전광역시","sigungu":"서구","dong":"관저동"},{"name":"관저제11공한지무료주차장","type":"공영","category":"노외","address":"대전광역시 서구 관저동 1671","lat":36.3068391,"lng":127.3339295,"totalSpaces":11,"isFree":true,"operatingDays":"평일+토요일+공휴일","weekdayOpen":"00:00","weekdayClose":"23:59","weekendOpen":"00:00","weekendClose":"23:59","holidayOpen":"00:00","holidayClose":"23:59","feeInfo":"무료","phone":"042-288-4120","updatedAt":"2025-12-12","sido":"대전광역시","sigungu":"서구","dong":"관저동"},{"name":"도안제2공한지무료주차장","type":"공영","category":"노외","address":"대전광역시 서구 도안동 1088","lat":36.3241096,"lng":127.3474932,"totalSpaces":10,"isFree":true,"operatingDays":"평일+토요일+공휴일","weekdayOpen":"00:00","weekdayClose":"23:59","weekendOpen":"00:00","weekendClose":"23:59","holidayOpen":"00:00","holidayClose":"23:59","feeInfo":"무료","phone":"042-288-4120","updatedAt":"2025-12-12","sido":"대전광역시","sigungu":"서구","dong":"도안동"},{"name":"관저제4공한지무료주차장","type":"공영","category":"노외","address":"대전광역시 서구 관저동 1883","lat":36.3053697,"lng":127.3355009,"totalSpaces":10,"isFree":true,"operatingDays":"평일+토요일+공휴일","weekdayOpen":"00:00","weekdayClose":"23:59","weekendOpen":"00:00","weekendClose":"23:59","holidayOpen":"00:00","holidayClose":"23:59","feeInfo":"무료","phone":"042-288-4120","updatedAt":"2025-12-12","sido":"대전광역시","sigungu":"서구","dong":"관저동"},{"name":"관저동제6공한지무료주차장","type":"공영","category":"노외","address":"대전광역시 서구 관저동 1792","lat":36.3066675,"lng":127.335501,"totalSpaces":10,"isFree":true,"operatingDays":"평일+토요일+공휴일","weekdayOpen":"00:00","weekdayClose":"23:59","weekendOpen":"00:00","weekendClose":"23:59","holidayOpen":"00:00","holidayClose":"23:59","feeInfo":"무료","phone":"042-288-4120","updatedAt":"2025-12-12","sido":"대전광역시","sigungu":"서구","dong":"관저동"},{"name":"변동제1공한지무료주차장","type":"공영","category":"노외","address":"대전광역시 서구 변동 32-46","lat":36.3255532,"lng":127.3817853,"totalSpaces":9,"isFree":true,"operatingDays":"평일+토요일+공휴일","weekdayOpen":"00:00","weekdayClose":"23:59","weekendOpen":"00:00","weekendClose":"23:59","holidayOpen":"00:00","holidayClose":"23:59","feeInfo":"무료","phone":"042-288-4120","updatedAt":"2025-12-12","sido":"대전광역시","sigungu":"서구","dong":"변동"},{"name":"월평제3공한지무료주차장","type":"공영","category":"노외","address":"대전광역시 서구 월평동 1439","lat":36.3523378,"lng":127.3543331,"totalSpaces":9,"isFree":true,"operatingDays":"평일+토요일+공휴일","weekdayOpen":"00:00","weekdayClose":"23:59","weekendOpen":"00:00","weekendClose":"23:59","holidayOpen":"00:00","holidayClose":"23:59","feeInfo":"무료","phone":"042-288-4120","updatedAt":"2025-12-12","sido":"대전광역시","sigungu":"서구","dong":"월평동"},{"name":"도마제5공한지무료주차장","type":"공영","category":"노외","address":"대전광역시 서구 도마동 552-4","lat":36.3120521,"lng":127.3696089,"totalSpaces":9,"isFree":true,"operatingDays":"평일+토요일+공휴일","weekdayOpen":"00:00","weekdayClose":"23:59","weekendOpen":"00:00","weekendClose":"23:59","holidayOpen":"00:00","holidayClose":"23:59","feeInfo":"무료","phone":"042-288-4120","updatedAt":"2025-12-12","sido":"대전광역시","sigungu":"서구","dong":"도마동"},{"name":"관저동제8공한지무료주차장","type":"공영","category":"노외","address":"대전광역시 서구 관저동 1653","lat":36.306879,"lng":127.333005,"totalSpaces":9,"isFree":true,"operatingDays":"평일+토요일+공휴일","weekdayOpen":"00:00","weekdayClose":"23:59","weekendOpen":"00:00","weekendClose":"23:59","holidayOpen":"00:00","holidayClose":"23:59","feeInfo":"무료","phone":"042-288-4120","updatedAt":"2025-12-12","sido":"대전광역시","sigungu":"서구","dong":"관저동"},{"name":"관저제12공한지무료주차장","type":"공영","category":"노외","address":"대전광역시 서구 관저동 1652","lat":36.3067168,"lng":127.3330063,"totalSpaces":9,"isFree":true,"operatingDays":"평일+토요일+공휴일","weekdayOpen":"00:00","weekdayClose":"23:59","weekendOpen":"00:00","weekendClose":"23:59","holidayOpen":"00:00","holidayClose":"23:59","feeInfo":"무료","phone":"042-288-4120","updatedAt":"2025-12-12","sido":"대전광역시","sigungu":"서구","dong":"관저동"},{"name":"대덕대로176 노상주차장","type":"공영","category":"노상","address":"대전광역시 서구 대덕대로176번길59","lat":36.3468725,"lng":127.3791997,"totalSpaces":8,"isFree":true,"operatingDays":"평일+토요일+공휴일","weekdayOpen":"00:00","weekdayClose":"23:59","weekendOpen":"00:00","weekendClose":"23:59","holidayOpen":"00:00","holidayClose":"23:59","feeInfo":"무료","phone":"042-288-4120","updatedAt":"2025-12-12","sido":"대전광역시","sigungu":"서구","dong":"둔산동"},{"name":"도마제2공한지무료주차장","type":"공영","category":"노외","address":"대전광역시 서구 도마동 549-13","lat":36.3125634,"lng":127.3691482,"totalSpaces":8,"isFree":true,"operatingDays":"평일+토요일+공휴일","weekdayOpen":"00:00","weekdayClose":"23:59","weekendOpen":"00:00","weekendClose":"23:59","holidayOpen":"00:00","holidayClose":"23:59","feeInfo":"무료","phone":"042-288-4120","updatedAt":"2025-12-12","sido":"대전광역시","sigungu":"서구","dong":"도마동"},{"name":"관저동로 노상주차장(2)","type":"공영","category":"노상","address":"대전광역시 서구 관저로 172","lat":36.2987581,"lng":127.3410347,"totalSpaces":6,"isFree":true,"operatingDays":"평일+토요일+공휴일","weekdayOpen":"00:00","weekdayClose":"23:59","weekendOpen":"00:00","weekendClose":"23:59","holidayOpen":"00:00","holidayClose":"23:59","feeInfo":"무료","phone":"042-288-4120","updatedAt":"2025-12-12","sido":"대전광역시","sigungu":"서구","dong":"관저동"},{"name":"기성제1공한지무료주차장","type":"공영","category":"노외","address":"대전광역시 서구 용촌동 412-1","lat":36.2527519,"lng":127.3174187,"totalSpaces":6,"isFree":true,"operatingDays":"평일+토요일+공휴일","weekdayOpen":"00:00","weekdayClose":"23:59","weekendOpen":"00:00","weekendClose":"23:59","holidayOpen":"00:00","holidayClose":"23:59","feeInfo":"무료","phone":"042-288-4120","updatedAt":"2025-12-12","sido":"대전광역시","sigungu":"서구","dong":"용촌동"},{"name":"변동제6공한지무료주차장","type":"공영","category":"노외","address":"대전광역시 서구 변동 4-35","lat":36.3271348,"lng":127.3843792,"totalSpaces":6,"isFree":true,"operatingDays":"평일+토요일+공휴일","weekdayOpen":"00:00","weekdayClose":"23:59","weekendOpen":"00:00","weekendClose":"23:59","holidayOpen":"00:00","holidayClose":"23:59","feeInfo":"무료","phone":"042-288-4120","updatedAt":"2025-12-12","sido":"대전광역시","sigungu":"서구","dong":"변동"},{"name":"가수원제3공한지무료주차장","type":"공영","category":"노외","address":"대전광역시 서구 가수원동 806-19","lat":36.2989907,"lng":127.3539593,"totalSpaces":5,"isFree":true,"operatingDays":"평일+토요일+공휴일","weekdayOpen":"00:00","weekdayClose":"23:59","weekendOpen":"00:00","weekendClose":"23:59","holidayOpen":"00:00","holidayClose":"23:59","feeInfo":"무료","phone":"042-288-4120","updatedAt":"2025-12-12","sido":"대전광역시","sigungu":"서구","dong":"가수원동"},{"name":"괴정동제2공한지무료주차장","type":"공영","category":"노외","address":"대전광역시 서구 괴정동 9-1","lat":36.3418059,"lng":127.3841414,"totalSpaces":5,"isFree":true,"operatingDays":"평일+토요일+공휴일","weekdayOpen":"00:00","weekdayClose":"23:59","weekendOpen":"00:00","weekendClose":"23:59","holidayOpen":"00:00","holidayClose":"23:59","feeInfo":"무료","phone":"042-288-4120","updatedAt":"2025-12-12","sido":"대전광역시","sigungu":"서구","dong":"괴정동"},{"name":"도마제3공한지무료주차장","type":"공영","category":"노외","address":"대전광역시 서구 도마동 479-1","lat":36.3145456,"lng":127.3707693,"totalSpaces":4,"isFree":true,"operatingDays":"평일+토요일+공휴일","weekdayOpen":"00:00","weekdayClose":"23:59","weekendOpen":"00:00","weekendClose":"23:59","holidayOpen":"00:00","holidayClose":"23:59","feeInfo":"무료","phone":"042-288-4120","updatedAt":"2025-12-12","sido":"대전광역시","sigungu":"서구","dong":"도마동"},{"name":"계룡로 주변 노상주차장","type":"공영","category":"노상","address":"대전광역시 서구 대덕대로 176번길75","lat":36.3462951,"lng":127.3795337,"totalSpaces":219,"isFree":false,"operatingDays":"평일","weekdayOpen":"09:00","weekdayClose":"18:00","weekendOpen":"00:00","weekendClose":"00:00","holidayOpen":"00:00","holidayClose":"00:00","feeInfo":"기본 10분 400원 / 추가 10분당 300원","phone":"042-120","updatedAt":"2022-12-15","sido":"대전광역시","sigungu":"서구","dong":""},{"name":"계룡로 주변 노상주차장","type":"공영","category":"노상","address":"대전광역시 서구 둔산동 1111","lat":36.3495536,"lng":127.3765714,"totalSpaces":218,"isFree":false,"operatingDays":"평일","weekdayOpen":"09:00","weekdayClose":"18:00","weekendOpen":"00:00","weekendClose":"00:00","holidayOpen":"00:00","holidayClose":"00:00","feeInfo":"기본 10분 400원 / 추가 10분당 300원","phone":"","updatedAt":"2025-12-12","sido":"대전광역시","sigungu":"서구","dong":"둔산동"},{"name":"탄방동 제2공영주차장(서구문화원)","type":"공영","category":"노외","address":"대전광역시 서구 계룡로553번길 38","lat":36.3446251,"lng":127.3855676,"totalSpaces":160,"isFree":false,"operatingDays":"평일","weekdayOpen":"08:00","weekdayClose":"22:00","weekendOpen":"00:00","weekendClose":"00:00","holidayOpen":"00:00","holidayClose":"00:00","feeInfo":"기본 10분 400원 / 추가 10분당 300원","phone":"042-288-4120","updatedAt":"2025-12-12","sido":"대전광역시","sigungu":"서구","dong":"탄방동"},{"name":"을지병원 주변 노상주차장","type":"공영","category":"노상","address":"대전광역시 서구 둔산서로95","lat":36.35530056,"lng":127.381988,"totalSpaces":154,"isFree":false,"operatingDays":"평일","weekdayOpen":"10:00","weekdayClose":"20:00","weekendOpen":"00:00","weekendClose":"00:00","holidayOpen":"00:00","holidayClose":"00:00","feeInfo":"기본 10분 400원 / 추가 10분당 300원","phone":"042-288-4120","updatedAt":"2025-12-12","sido":"대전광역시","sigungu":"서구","dong":""},{"name":"을지병원주변","type":"공영","category":"노상","address":"대전광역시 서구 둔산서로95","lat":36.35530056,"lng":127.381988,"totalSpaces":153,"isFree":false,"operatingDays":"평일","weekdayOpen":"08:00","weekdayClose":"22:00","weekendOpen":"00:00","weekendClose":"00:00","holidayOpen":"00:00","holidayClose":"00:00","feeInfo":"기본 10분 400원 / 추가 10분당 300원","phone":"042-120","updatedAt":"2022-12-15","sido":"대전광역시","sigungu":"서구","dong":""},{"name":"월평1동 공영주차장","type":"공영","category":"노외","address":"대전광역시 서구 월평로 53-3","lat":36.3563935,"lng":127.3627676,"totalSpaces":150,"isFree":false,"operatingDays":"평일","weekdayOpen":"08:00","weekdayClose":"22:00","weekendOpen":"00:00","weekendClose":"00:00","holidayOpen":"00:00","holidayClose":"00:00","feeInfo":"기본 10분 400원 / 추가 10분당 300원","phone":"042-288-4120","updatedAt":"2025-12-12","sido":"대전광역시","sigungu":"서구","dong":"월평동"},{"name":"둔지미길(향촌@~파랑새@)","type":"공영","category":"노상","address":"대전광역시 서구 둔지로 75","lat":36.35638892,"lng":127.3746125,"totalSpaces":143,"isFree":false,"operatingDays":"평일","weekdayOpen":"08:00","weekdayClose":"22:00","weekendOpen":"00:00","weekendClose":"00:00","holidayOpen":"00:00","holidayClose":"00:00","feeInfo":"기본 10분 400원 / 추가 10분당 300원","phone":"042-120","updatedAt":"2022-12-15","sido":"대전광역시","sigungu":"서구","dong":"둔산동"},{"name":"서구청 앞","type":"공영","category":"노상","address":"대전광역시 서구 둔산서로 100","lat":36.35505601,"lng":127.3833576,"totalSpaces":142,"isFree":false,"operatingDays":"평일","weekdayOpen":"08:00","weekdayClose":"18:00","weekendOpen":"00:00","weekendClose":"00:00","holidayOpen":"00:00","holidayClose":"00:00","feeInfo":"기본 10분 400원 / 추가 10분당 300원","phone":"042-120","updatedAt":"2022-12-15","sido":"대전광역시","sigungu":"서구","dong":"둔산동"},{"name":"법원.검찰청앞갤러리아옆","type":"공영","category":"노상","address":"대전광역시 서구 둔산중로78번길 15","lat":36.35445934,"lng":127.3876875,"totalSpaces":139,"isFree":false,"operatingDays":"평일","weekdayOpen":"08:00","weekdayClose":"22:00","weekendOpen":"00:00","weekendClose":"00:00","holidayOpen":"00:00","holidayClose":"00:00","feeInfo":"기본 10분 400원 / 추가 10분당 300원","phone":"042-120","updatedAt":"2022-12-15","sido":"대전광역시","sigungu":"서구","dong":""},{"name":"서구청 앞","type":"공영","category":"노상","address":"대전광역시 서구 둔산동 1544","lat":36.3535619,"lng":127.3848513,"totalSpaces":138,"isFree":false,"operatingDays":"평일","weekdayOpen":"08:00","weekdayClose":"18:00","weekendOpen":"00:00","weekendClose":"00:00","holidayOpen":"00:00","holidayClose":"00:00","feeInfo":"기본 10분 400원 / 추가 10분당 300원","phone":"","updatedAt":"2025-12-12","sido":"대전광역시","sigungu":"서구","dong":"둔산동"},{"name":"월평길(월평초~월평중)","type":"공영","category":"노상","address":"대전광역시 서구 월평동로21","lat":36.3566482,"lng":127.3674693,"totalSpaces":122,"isFree":false,"operatingDays":"평일","weekdayOpen":"08:00","weekdayClose":"22:00","weekendOpen":"00:00","weekendClose":"00:00","holidayOpen":"00:00","holidayClose":"00:00","feeInfo":"기본 10분 400원 / 추가 10분당 300원","phone":"042-120","updatedAt":"2022-12-15","sido":"대전광역시","sigungu":"서구","dong":""},{"name":"만년동서구보건소주변","type":"공영","category":"노상","address":"대전광역시 서구 만년로74","lat":36.36708849,"lng":127.3810828,"totalSpaces":116,"isFree":false,"operatingDays":"평일","weekdayOpen":"11:00","weekdayClose":"20:00","weekendOpen":"00:00","weekendClose":"00:00","holidayOpen":"00:00","holidayClose":"00:00","feeInfo":"기본 10분 300원 / 추가 10분당 200원","phone":"042-120","updatedAt":"2022-12-15","sido":"대전광역시","sigungu":"서구","dong":""},{"name":"만년동서구보건소주변","type":"공영","category":"노상","address":"대전광역시 서구 만년로74","lat":36.36708849,"lng":127.3810828,"totalSpaces":111,"isFree":false,"operatingDays":"평일","weekdayOpen":"11:00","weekdayClose":"20:00","weekendOpen":"00:00","weekendClose":"00:00","holidayOpen":"00:00","holidayClose":"00:00","feeInfo":"기본 10분 300원 / 추가 10분당 200원","phone":"042-288-4120","updatedAt":"2025-12-12","sido":"대전광역시","sigungu":"서구","dong":""},{"name":"법원, 검찰청 앞","type":"공영","category":"노상","address":"대전광역시 서구 둔산중로78번길 15","lat":36.3544596,"lng":127.3876854,"totalSpaces":110,"isFree":false,"operatingDays":"평일","weekdayOpen":"09:00","weekdayClose":"21:00","weekendOpen":"00:00","weekendClose":"00:00","holidayOpen":"00:00","holidayClose":"00:00","feeInfo":"기본 10분 300원 / 추가 10분당 200원","phone":"","updatedAt":"2025-12-12","sido":"대전광역시","sigungu":"서구","dong":"둔산동"},{"name":"도시철도공사주변","type":"공영","category":"노상","address":"대전광역시 서구 월드컵대로480","lat":36.34828249,"lng":127.352659,"totalSpaces":107,"isFree":false,"operatingDays":"평일","weekdayOpen":"08:00","weekdayClose":"19:00","weekendOpen":"00:00","weekendClose":"00:00","holidayOpen":"00:00","holidayClose":"00:00","feeInfo":"기본 10분 300원 / 추가 10분당 200원","phone":"042-120","updatedAt":"2022-12-15","sido":"대전광역시","sigungu":"서구","dong":""},{"name":"도마동 제3공영주차장","type":"공영","category":"노외","address":"대전광역시 서구 도마동 134-26","lat":36.3154814,"lng":127.3825997,"totalSpaces":100,"isFree":false,"operatingDays":"평일","weekdayOpen":"08:00","weekdayClose":"19:00","weekendOpen":"00:00","weekendClose":"00:00","holidayOpen":"00:00","holidayClose":"00:00","feeInfo":"기본 10분 150원 / 추가 10분당 150원","phone":"042-531-8889","updatedAt":"2025-12-12","sido":"대전광역시","sigungu":"서구","dong":"도마동"},{"name":"도시철도공사 주변월평동","type":"공영","category":"노상","address":"대전광역시 서구 월드컵대로 480","lat":36.3482823,"lng":127.3526953,"totalSpaces":95,"isFree":false,"operatingDays":"평일","weekdayOpen":"08:00","weekdayClose":"19:00","weekendOpen":"00:00","weekendClose":"00:00","holidayOpen":"00:00","holidayClose":"00:00","feeInfo":"기본 10분 300원 / 추가 10분당 200원","phone":"","updatedAt":"2025-12-12","sido":"대전광역시","sigungu":"서구","dong":"월평동"},{"name":"탄방역 주변","type":"공영","category":"노상","address":"대전광역시 서구 탄방동 1453","lat":36.3449187,"lng":127.3848188,"totalSpaces":93,"isFree":false,"operatingDays":"평일","weekdayOpen":"09:00","weekdayClose":"18:00","weekendOpen":"00:00","weekendClose":"00:00","holidayOpen":"00:00","holidayClose":"00:00","feeInfo":"기본 10분 400원 / 추가 10분당 300원","phone":"","updatedAt":"2025-12-12","sido":"대전광역시","sigungu":"서구","dong":"탄방동"},{"name":"탄방동탄방역주변","type":"공영","category":"노상","address":"대전광역시 서구 계룡로553번길38","lat":36.34462122,"lng":127.3855677,"totalSpaces":93,"isFree":false,"operatingDays":"평일","weekdayOpen":"09:00","weekdayClose":"18:00","weekendOpen":"00:00","weekendClose":"00:00","holidayOpen":"00:00","holidayClose":"00:00","feeInfo":"기본 10분 400원 / 추가 10분당 300원","phone":"042-120","updatedAt":"2022-12-15","sido":"대전광역시","sigungu":"서구","dong":""},{"name":"둔산로31번길구)둔지미 5,6길","type":"공영","category":"노상","address":"대전광역시 서구 둔산로31번길72","lat":36.35486894,"lng":127.3778061,"totalSpaces":91,"isFree":false,"operatingDays":"평일","weekdayOpen":"09:00","weekdayClose":"21:00","weekendOpen":"00:00","weekendClose":"00:00","holidayOpen":"00:00","holidayClose":"00:00","feeInfo":"기본 10분 400원 / 추가 10분당 300원","phone":"042-288-4120","updatedAt":"2025-12-12","sido":"대전광역시","sigungu":"서구","dong":""},{"name":"둔산로31번길","type":"공영","category":"노상","address":"대전광역시 서구 둔산로31번길72","lat":36.35486894,"lng":127.3778061,"totalSpaces":91,"isFree":false,"operatingDays":"평일","weekdayOpen":"08:00","weekdayClose":"22:00","weekendOpen":"00:00","weekendClose":"00:00","holidayOpen":"00:00","holidayClose":"00:00","feeInfo":"기본 10분 400원 / 추가 10분당 300원","phone":"042-120","updatedAt":"2022-12-15","sido":"대전광역시","sigungu":"서구","dong":""},{"name":"갈마동제1공영주차장","type":"공영","category":"노외","address":"대전광역시 서구 갈마중로30번길 15-5","lat":36.3471837,"lng":127.3731923,"totalSpaces":80,"isFree":false,"operatingDays":"평일","weekdayOpen":"18:00","weekdayClose":"05:00","weekendOpen":"00:00","weekendClose":"00:00","holidayOpen":"00:00","holidayClose":"00:00","feeInfo":"기본 10분 100원 / 추가 10분당 100원","phone":"042-288-4120","updatedAt":"2025-12-12","sido":"대전광역시","sigungu":"서구","dong":"갈마동"},{"name":"법원.검찰청연장노선","type":"공영","category":"노상","address":"대전광역시 서구 둔산중로78번길 45","lat":36.35449244,"lng":127.3892768,"totalSpaces":75,"isFree":false,"operatingDays":"평일","weekdayOpen":"10:00","weekdayClose":"20:00","weekendOpen":"00:00","weekendClose":"00:00","holidayOpen":"00:00","holidayClose":"00:00","feeInfo":"기본 10분 400원 / 추가 10분당 300원","phone":"042-120","updatedAt":"2022-12-15","sido":"대전광역시","sigungu":"서구","dong":"둔산동"},{"name":"법원.검찰청연장노선","type":"공영","category":"노상","address":"대전광역시 서구 둔산중로46번길 38","lat":36.3506271,"lng":127.3890189,"totalSpaces":75,"isFree":false,"operatingDays":"평일","weekdayOpen":"10:00","weekdayClose":"20:00","weekendOpen":"00:00","weekendClose":"00:00","holidayOpen":"00:00","holidayClose":"00:00","feeInfo":"기본 10분 400원 / 추가 10분당 300원","phone":"042-288-4120","updatedAt":"2025-12-12","sido":"대전광역시","sigungu":"서구","dong":"둔산동"},{"name":"대전일보 앞","type":"공영","category":"노상","address":"대전광역시 서구 계룡로314","lat":36.353418,"lng":127.3639298,"totalSpaces":64,"isFree":false,"operatingDays":"평일","weekdayOpen":"08:00","weekdayClose":"22:00","weekendOpen":"00:00","weekendClose":"00:00","holidayOpen":"00:00","holidayClose":"00:00","feeInfo":"기본 10분 300원 / 추가 10분당 200원","phone":"042-120","updatedAt":"2022-12-15","sido":"대전광역시","sigungu":"서구","dong":""},{"name":"대전일보 앞","type":"공영","category":"노상","address":"대전광역시 서구 계룡로 314","lat":36.3534166,"lng":127.3639506,"totalSpaces":63,"isFree":false,"operatingDays":"평일","weekdayOpen":"08:00","weekdayClose":"19:00","weekendOpen":"00:00","weekendClose":"00:00","holidayOpen":"00:00","holidayClose":"00:00","feeInfo":"기본 10분 300원 / 추가 10분당 200원","phone":"","updatedAt":"2025-12-12","sido":"대전광역시","sigungu":"서구","dong":"갈마동"},{"name":"탄방동로데오타운주변","type":"공영","category":"노상","address":"대전광역시 서구 문정로 77","lat":36.34732705,"lng":127.387976,"totalSpaces":53,"isFree":false,"operatingDays":"평일","weekdayOpen":"10:00","weekdayClose":"20:00","weekendOpen":"00:00","weekendClose":"00:00","holidayOpen":"00:00","holidayClose":"00:00","feeInfo":"기본 10분 400원 / 추가 10분당 300원","phone":"042-120","updatedAt":"2022-12-15","sido":"대전광역시","sigungu":"서구","dong":"탄방동"},{"name":"로데오타운 주변","type":"공영","category":"노상","address":"대전광역시 서구 문정로 89번길 32","lat":36.3482321,"lng":127.3894721,"totalSpaces":50,"isFree":false,"operatingDays":"평일","weekdayOpen":"10:00","weekdayClose":"20:00","weekendOpen":"00:00","weekendClose":"00:00","holidayOpen":"00:00","holidayClose":"00:00","feeInfo":"기본 10분 400원 / 추가 10분당 300원","phone":"042-288-4120","updatedAt":"2025-12-12","sido":"대전광역시","sigungu":"서구","dong":"탄방동"},{"name":"월평1동이마트주변","type":"공영","category":"노상","address":"대전광역시 서구 한밭대로 580","lat":36.35770196,"lng":127.3629207,"totalSpaces":48,"isFree":false,"operatingDays":"평일","weekdayOpen":"08:00","weekdayClose":"22:00","weekendOpen":"00:00","weekendClose":"00:00","holidayOpen":"00:00","holidayClose":"00:00","feeInfo":"기본 10분 400원 / 추가 10분당 300원","phone":"042-120","updatedAt":"2022-12-15","sido":"대전광역시","sigungu":"서구","dong":"월평동"},{"name":"큰마을네거리 주변","type":"공영","category":"노상","address":"대전광역시 서구 대덕대로 164","lat":36.3476522,"lng":127.3766311,"totalSpaces":45,"isFree":false,"operatingDays":"평일","weekdayOpen":"09:00","weekdayClose":"21:00","weekendOpen":"00:00","weekendClose":"00:00","holidayOpen":"00:00","holidayClose":"00:00","feeInfo":"기본 10분 400원 / 추가 10분당 300원","phone":"","updatedAt":"2025-12-12","sido":"대전광역시","sigungu":"서구","dong":"갈마동"},{"name":"갈마2동큰마을네거리주변","type":"공영","category":"노상","address":"대전광역시 서구 대덕대로164","lat":36.34765243,"lng":127.376635,"totalSpaces":45,"isFree":false,"operatingDays":"평일","weekdayOpen":"08:00","weekdayClose":"20:00","weekendOpen":"00:00","weekendClose":"00:00","holidayOpen":"00:00","holidayClose":"00:00","feeInfo":"기본 10분 300원 / 추가 10분당 200원","phone":"042-120","updatedAt":"2022-12-15","sido":"대전광역시","sigungu":"서구","dong":""},{"name":"대전일보~월평타운구간","type":"공영","category":"노상","address":"대전광역시 서구 계룡로264번길43","lat":36.35318043,"lng":127.3608016,"totalSpaces":44,"isFree":false,"operatingDays":"평일","weekdayOpen":"08:00","weekdayClose":"22:00","weekendOpen":"00:00","weekendClose":"00:00","holidayOpen":"00:00","holidayClose":"00:00","feeInfo":"기본 10분 300원 / 추가 10분당 200원","phone":"042-120","updatedAt":"2022-12-15","sido":"대전광역시","sigungu":"서구","dong":""},{"name":"대전일보~월평타운 앞","type":"공영","category":"노상","address":"대전광역시 서구 계룡로 314","lat":36.3534166,"lng":127.3639506,"totalSpaces":39,"isFree":false,"operatingDays":"평일","weekdayOpen":"08:00","weekdayClose":"22:00","weekendOpen":"00:00","weekendClose":"00:00","holidayOpen":"00:00","holidayClose":"00:00","feeInfo":"기본 10분 300원 / 추가 10분당 200원","phone":"","updatedAt":"2025-12-12","sido":"대전광역시","sigungu":"서구","dong":"갈마동"},{"name":"월평1동 제4공영주차장","type":"공영","category":"노외","address":"대전광역시 서구 월평동 443","lat":36.35735938,"lng":127.3601058,"totalSpaces":34,"isFree":false,"operatingDays":"평일+토요일+공휴일","weekdayOpen":"08:00","weekdayClose":"19:00","weekendOpen":"00:00","weekendClose":"23:59","holidayOpen":"00:00","holidayClose":"23:59","feeInfo":"기본 0분 400원 / 추가 10분당 300원","phone":"042-288-4120","updatedAt":"2025-12-12","sido":"대전광역시","sigungu":"서구","dong":"월평동"},{"name":"갈마동 제5공영주차장","type":"공영","category":"노외","address":"대전광역시 서구 갈마동 293-26","lat":36.35270049,"lng":127.367823,"totalSpaces":32,"isFree":false,"operatingDays":"평일+토요일+공휴일","weekdayOpen":"08:00","weekdayClose":"22:00","weekendOpen":"00:00","weekendClose":"23:59","holidayOpen":"00:00","holidayClose":"23:59","feeInfo":"기본 0분 100원 / 추가 10분당 100원","phone":"042-288-4120","updatedAt":"2025-12-12","sido":"대전광역시","sigungu":"서구","dong":"갈마동"},{"name":"변동 제5공영주차장","type":"공영","category":"노외","address":"대전광역시 서구 변동 81-26","lat":36.328175,"lng":127.370791,"totalSpaces":28,"isFree":false,"operatingDays":"평일+토요일+공휴일","weekdayOpen":"08:00","weekdayClose":"22:00","weekendOpen":"00:00","weekendClose":"23:59","holidayOpen":"00:00","holidayClose":"23:59","feeInfo":"기본 0분 100원 / 추가 10분당 100원","phone":"042-288-4120","updatedAt":"2025-12-12","sido":"대전광역시","sigungu":"서구","dong":"변동"},{"name":"가수원동공영주차장","type":"공영","category":"노외","address":"대전광역시 서구 가수원동 767-10 외 3필지","lat":36.303295,"lng":127.353055,"totalSpaces":25,"isFree":false,"operatingDays":"평일+토요일+공휴일","weekdayOpen":"08:00","weekdayClose":"20:00","weekendOpen":"00:00","weekendClose":"23:59","holidayOpen":"00:00","holidayClose":"23:59","feeInfo":"기본 10분 150원 / 추가 10분당 150원","phone":"042-288-4120","updatedAt":"2025-12-12","sido":"대전광역시","sigungu":"서구","dong":"가수원동"},{"name":"갤러리아백화점 옆","type":"공영","category":"노상","address":"대전광역시 서구 대덕대로233번길 17","lat":36.3534107,"lng":127.3782677,"totalSpaces":17,"isFree":false,"operatingDays":"평일","weekdayOpen":"09:00","weekdayClose":"21:00","weekendOpen":"00:00","weekendClose":"00:00","holidayOpen":"00:00","holidayClose":"00:00","feeInfo":"기본 10분 400원 / 추가 10분당 300원","phone":"042-288-4120","updatedAt":"2025-12-12","sido":"대전광역시","sigungu":"서구","dong":"둔산동"},{"name":"선사유적지 옆","type":"공영","category":"노상","address":"대전광역시 서구 대덕대로317번길 9","lat":36.3609486,"lng":127.3789322,"totalSpaces":15,"isFree":false,"operatingDays":"평일","weekdayOpen":"08:00","weekdayClose":"22:00","weekendOpen":"00:00","weekendClose":"00:00","holidayOpen":"00:00","holidayClose":"00:00","feeInfo":"기본 10분 400원 / 추가 10분당 300원","phone":"","updatedAt":"2025-12-12","sido":"대전광역시","sigungu":"서구","dong":"월평동"},{"name":"월평2동둔산선사유적지옆","type":"공영","category":"노상","address":"대전광역시 서구 대덕대로317번길9","lat":36.36095306,"lng":127.3789367,"totalSpaces":15,"isFree":false,"operatingDays":"평일","weekdayOpen":"08:00","weekdayClose":"22:00","weekendOpen":"00:00","weekendClose":"00:00","holidayOpen":"00:00","holidayClose":"00:00","feeInfo":"기본 10분 400원 / 추가 10분당 300원","phone":"042-120","updatedAt":"2022-12-15","sido":"대전광역시","sigungu":"서구","dong":""}]}