{"sido":"경상남도","sigungu":"산청군","totalCount":22,"validCount":22,"items":[{"name":"산청시장 주변 공영주차장","type":"공영","category":"노외","address":"경상남도 산청군 산청읍 중앙로 26-3","lat":35.414757,"lng":127.877002,"totalSpaces":131,"isFree":true,"operatingDays":"평일+토요일+공휴일","weekdayOpen":"00:00","weekdayClose":"23:59","weekendOpen":"00:00","weekendClose":"23:59","holidayOpen":"00:00","holidayClose":"23:59","feeInfo":"무료","phone":"055-970-6834","updatedAt":"2024-12-12","sido":"경상남도","sigungu":"산청군","dong":"산청읍"},{"name":"산청군 보건의료원 주변 주차장","type":"공영","category":"노외","address":"경상남도 산청군 산청읍 중앙로 97","lat":35.4160184,"lng":127.8842361,"totalSpaces":53,"isFree":true,"operatingDays":"평일+토요일+공휴일","weekdayOpen":"00:00","weekdayClose":"23:59","weekendOpen":"00:00","weekendClose":"23:59","holidayOpen":"00:00","holidayClose":"23:59","feeInfo":"무료","phone":"055-970-6834","updatedAt":"2024-12-12","sido":"경상남도","sigungu":"산청군","dong":"산청읍"},{"name":"꽃봉산주차장(남산마을) 주차장","type":"공영","category":"노외","address":"경상남도 산청군 산청읍 꽃봉산로 86번길","lat":35.41055098,"lng":127.873124,"totalSpaces":47,"isFree":true,"operatingDays":"평일+토요일+공휴일","weekdayOpen":"00:00","weekdayClose":"23:59","weekendOpen":"00:00","weekendClose":"23:59","holidayOpen":"00:00","holidayClose":"23:59","feeInfo":"무료","phone":"055-970-6834","updatedAt":"2024-12-12","sido":"경상남도","sigungu":"산청군","dong":"산청읍"},{"name":"한마음공원 주차장","type":"공영","category":"노외","address":"경상남도 산청군 산청읍 꽃봉산로 79번길","lat":35.41461409,"lng":127.8742428,"totalSpaces":45,"isFree":true,"operatingDays":"평일+토요일+공휴일","weekdayOpen":"00:00","weekdayClose":"23:59","weekendOpen":"00:00","weekendClose":"23:59","holidayOpen":"00:00","holidayClose":"23:59","feeInfo":"무료","phone":"055-970-6834","updatedAt":"2024-12-12","sido":"경상남도","sigungu":"산청군","dong":"산청읍"},{"name":"단성면사무소 주차장","type":"공영","category":"노외","address":"경상남도 산청군 단성면 목화로977번길 6-3","lat":35.2990426,"lng":127.9573214,"totalSpaces":43,"isFree":true,"operatingDays":"평일+토요일+공휴일","weekdayOpen":"00:00","weekdayClose":"23:59","weekendOpen":"00:00","weekendClose":"23:59","holidayOpen":"00:00","holidayClose":"23:59","feeInfo":"무료","phone":"055-970-6834","updatedAt":"2024-12-12","sido":"경상남도","sigungu":"산청군","dong":"단성면"},{"name":"신안면사무소 주차장","type":"공영","category":"노외","address":"경상남도 산청군 신안면 지리산대로 3486","lat":35.3039373,"lng":127.973024,"totalSpaces":30,"isFree":true,"operatingDays":"평일+토요일+공휴일","weekdayOpen":"00:00","weekdayClose":"23:59","weekendOpen":"00:00","weekendClose":"23:59","holidayOpen":"00:00","holidayClose":"23:59","feeInfo":"무료","phone":"055-970-6834","updatedAt":"2024-12-12","sido":"경상남도","sigungu":"산청군","dong":"신안면"},{"name":"옥산2구마을(김영희아구찜앞) 주차장","type":"공영","category":"노외","address":"경상남도 산청군 산청읍 꽃봉산로79번길 20","lat":35.41460164,"lng":127.874757,"totalSpaces":28,"isFree":true,"operatingDays":"평일+토요일+공휴일","weekdayOpen":"00:00","weekdayClose":"23:59","weekendOpen":"00:00","weekendClose":"23:59","holidayOpen":"00:00","holidayClose":"23:59","feeInfo":"무료","phone":"055-970-6834","updatedAt":"2024-12-12","sido":"경상남도","sigungu":"산청군","dong":"산청읍"},{"name":"차황면사무소 주차장","type":"공영","category":"노외","address":"경상남도 산청군 차황면 친환경로 3581","lat":35.46368845,"lng":127.927879,"totalSpaces":28,"isFree":true,"operatingDays":"평일+토요일+공휴일","weekdayOpen":"00:00","weekdayClose":"23:59","weekendOpen":"00:00","weekendClose":"23:59","holidayOpen":"00:00","holidayClose":"23:59","feeInfo":"무료","phone":"055-970-6834","updatedAt":"2024-12-12","sido":"경상남도","sigungu":"산청군","dong":"차황면"},{"name":"삼장면사무소 주차장","type":"공영","category":"노외","address":"경상남도 산청군 삼장면 덕산대포로 257","lat":35.29823365,"lng":127.8317583,"totalSpaces":28,"isFree":true,"operatingDays":"평일+토요일+공휴일","weekdayOpen":"00:00","weekdayClose":"23:59","weekendOpen":"00:00","weekendClose":"23:59","holidayOpen":"00:00","holidayClose":"23:59","feeInfo":"무료","phone":"055-970-6834","updatedAt":"2024-12-12","sido":"경상남도","sigungu":"산청군","dong":"삼장면"},{"name":"의회청사 뒷편 임시주차장","type":"공영","category":"노외","address":"경상남도 산청군 산청읍 중앙로2번길 6-3","lat":35.41582745,"lng":127.874431,"totalSpaces":26,"isFree":true,"operatingDays":"평일+토요일+공휴일","weekdayOpen":"00:00","weekdayClose":"23:59","weekendOpen":"00:00","weekendClose":"23:59","holidayOpen":"00:00","holidayClose":"23:59","feeInfo":"무료","phone":"055-970-6834","updatedAt":"2024-12-12","sido":"경상남도","sigungu":"산청군","dong":"산청읍"},{"name":"생초면사무소 주차장","type":"공영","category":"노외","address":"경상남도 산청군 생초면 생초로 58","lat":35.4931251,"lng":127.8328913,"totalSpaces":25,"isFree":true,"operatingDays":"평일+토요일+공휴일","weekdayOpen":"00:00","weekdayClose":"23:59","weekendOpen":"00:00","weekendClose":"23:59","holidayOpen":"00:00","holidayClose":"23:59","feeInfo":"무료","phone":"055-970-6834","updatedAt":"2024-12-12","sido":"경상남도","sigungu":"산청군","dong":"생초면"},{"name":"금서면사무소 주차장","type":"공영","category":"노외","address":"경상남도 산청군 금서면 친환경로 2536","lat":35.41746775,"lng":127.8631146,"totalSpaces":24,"isFree":true,"operatingDays":"평일+토요일+공휴일","weekdayOpen":"00:00","weekdayClose":"23:59","weekendOpen":"00:00","weekendClose":"23:59","holidayOpen":"00:00","holidayClose":"23:59","feeInfo":"무료","phone":"055-970-6834","updatedAt":"2024-12-12","sido":"경상남도","sigungu":"산청군","dong":"금서면"},{"name":"대한노인회 산청군지회 옆 주차장","type":"공영","category":"노외","address":"경상남도 산청군 산청읍 중앙로2번길 6","lat":35.41591851,"lng":127.874661,"totalSpaces":21,"isFree":true,"operatingDays":"평일+토요일+공휴일","weekdayOpen":"00:00","weekdayClose":"23:59","weekendOpen":"00:00","weekendClose":"23:59","holidayOpen":"00:00","holidayClose":"23:59","feeInfo":"무료","phone":"055-970-6834","updatedAt":"2024-12-12","sido":"경상남도","sigungu":"산청군","dong":"산청읍"},{"name":"생비량면사무소 주차장","type":"공영","category":"노외","address":"경상남도 산청군 생비량면 비량로 29","lat":35.34542458,"lng":128.0442743,"totalSpaces":19,"isFree":true,"operatingDays":"평일+토요일+공휴일","weekdayOpen":"00:00","weekdayClose":"23:59","weekendOpen":"00:00","weekendClose":"23:59","holidayOpen":"00:00","holidayClose":"23:59","feeInfo":"무료","phone":"055-970-6834","updatedAt":"2024-12-12","sido":"경상남도","sigungu":"산청군","dong":"생비량면"},{"name":"산청경찰서 앞 주차장","type":"공영","category":"노외","address":"경상남도 산청군 산청읍 중앙로 1","lat":35.41644279,"lng":127.874442,"totalSpaces":18,"isFree":true,"operatingDays":"평일+토요일+공휴일","weekdayOpen":"00:00","weekdayClose":"23:59","weekendOpen":"00:00","weekendClose":"23:59","holidayOpen":"00:00","holidayClose":"23:59","feeInfo":"무료","phone":"055-970-6834","updatedAt":"2024-12-12","sido":"경상남도","sigungu":"산청군","dong":"산청읍"},{"name":"산청읍행정복지센터 주차장","type":"공영","category":"노외","address":"경상남도 산청군 산청읍 산엔청로 38","lat":35.4136709,"lng":127.877225,"totalSpaces":17,"isFree":true,"operatingDays":"평일+토요일+공휴일","weekdayOpen":"00:00","weekdayClose":"23:59","weekendOpen":"00:00","weekendClose":"23:59","holidayOpen":"00:00","holidayClose":"23:59","feeInfo":"무료","phone":"055-970-6834","updatedAt":"2024-12-12","sido":"경상남도","sigungu":"산청군","dong":"산청읍"},{"name":"신등면사무소 주차장","type":"공영","category":"노외","address":"경상남도 산청군 신등면 신차로 576","lat":35.3828318,"lng":128.0066007,"totalSpaces":16,"isFree":true,"operatingDays":"평일+토요일+공휴일","weekdayOpen":"00:00","weekdayClose":"23:59","weekendOpen":"00:00","weekendClose":"23:59","holidayOpen":"00:00","holidayClose":"23:59","feeInfo":"무료","phone":"055-970-6834","updatedAt":"2024-12-12","sido":"경상남도","sigungu":"산청군","dong":"신등면"},{"name":"오부면사무소 주차장","type":"공영","category":"노외","address":"경상남도 산청군 오부면 산수로 541","lat":35.45872341,"lng":127.8619541,"totalSpaces":14,"isFree":true,"operatingDays":"평일+토요일+공휴일","weekdayOpen":"00:00","weekdayClose":"23:59","weekendOpen":"00:00","weekendClose":"23:59","holidayOpen":"00:00","holidayClose":"23:59","feeInfo":"무료","phone":"055-970-6834","updatedAt":"2024-12-12","sido":"경상남도","sigungu":"산청군","dong":"오부면"},{"name":"영남탕-보광전기 주차장","type":"공영","category":"노상","address":"경상남도 산청군 산청읍 친환경로 2683","lat":35.41729932,"lng":127.878024,"totalSpaces":10,"isFree":true,"operatingDays":"평일+토요일+공휴일","weekdayOpen":"00:00","weekdayClose":"23:59","weekendOpen":"00:00","weekendClose":"23:59","holidayOpen":"00:00","holidayClose":"23:59","feeInfo":"무료","phone":"055-970-6834","updatedAt":"2024-12-12","sido":"경상남도","sigungu":"산청군","dong":"산청읍"},{"name":"킹스할인마트 앞 주차장","type":"공영","category":"노상","address":"경상남도 산청군 산청읍 웅석봉로 48","lat":35.41332814,"lng":127.8742661,"totalSpaces":10,"isFree":true,"operatingDays":"평일+토요일+공휴일","weekdayOpen":"00:00","weekdayClose":"23:59","weekendOpen":"00:00","weekendClose":"23:59","holidayOpen":"00:00","holidayClose":"23:59","feeInfo":"무료","phone":"055-970-6834","updatedAt":"2024-12-12","sido":"경상남도","sigungu":"산청군","dong":"산청읍"},{"name":"현대오토바이-해장국 설렁탕 주차장","type":"공영","category":"노상","address":"경상남도 산청군 산청읍 웅석봉로 48","lat":35.41332814,"lng":127.8742661,"totalSpaces":10,"isFree":true,"operatingDays":"평일+토요일+공휴일","weekdayOpen":"00:00","weekdayClose":"23:59","weekendOpen":"00:00","weekendClose":"23:59","holidayOpen":"00:00","holidayClose":"23:59","feeInfo":"무료","phone":"055-970-6834","updatedAt":"2024-12-12","sido":"경상남도","sigungu":"산청군","dong":"산청읍"},{"name":"시천면사무소 주차장","type":"공영","category":"노외","address":"경상남도 산청군 시천면 남명2길 21","lat":35.27840996,"lng":127.8405654,"totalSpaces":6,"isFree":true,"operatingDays":"평일+토요일+공휴일","weekdayOpen":"00:00","weekdayClose":"23:59","weekendOpen":"00:00","weekendClose":"23:59","holidayOpen":"00:00","holidayClose":"23:59","feeInfo":"무료","phone":"055-970-6834","updatedAt":"2024-12-12","sido":"경상남도","sigungu":"산청군","dong":"시천면"}]}