{"sido":"경상남도","sigungu":"의령군","totalCount":96,"validCount":96,"items":[{"name":"장내 이병철생가 주차장","type":"공영","category":"노외","address":"경상남도 의령군 정곡면 중교리 489-2","lat":35.38081421,"lng":128.3259438,"totalSpaces":74,"isFree":true,"operatingDays":"평일+토요일+공휴일","weekdayOpen":"00:00","weekdayClose":"23:59","weekendOpen":"00:00","weekendClose":"23:59","holidayOpen":"00:00","holidayClose":"23:59","feeInfo":"무료","phone":"055-570-3640","updatedAt":"2025-06-04","sido":"경상남도","sigungu":"의령군","dong":"정곡면"},{"name":"시외버스터미널 공용주차장","type":"공영","category":"노외","address":"경상남도 의령군 의령읍 서동리 277","lat":35.3202133,"lng":128.2544395,"totalSpaces":68,"isFree":true,"operatingDays":"평일+토요일+공휴일","weekdayOpen":"00:00","weekdayClose":"23:59","weekendOpen":"00:00","weekendClose":"23:59","holidayOpen":"00:00","holidayClose":"23:59","feeInfo":"무료","phone":"055-570-3640","updatedAt":"2025-06-04","sido":"경상남도","sigungu":"의령군","dong":"의령읍"},{"name":"내조마을 주차장","type":"공영","category":"노외","address":"경상남도 의령군 칠곡면 내조리 426","lat":35.3535777,"lng":128.1951762,"totalSpaces":66,"isFree":true,"operatingDays":"평일+토요일+공휴일","weekdayOpen":"00:00","weekdayClose":"23:59","weekendOpen":"00:00","weekendClose":"23:59","holidayOpen":"00:00","holidayClose":"23:59","feeInfo":"무료","phone":"055-570-3640","updatedAt":"2025-06-04","sido":"경상남도","sigungu":"의령군","dong":"칠곡면"},{"name":"신반공용주차장1","type":"공영","category":"노외","address":"경상남도 의령군 부림면 신반리 398","lat":35.46622776,"lng":128.3257469,"totalSpaces":60,"isFree":true,"operatingDays":"평일+토요일+공휴일","weekdayOpen":"00:00","weekdayClose":"23:59","weekendOpen":"00:00","weekendClose":"23:59","holidayOpen":"00:00","holidayClose":"23:59","feeInfo":"무료","phone":"055-570-3640","updatedAt":"2025-06-04","sido":"경상남도","sigungu":"의령군","dong":"부림면"},{"name":"신반공용주차장2","type":"공영","category":"노외","address":"경상남도 의령군 부림면 신반리 301-3","lat":35.4663485,"lng":128.3235628,"totalSpaces":60,"isFree":true,"operatingDays":"평일+토요일+공휴일","weekdayOpen":"00:00","weekdayClose":"23:59","weekendOpen":"00:00","weekendClose":"23:59","holidayOpen":"00:00","holidayClose":"23:59","feeInfo":"무료","phone":"055-570-3640","updatedAt":"2025-06-04","sido":"경상남도","sigungu":"의령군","dong":"부림면"},{"name":"군민문화회관 공영주차장","type":"공영","category":"노외","address":"경상남도 의령군 의령읍 의병로24길 26","lat":35.317527,"lng":128.2641965,"totalSpaces":60,"isFree":true,"operatingDays":"평일+토요일+공휴일","weekdayOpen":"00:00","weekdayClose":"23:59","weekendOpen":"00:00","weekendClose":"23:59","holidayOpen":"00:00","holidayClose":"23:59","feeInfo":"무료","phone":"055-570-3640","updatedAt":"2025-06-04","sido":"경상남도","sigungu":"의령군","dong":"의령읍"},{"name":"충익사 광장 주차장","type":"공영","category":"노외","address":"경상남도 의령군 의령읍 중동리 426-1","lat":35.3172286,"lng":128.2624364,"totalSpaces":59,"isFree":true,"operatingDays":"평일+토요일+공휴일","weekdayOpen":"00:00","weekdayClose":"23:59","weekendOpen":"00:00","weekendClose":"23:59","holidayOpen":"00:00","holidayClose":"23:59","feeInfo":"무료","phone":"055-570-3640","updatedAt":"2025-06-04","sido":"경상남도","sigungu":"의령군","dong":"의령읍"},{"name":"의령 동동지구 주차장2","type":"공영","category":"노외","address":"경상남도 의령군 의령읍 동동리 1633","lat":35.31886111,"lng":128.2716621,"totalSpaces":58,"isFree":true,"operatingDays":"평일+토요일+공휴일","weekdayOpen":"00:00","weekdayClose":"23:59","weekendOpen":"00:00","weekendClose":"23:59","holidayOpen":"00:00","holidayClose":"23:59","feeInfo":"무료","phone":"055-570-3640","updatedAt":"2025-06-04","sido":"경상남도","sigungu":"의령군","dong":"의령읍"},{"name":"부림 중동주차장","type":"공영","category":"노외","address":"경상남도 의령군 부림면 대한로 1728-1","lat":35.46443445,"lng":128.3216981,"totalSpaces":51,"isFree":true,"operatingDays":"평일+토요일+공휴일","weekdayOpen":"00:00","weekdayClose":"23:59","weekendOpen":"00:00","weekendClose":"23:59","holidayOpen":"00:00","holidayClose":"23:59","feeInfo":"무료","phone":"055-570-3640","updatedAt":"2025-06-04","sido":"경상남도","sigungu":"의령군","dong":"부림면"},{"name":"의령시장제1주차장(하나로마트앞)","type":"공영","category":"노외","address":"경상남도 의령군 의령읍 의병로14길 29","lat":35.31717217,"lng":128.2597706,"totalSpaces":50,"isFree":true,"operatingDays":"평일+토요일+공휴일","weekdayOpen":"00:00","weekdayClose":"23:59","weekendOpen":"00:00","weekendClose":"23:59","holidayOpen":"00:00","holidayClose":"23:59","feeInfo":"무료","phone":"055-570-3640","updatedAt":"2025-06-04","sido":"경상남도","sigungu":"의령군","dong":"의령읍"},{"name":"의령시장 제2주차장(의령전통시장주차빌딩)","type":"공영","category":"노외","address":"경상남도 의령군 의령읍 의병로16길 14-1","lat":35.31831488,"lng":128.2599603,"totalSpaces":50,"isFree":true,"operatingDays":"평일+토요일+공휴일","weekdayOpen":"00:00","weekdayClose":"23:59","weekendOpen":"00:00","weekendClose":"23:59","holidayOpen":"00:00","holidayClose":"23:59","feeInfo":"무료","phone":"055-570-3640","updatedAt":"2025-06-04","sido":"경상남도","sigungu":"의령군","dong":"의령읍"},{"name":"평촌마을 주차장","type":"공영","category":"노외","address":"경상남도 의령군 대의면 마쌍리 143-5","lat":35.36674752,"lng":128.1198355,"totalSpaces":50,"isFree":true,"operatingDays":"평일+토요일+공휴일","weekdayOpen":"00:00","weekdayClose":"23:59","weekendOpen":"00:00","weekendClose":"23:59","holidayOpen":"00:00","holidayClose":"23:59","feeInfo":"무료","phone":"055-570-3640","updatedAt":"2025-06-04","sido":"경상남도","sigungu":"의령군","dong":"대의면"},{"name":"의령 복개천 주차장","type":"공영","category":"노상","address":"경상남도 의령군 의령읍 중동리 401-4","lat":35.31840331,"lng":128.2636462,"totalSpaces":49,"isFree":true,"operatingDays":"평일+토요일+공휴일","weekdayOpen":"00:00","weekdayClose":"23:59","weekendOpen":"00:00","weekendClose":"23:59","holidayOpen":"00:00","holidayClose":"23:59","feeInfo":"무료","phone":"055-570-3640","updatedAt":"2025-06-04","sido":"경상남도","sigungu":"의령군","dong":"의령읍"},{"name":"의령시장제1주차장(공작예식장)","type":"공영","category":"노외","address":"경상남도 의령군 의령읍 중동리 423-9","lat":35.31729478,"lng":128.2608621,"totalSpaces":45,"isFree":true,"operatingDays":"평일+토요일+공휴일","weekdayOpen":"00:00","weekdayClose":"23:59","weekendOpen":"00:00","weekendClose":"23:59","holidayOpen":"00:00","holidayClose":"23:59","feeInfo":"무료","phone":"055-570-3640","updatedAt":"2025-06-04","sido":"경상남도","sigungu":"의령군","dong":"의령읍"},{"name":"동동(동본)주차장","type":"공영","category":"노외","address":"경상남도 의령군 의령읍 동동리 1443","lat":35.32165447,"lng":128.2633148,"totalSpaces":45,"isFree":true,"operatingDays":"평일+토요일+공휴일","weekdayOpen":"00:00","weekdayClose":"23:59","weekendOpen":"00:00","weekendClose":"23:59","holidayOpen":"00:00","holidayClose":"23:59","feeInfo":"무료","phone":"055-570-3640","updatedAt":"2025-06-04","sido":"경상남도","sigungu":"의령군","dong":"의령읍"},{"name":"동동(소입)주차장","type":"공영","category":"노외","address":"경상남도 의령군 의령읍 동동리 1066","lat":35.32251418,"lng":128.2644363,"totalSpaces":45,"isFree":true,"operatingDays":"평일+토요일+공휴일","weekdayOpen":"00:00","weekdayClose":"23:59","weekendOpen":"00:00","weekendClose":"23:59","holidayOpen":"00:00","holidayClose":"23:59","feeInfo":"무료","phone":"055-570-3640","updatedAt":"2025-06-04","sido":"경상남도","sigungu":"의령군","dong":"의령읍"},{"name":"의령 동동지구 주차장1","type":"공영","category":"노외","address":"경상남도 의령군 의령읍 동동리 1674","lat":35.31892601,"lng":128.2691686,"totalSpaces":43,"isFree":true,"operatingDays":"평일+토요일+공휴일","weekdayOpen":"00:00","weekdayClose":"23:59","weekendOpen":"00:00","weekendClose":"23:59","holidayOpen":"00:00","holidayClose":"23:59","feeInfo":"무료","phone":"055-570-3640","updatedAt":"2025-06-04","sido":"경상남도","sigungu":"의령군","dong":"의령읍"},{"name":"신기마을 주차장","type":"공영","category":"노외","address":"경상남도 의령군 낙서면 정곡리 140-1","lat":35.47979008,"lng":128.4113706,"totalSpaces":40,"isFree":true,"operatingDays":"평일+토요일+공휴일","weekdayOpen":"00:00","weekdayClose":"23:59","weekendOpen":"00:00","weekendClose":"23:59","holidayOpen":"00:00","holidayClose":"23:59","feeInfo":"무료","phone":"055-570-3640","updatedAt":"2025-06-04","sido":"경상남도","sigungu":"의령군","dong":"낙서면"},{"name":"중동 공영주차장","type":"공영","category":"노외","address":"경상남도 의령군 의령읍 의병로22길 27","lat":35.317557,"lng":128.263473,"totalSpaces":37,"isFree":true,"operatingDays":"평일+토요일+공휴일","weekdayOpen":"00:00","weekdayClose":"23:59","weekendOpen":"00:00","weekendClose":"23:59","holidayOpen":"00:00","holidayClose":"23:59","feeInfo":"무료","phone":"055-570-3640","updatedAt":"2025-06-04","sido":"경상남도","sigungu":"의령군","dong":"의령읍"},{"name":"의령읍 서동 공영주차장","type":"공영","category":"노외","address":"경상남도 의령군 의령읍 의병로 195","lat":35.31943074,"lng":128.2580473,"totalSpaces":36,"isFree":true,"operatingDays":"평일+토요일+공휴일","weekdayOpen":"00:00","weekdayClose":"23:59","weekendOpen":"00:00","weekendClose":"23:59","holidayOpen":"00:00","holidayClose":"23:59","feeInfo":"무료","phone":"055-570-3640","updatedAt":"2025-06-04","sido":"경상남도","sigungu":"의령군","dong":"의령읍"},{"name":"의령시장 보훈회관(신협)옆","type":"공영","category":"노외","address":"경상남도 의령군 의령읍 중동리 410-8","lat":35.31867597,"lng":128.2628211,"totalSpaces":35,"isFree":true,"operatingDays":"평일+토요일+공휴일","weekdayOpen":"00:00","weekdayClose":"23:59","weekendOpen":"00:00","weekendClose":"23:59","holidayOpen":"00:00","holidayClose":"23:59","feeInfo":"무료","phone":"055-570-3640","updatedAt":"2025-06-04","sido":"경상남도","sigungu":"의령군","dong":"의령읍"},{"name":"당지마을2 주차장","type":"공영","category":"노외","address":"경상남도 의령군 낙서면 여의리 152-3","lat":35.48778733,"lng":128.4125696,"totalSpaces":35,"isFree":true,"operatingDays":"평일+토요일+공휴일","weekdayOpen":"00:00","weekdayClose":"23:59","weekendOpen":"00:00","weekendClose":"23:59","holidayOpen":"00:00","holidayClose":"23:59","feeInfo":"무료","phone":"055-570-3640","updatedAt":"2025-06-04","sido":"경상남도","sigungu":"의령군","dong":"낙서면"},{"name":"상동우수저류시설 주차장","type":"공영","category":"노외","address":"경상남도 의령군 의령읍 서동리 413-1","lat":35.32088903,"lng":128.2599834,"totalSpaces":34,"isFree":true,"operatingDays":"평일+토요일+공휴일","weekdayOpen":"00:00","weekdayClose":"23:59","weekendOpen":"00:00","weekendClose":"23:59","holidayOpen":"00:00","holidayClose":"23:59","feeInfo":"무료","phone":"055-570-3640","updatedAt":"2025-06-04","sido":"경상남도","sigungu":"의령군","dong":"의령읍"},{"name":"괴진마을 주차장","type":"공영","category":"노외","address":"경상남도 의령군 가례면 괴진리 375-4","lat":35.35280655,"lng":128.2427765,"totalSpaces":33,"isFree":true,"operatingDays":"평일+토요일+공휴일","weekdayOpen":"00:00","weekdayClose":"23:59","weekendOpen":"00:00","weekendClose":"23:59","holidayOpen":"00:00","holidayClose":"23:59","feeInfo":"무료","phone":"055-570-3640","updatedAt":"2025-06-04","sido":"경상남도","sigungu":"의령군","dong":"가례면"},{"name":"604주유소-삼영파크 주차장","type":"공영","category":"노상","address":"경상남도 의령군 의령읍 서동리 1022-21","lat":35.31967998,"lng":128.2555724,"totalSpaces":30,"isFree":true,"operatingDays":"평일+토요일+공휴일","weekdayOpen":"00:00","weekdayClose":"23:59","weekendOpen":"00:00","weekendClose":"23:59","holidayOpen":"00:00","holidayClose":"23:59","feeInfo":"무료","phone":"055-570-3640","updatedAt":"2025-06-04","sido":"경상남도","sigungu":"의령군","dong":"의령읍"},{"name":"마전마을 주차장","type":"공영","category":"노외","address":"경상남도 의령군 대의면 중촌리 72","lat":35.37036355,"lng":128.165949,"totalSpaces":30,"isFree":true,"operatingDays":"평일+토요일+공휴일","weekdayOpen":"00:00","weekdayClose":"23:59","weekendOpen":"00:00","weekendClose":"23:59","holidayOpen":"00:00","holidayClose":"23:59","feeInfo":"무료","phone":"055-570-3640","updatedAt":"2025-06-04","sido":"경상남도","sigungu":"의령군","dong":"대의면"},{"name":"암하마을 주차장","type":"공영","category":"노외","address":"경상남도 의령군 대의면 행정리 361-1","lat":35.38734114,"lng":128.1592912,"totalSpaces":30,"isFree":true,"operatingDays":"평일+토요일+공휴일","weekdayOpen":"00:00","weekdayClose":"23:59","weekendOpen":"00:00","weekendClose":"23:59","holidayOpen":"00:00","holidayClose":"23:59","feeInfo":"무료","phone":"055-570-3640","updatedAt":"2025-06-04","sido":"경상남도","sigungu":"의령군","dong":"대의면"},{"name":"당동마을 주차장","type":"공영","category":"노외","address":"경상남도 의령군 유곡면 당동리 26-2","lat":35.4358243,"lng":128.3173096,"totalSpaces":29,"isFree":true,"operatingDays":"평일+토요일+공휴일","weekdayOpen":"00:00","weekdayClose":"23:59","weekendOpen":"00:00","weekendClose":"23:59","holidayOpen":"00:00","holidayClose":"23:59","feeInfo":"무료","phone":"055-570-3640","updatedAt":"2025-06-04","sido":"경상남도","sigungu":"의령군","dong":"유곡면"},{"name":"사현마을 주차장","type":"공영","category":"노외","address":"경상남도 의령군 봉수면 신현리 141-1","lat":35.47402241,"lng":128.2644525,"totalSpaces":28,"isFree":true,"operatingDays":"평일+토요일+공휴일","weekdayOpen":"00:00","weekdayClose":"23:59","weekendOpen":"00:00","weekendClose":"23:59","holidayOpen":"00:00","holidayClose":"23:59","feeInfo":"무료","phone":"055-570-3640","updatedAt":"2025-06-04","sido":"경상남도","sigungu":"의령군","dong":"봉수면"},{"name":"정곡마을 주차장","type":"공영","category":"노외","address":"경상남도 의령군 낙서면 정곡리 1301-4","lat":35.47473362,"lng":128.393504,"totalSpaces":27,"isFree":true,"operatingDays":"평일+토요일+공휴일","weekdayOpen":"00:00","weekdayClose":"23:59","weekendOpen":"00:00","weekendClose":"23:59","holidayOpen":"00:00","holidayClose":"23:59","feeInfo":"무료","phone":"055-570-3640","updatedAt":"2025-06-04","sido":"경상남도","sigungu":"의령군","dong":"낙서면"},{"name":"세간마을 주차장","type":"공영","category":"노외","address":"경상남도 의령군 유곡면 세간리 735-1","lat":35.43666834,"lng":128.3449743,"totalSpaces":27,"isFree":true,"operatingDays":"평일+토요일+공휴일","weekdayOpen":"00:00","weekdayClose":"23:59","weekendOpen":"00:00","weekendClose":"23:59","holidayOpen":"00:00","holidayClose":"23:59","feeInfo":"무료","phone":"055-570-3640","updatedAt":"2025-06-04","sido":"경상남도","sigungu":"의령군","dong":"유곡면"},{"name":"의령읍 남산동 주차장","type":"공영","category":"노외","address":"경상남도 의령군 의령읍 동동리 932-1","lat":35.319422,"lng":128.2656026,"totalSpaces":26,"isFree":true,"operatingDays":"평일+토요일+공휴일","weekdayOpen":"00:00","weekdayClose":"23:59","weekendOpen":"00:00","weekendClose":"23:59","holidayOpen":"00:00","holidayClose":"23:59","feeInfo":"무료","phone":"055-570-3640","updatedAt":"2025-06-04","sido":"경상남도","sigungu":"의령군","dong":"의령읍"},{"name":"마산마을 주차장","type":"공영","category":"노외","address":"경상남도 의령군 지정면 마산리 948-8","lat":35.36633094,"lng":128.4105058,"totalSpaces":25,"isFree":true,"operatingDays":"평일+토요일+공휴일","weekdayOpen":"00:00","weekdayClose":"23:59","weekendOpen":"00:00","weekendClose":"23:59","holidayOpen":"00:00","holidayClose":"23:59","feeInfo":"무료","phone":"055-570-3640","updatedAt":"2025-06-04","sido":"경상남도","sigungu":"의령군","dong":"지정면"},{"name":"하촌마을 주차장","type":"공영","category":"노외","address":"경상남도 의령군 대의면 하촌리 551-3","lat":35.38063204,"lng":128.1376352,"totalSpaces":25,"isFree":true,"operatingDays":"평일+토요일+공휴일","weekdayOpen":"00:00","weekdayClose":"23:59","weekendOpen":"00:00","weekendClose":"23:59","holidayOpen":"00:00","holidayClose":"23:59","feeInfo":"무료","phone":"055-570-3640","updatedAt":"2025-06-04","sido":"경상남도","sigungu":"의령군","dong":"대의면"},{"name":"의령시장 약초시장주차장","type":"공영","category":"노외","address":"경상남도 의령군 의령읍 서동리 493-3","lat":35.3185323,"lng":128.2604172,"totalSpaces":24,"isFree":true,"operatingDays":"평일+토요일+공휴일","weekdayOpen":"00:00","weekdayClose":"23:59","weekendOpen":"00:00","weekendClose":"23:59","holidayOpen":"00:00","holidayClose":"23:59","feeInfo":"무료","phone":"055-570-3640","updatedAt":"2025-06-04","sido":"경상남도","sigungu":"의령군","dong":"의령읍"},{"name":"상촌마을 주차장","type":"공영","category":"노외","address":"경상남도 의령군 지정면 기강로5길 122-10","lat":35.41190634,"lng":128.4187455,"totalSpaces":24,"isFree":true,"operatingDays":"평일+토요일+공휴일","weekdayOpen":"00:00","weekdayClose":"23:59","weekendOpen":"00:00","weekendClose":"23:59","holidayOpen":"00:00","holidayClose":"23:59","feeInfo":"무료","phone":"055-570-3640","updatedAt":"2025-06-04","sido":"경상남도","sigungu":"의령군","dong":"지정면"},{"name":"가례마을 주차장","type":"공영","category":"노외","address":"경상남도 의령군 가례면 가례리 240","lat":35.32311239,"lng":128.2437458,"totalSpaces":23,"isFree":true,"operatingDays":"평일+토요일+공휴일","weekdayOpen":"00:00","weekdayClose":"23:59","weekendOpen":"00:00","weekendClose":"23:59","holidayOpen":"00:00","holidayClose":"23:59","feeInfo":"무료","phone":"055-570-3640","updatedAt":"2025-06-04","sido":"경상남도","sigungu":"의령군","dong":"가례면"},{"name":"의령 동동 공영주차장","type":"공영","category":"노외","address":"경상남도 의령군 의령읍 동동리 862-14","lat":35.3184158,"lng":128.2670261,"totalSpaces":23,"isFree":true,"operatingDays":"평일+토요일+공휴일","weekdayOpen":"00:00","weekdayClose":"23:59","weekendOpen":"00:00","weekendClose":"23:59","holidayOpen":"00:00","holidayClose":"23:59","feeInfo":"무료","phone":"055-570-3640","updatedAt":"2025-06-04","sido":"경상남도","sigungu":"의령군","dong":"의령읍"},{"name":"다사마을 주차장","type":"공영","category":"노외","address":"경상남도 의령군 대의면 다사리 324-1","lat":35.35932528,"lng":128.1406823,"totalSpaces":23,"isFree":true,"operatingDays":"평일+토요일+공휴일","weekdayOpen":"00:00","weekdayClose":"23:59","weekendOpen":"00:00","weekendClose":"23:59","holidayOpen":"00:00","holidayClose":"23:59","feeInfo":"무료","phone":"055-570-3640","updatedAt":"2025-06-04","sido":"경상남도","sigungu":"의령군","dong":"대의면"},{"name":"무상마을 주차장","type":"공영","category":"노외","address":"경상남도 의령군 의령읍 무전리 944-7","lat":35.33319951,"lng":128.2671641,"totalSpaces":22,"isFree":true,"operatingDays":"평일+토요일+공휴일","weekdayOpen":"00:00","weekdayClose":"23:59","weekendOpen":"00:00","weekendClose":"23:59","holidayOpen":"00:00","holidayClose":"23:59","feeInfo":"무료","phone":"055-570-3640","updatedAt":"2025-06-04","sido":"경상남도","sigungu":"의령군","dong":"의령읍"},{"name":"웅곡마을 주차장","type":"공영","category":"노외","address":"경상남도 의령군 대의면 천곡리 583-1","lat":35.33809787,"lng":128.1289905,"totalSpaces":22,"isFree":true,"operatingDays":"평일+토요일+공휴일","weekdayOpen":"00:00","weekdayClose":"23:59","weekendOpen":"00:00","weekendClose":"23:59","holidayOpen":"00:00","holidayClose":"23:59","feeInfo":"무료","phone":"055-570-3640","updatedAt":"2025-06-04","sido":"경상남도","sigungu":"의령군","dong":"대의면"},{"name":"서신주차장","type":"공영","category":"노외","address":"경상남도 의령군 의령읍 서동리 372-9","lat":35.32093613,"lng":128.2557008,"totalSpaces":21,"isFree":true,"operatingDays":"평일+토요일+공휴일","weekdayOpen":"00:00","weekdayClose":"23:59","weekendOpen":"00:00","weekendClose":"23:59","holidayOpen":"00:00","holidayClose":"23:59","feeInfo":"무료","phone":"055-570-3640","updatedAt":"2025-06-04","sido":"경상남도","sigungu":"의령군","dong":"의령읍"},{"name":"가야슈퍼-동창이용원 주차장","type":"공영","category":"노상","address":"경상남도 의령군 의령읍 동동리 1445-1","lat":35.3218049,"lng":128.263492,"totalSpaces":20,"isFree":true,"operatingDays":"평일+토요일+공휴일","weekdayOpen":"00:00","weekdayClose":"23:59","weekendOpen":"00:00","weekendClose":"23:59","holidayOpen":"00:00","holidayClose":"23:59","feeInfo":"무료","phone":"055-570-3640","updatedAt":"2025-06-04","sido":"경상남도","sigungu":"의령군","dong":"의령읍"},{"name":"상동(소입)우수저류시설 주차장","type":"공영","category":"노외","address":"경상남도 의령군 의령읍 동동리 944-24","lat":35.321429,"lng":128.2663957,"totalSpaces":20,"isFree":true,"operatingDays":"평일+토요일+공휴일","weekdayOpen":"00:00","weekdayClose":"23:59","weekendOpen":"00:00","weekendClose":"23:59","holidayOpen":"00:00","holidayClose":"23:59","feeInfo":"무료","phone":"055-570-3640","updatedAt":"2025-06-04","sido":"경상남도","sigungu":"의령군","dong":"의령읍"},{"name":"부림 신반시장 옆 주차장","type":"공영","category":"노외","address":"경상남도 의령군 부림면 신번로10길 21-5","lat":35.46783399,"lng":128.3261678,"totalSpaces":20,"isFree":true,"operatingDays":"평일+토요일+공휴일","weekdayOpen":"00:00","weekdayClose":"23:59","weekendOpen":"00:00","weekendClose":"23:59","holidayOpen":"00:00","holidayClose":"23:59","feeInfo":"무료","phone":"055-570-3640","updatedAt":"2025-06-04","sido":"경상남도","sigungu":"의령군","dong":"부림면"},{"name":"덕교마을 주차장","type":"공영","category":"노외","address":"경상남도 의령군 화정면 덕교리 763-2","lat":35.29118898,"lng":128.1944389,"totalSpaces":20,"isFree":true,"operatingDays":"평일+토요일+공휴일","weekdayOpen":"00:00","weekdayClose":"23:59","weekendOpen":"00:00","weekendClose":"23:59","holidayOpen":"00:00","holidayClose":"23:59","feeInfo":"무료","phone":"055-570-3640","updatedAt":"2025-06-04","sido":"경상남도","sigungu":"의령군","dong":"화정면"},{"name":"상정마을 주차장","type":"공영","category":"노외","address":"경상남도 의령군 화정면 상정리 614-5","lat":35.27713312,"lng":128.2112395,"totalSpaces":20,"isFree":true,"operatingDays":"평일+토요일+공휴일","weekdayOpen":"00:00","weekdayClose":"23:59","weekendOpen":"00:00","weekendClose":"23:59","holidayOpen":"00:00","holidayClose":"23:59","feeInfo":"무료","phone":"055-570-3640","updatedAt":"2025-06-04","sido":"경상남도","sigungu":"의령군","dong":"화정면"},{"name":"방계마을 주차장","type":"공영","category":"노외","address":"경상남도 의령군 낙서면 낙서로2길 3","lat":35.48334232,"lng":128.3765085,"totalSpaces":20,"isFree":true,"operatingDays":"평일+토요일+공휴일","weekdayOpen":"00:00","weekdayClose":"23:59","weekendOpen":"00:00","weekendClose":"23:59","holidayOpen":"00:00","holidayClose":"23:59","feeInfo":"무료","phone":"055-570-3640","updatedAt":"2025-06-04","sido":"경상남도","sigungu":"의령군","dong":"낙서면"},{"name":"서암마을 주차장","type":"공영","category":"노외","address":"경상남도 의령군 봉수면 서암리 1078-1","lat":35.48177974,"lng":128.2356404,"totalSpaces":20,"isFree":true,"operatingDays":"평일+토요일+공휴일","weekdayOpen":"00:00","weekdayClose":"23:59","weekendOpen":"00:00","weekendClose":"23:59","holidayOpen":"00:00","holidayClose":"23:59","feeInfo":"무료","phone":"055-570-3640","updatedAt":"2025-06-04","sido":"경상남도","sigungu":"의령군","dong":"봉수면"},{"name":"포외마을 주차장","type":"공영","category":"노외","address":"경상남도 의령군 지정면 마산리 574","lat":35.37059637,"lng":128.413119,"totalSpaces":20,"isFree":true,"operatingDays":"평일+토요일+공휴일","weekdayOpen":"00:00","weekdayClose":"23:59","weekendOpen":"00:00","weekendClose":"23:59","holidayOpen":"00:00","holidayClose":"23:59","feeInfo":"무료","phone":"055-570-3640","updatedAt":"2025-06-04","sido":"경상남도","sigungu":"의령군","dong":"지정면"},{"name":"부림면 현동마을 주차장","type":"공영","category":"노외","address":"경상남도 의령군 부림면 신반리 565-19","lat":35.46894121,"lng":128.324336,"totalSpaces":19,"isFree":true,"operatingDays":"평일+토요일+공휴일","weekdayOpen":"00:00","weekdayClose":"23:59","weekendOpen":"00:00","weekendClose":"23:59","holidayOpen":"00:00","holidayClose":"23:59","feeInfo":"무료","phone":"055-570-3640","updatedAt":"2025-06-04","sido":"경상남도","sigungu":"의령군","dong":"부림면"},{"name":"서본주차장","type":"공영","category":"노외","address":"경상남도 의령군 의령읍 서동리 346-3","lat":35.32045275,"lng":128.2582019,"totalSpaces":19,"isFree":true,"operatingDays":"평일+토요일+공휴일","weekdayOpen":"00:00","weekdayClose":"23:59","weekendOpen":"00:00","weekendClose":"23:59","holidayOpen":"00:00","holidayClose":"23:59","feeInfo":"무료","phone":"055-570-3640","updatedAt":"2025-06-04","sido":"경상남도","sigungu":"의령군","dong":"의령읍"},{"name":"석정마을 주차장","type":"공영","category":"노외","address":"경상남도 의령군 궁류면 궁류로 124","lat":35.44754716,"lng":128.2489606,"totalSpaces":19,"isFree":true,"operatingDays":"평일+토요일+공휴일","weekdayOpen":"00:00","weekdayClose":"23:59","weekendOpen":"00:00","weekendClose":"23:59","holidayOpen":"00:00","holidayClose":"23:59","feeInfo":"무료","phone":"055-570-3640","updatedAt":"2025-06-04","sido":"경상남도","sigungu":"의령군","dong":"궁류면"},{"name":"의령초등학교 옆 주차장","type":"공영","category":"노상","address":"경상남도 의령군 의령읍 중동리 248-2","lat":35.32184614,"lng":128.2602657,"totalSpaces":18,"isFree":true,"operatingDays":"평일+토요일+공휴일","weekdayOpen":"00:00","weekdayClose":"23:59","weekendOpen":"00:00","weekendClose":"23:59","holidayOpen":"00:00","holidayClose":"23:59","feeInfo":"무료","phone":"055-570-3640","updatedAt":"2025-06-04","sido":"경상남도","sigungu":"의령군","dong":"의령읍"},{"name":"산남주차장","type":"공영","category":"노외","address":"경상남도 의령군 칠곡면 산남리 628-10","lat":35.349925,"lng":128.168907,"totalSpaces":18,"isFree":true,"operatingDays":"평일+토요일+공휴일","weekdayOpen":"00:00","weekdayClose":"23:59","weekendOpen":"00:00","weekendClose":"23:59","holidayOpen":"00:00","holidayClose":"23:59","feeInfo":"무료","phone":"055-570-3640","updatedAt":"2025-06-04","sido":"경상남도","sigungu":"의령군","dong":"칠곡면"},{"name":"성당마을 주차장","type":"공영","category":"노외","address":"경상남도 의령군 지정면 성당리 587","lat":35.36359137,"lng":128.3895125,"totalSpaces":18,"isFree":true,"operatingDays":"평일+토요일+공휴일","weekdayOpen":"00:00","weekdayClose":"23:59","weekendOpen":"00:00","weekendClose":"23:59","holidayOpen":"00:00","holidayClose":"23:59","feeInfo":"무료","phone":"055-570-3640","updatedAt":"2025-06-04","sido":"경상남도","sigungu":"의령군","dong":"지정면"},{"name":"정동마을 주차장","type":"공영","category":"노외","address":"경상남도 의령군 용덕면 정동리 282-1","lat":35.34439756,"lng":128.3020484,"totalSpaces":17,"isFree":true,"operatingDays":"평일+토요일+공휴일","weekdayOpen":"00:00","weekdayClose":"23:59","weekendOpen":"00:00","weekendClose":"23:59","holidayOpen":"00:00","holidayClose":"23:59","feeInfo":"무료","phone":"055-570-3640","updatedAt":"2025-06-04","sido":"경상남도","sigungu":"의령군","dong":"용덕면"},{"name":"미곡마을 주차장","type":"공영","category":"노외","address":"경상남도 의령군 용덕면 와요리 205","lat":35.34859474,"lng":128.268727,"totalSpaces":17,"isFree":true,"operatingDays":"평일+토요일+공휴일","weekdayOpen":"00:00","weekdayClose":"23:59","weekendOpen":"00:00","weekendClose":"23:59","holidayOpen":"00:00","holidayClose":"23:59","feeInfo":"무료","phone":"055-570-3640","updatedAt":"2025-06-04","sido":"경상남도","sigungu":"의령군","dong":"용덕면"},{"name":"동본 주차장","type":"공영","category":"노외","address":"경상남도 의령군 의령읍 백산로 7-1","lat":35.32070329,"lng":128.2645034,"totalSpaces":15,"isFree":true,"operatingDays":"평일+토요일+공휴일","weekdayOpen":"00:00","weekdayClose":"23:59","weekendOpen":"00:00","weekendClose":"23:59","holidayOpen":"00:00","holidayClose":"23:59","feeInfo":"무료","phone":"055-570-3640","updatedAt":"2025-06-04","sido":"경상남도","sigungu":"의령군","dong":"의령읍"},{"name":"행정마을 주차장","type":"공영","category":"노외","address":"경상남도 의령군 대의면 행정리 153-7","lat":35.38827114,"lng":128.1666157,"totalSpaces":15,"isFree":true,"operatingDays":"평일+토요일+공휴일","weekdayOpen":"00:00","weekdayClose":"23:59","weekendOpen":"00:00","weekendClose":"23:59","holidayOpen":"00:00","holidayClose":"23:59","feeInfo":"무료","phone":"055-570-3640","updatedAt":"2025-06-04","sido":"경상남도","sigungu":"의령군","dong":"대의면"},{"name":"방동마을 주차장","type":"공영","category":"노외","address":"경상남도 의령군 봉수면 청계리 634-7","lat":35.47499064,"lng":128.2218805,"totalSpaces":15,"isFree":true,"operatingDays":"평일+토요일+공휴일","weekdayOpen":"00:00","weekdayClose":"23:59","weekendOpen":"00:00","weekendClose":"23:59","holidayOpen":"00:00","holidayClose":"23:59","feeInfo":"무료","phone":"055-570-3640","updatedAt":"2025-06-04","sido":"경상남도","sigungu":"의령군","dong":"봉수면"},{"name":"평촌마을 주차장","type":"공영","category":"노외","address":"경상남도 의령군 가례면 운암리 200-27","lat":35.33384945,"lng":128.227201,"totalSpaces":15,"isFree":true,"operatingDays":"평일+토요일+공휴일","weekdayOpen":"00:00","weekdayClose":"23:59","weekendOpen":"00:00","weekendClose":"23:59","holidayOpen":"00:00","holidayClose":"23:59","feeInfo":"무료","phone":"055-570-3640","updatedAt":"2025-06-04","sido":"경상남도","sigungu":"의령군","dong":"가례면"},{"name":"의령향교-의령택시 주차장","type":"공영","category":"노상","address":"경상남도 의령군 의령읍 서동리 1022-16","lat":35.32161684,"lng":128.2580654,"totalSpaces":14,"isFree":true,"operatingDays":"평일+토요일+공휴일","weekdayOpen":"00:00","weekdayClose":"23:59","weekendOpen":"00:00","weekendClose":"23:59","holidayOpen":"00:00","holidayClose":"23:59","feeInfo":"무료","phone":"055-570-3640","updatedAt":"2025-06-04","sido":"경상남도","sigungu":"의령군","dong":"의령읍"},{"name":"상동마을 주차장","type":"공영","category":"노외","address":"경상남도 의령군 의령읍 중동리 171-1","lat":35.32256463,"lng":128.260226,"totalSpaces":14,"isFree":true,"operatingDays":"평일+토요일+공휴일","weekdayOpen":"00:00","weekdayClose":"23:59","weekendOpen":"00:00","weekendClose":"23:59","holidayOpen":"00:00","holidayClose":"23:59","feeInfo":"무료","phone":"055-570-3640","updatedAt":"2025-06-04","sido":"경상남도","sigungu":"의령군","dong":"의령읍"},{"name":"서부동 주차장","type":"공영","category":"노외","address":"경상남도 의령군 의령읍 서동리 452","lat":35.32000349,"lng":128.2597409,"totalSpaces":14,"isFree":true,"operatingDays":"평일+토요일+공휴일","weekdayOpen":"00:00","weekdayClose":"23:59","weekendOpen":"00:00","weekendClose":"23:59","holidayOpen":"00:00","holidayClose":"23:59","feeInfo":"무료","phone":"055-570-3640","updatedAt":"2025-06-04","sido":"경상남도","sigungu":"의령군","dong":"의령읍"},{"name":"죽전1구마을 주차장","type":"공영","category":"노외","address":"경상남도 의령군 봉수면 죽전리 456","lat":35.47241064,"lng":128.2715703,"totalSpaces":14,"isFree":true,"operatingDays":"평일+토요일+공휴일","weekdayOpen":"00:00","weekdayClose":"23:59","weekendOpen":"00:00","weekendClose":"23:59","holidayOpen":"00:00","holidayClose":"23:59","feeInfo":"무료","phone":"055-570-3640","updatedAt":"2025-06-04","sido":"경상남도","sigungu":"의령군","dong":"봉수면"},{"name":"자굴산슈퍼-수정식당 주차장","type":"공영","category":"노상","address":"경상남도 의령군 의령읍 중동리 271-1","lat":35.32178248,"lng":128.2626471,"totalSpaces":13,"isFree":true,"operatingDays":"평일+토요일+공휴일","weekdayOpen":"00:00","weekdayClose":"23:59","weekendOpen":"00:00","weekendClose":"23:59","holidayOpen":"00:00","holidayClose":"23:59","feeInfo":"무료","phone":"055-570-3640","updatedAt":"2025-06-04","sido":"경상남도","sigungu":"의령군","dong":"의령읍"},{"name":"2020년 2월 도시계획도로완성 후 이관된 주차장","type":"공영","category":"노외","address":"경상남도 의령군 의령읍 서동리 433","lat":35.32032681,"lng":128.260645,"totalSpaces":12,"isFree":true,"operatingDays":"평일+토요일+공휴일","weekdayOpen":"00:00","weekdayClose":"23:59","weekendOpen":"00:00","weekendClose":"23:59","holidayOpen":"00:00","holidayClose":"23:59","feeInfo":"무료","phone":"055-570-3640","updatedAt":"2025-06-04","sido":"경상남도","sigungu":"의령군","dong":"의령읍"},{"name":"신기마을 주차장","type":"공영","category":"노외","address":"경상남도 의령군 대의면 심지리 543-13","lat":35.35006521,"lng":128.1023529,"totalSpaces":12,"isFree":true,"operatingDays":"평일+토요일+공휴일","weekdayOpen":"00:00","weekdayClose":"23:59","weekendOpen":"00:00","weekendClose":"23:59","holidayOpen":"00:00","holidayClose":"23:59","feeInfo":"무료","phone":"055-570-3640","updatedAt":"2025-06-04","sido":"경상남도","sigungu":"의령군","dong":"대의면"},{"name":"신송산2구마을 주차장","type":"공영","category":"노외","address":"경상남도 의령군 유곡면 송산리 663","lat":35.42395163,"lng":128.2883273,"totalSpaces":12,"isFree":true,"operatingDays":"평일+토요일+공휴일","weekdayOpen":"00:00","weekdayClose":"23:59","weekendOpen":"00:00","weekendClose":"23:59","holidayOpen":"00:00","holidayClose":"23:59","feeInfo":"무료","phone":"055-570-3640","updatedAt":"2025-06-04","sido":"경상남도","sigungu":"의령군","dong":"유곡면"},{"name":"양성마을 주차장","type":"공영","category":"노외","address":"경상남도 의령군 가례면 양성리 415-1","lat":35.38893369,"lng":128.228989,"totalSpaces":12,"isFree":true,"operatingDays":"평일+토요일+공휴일","weekdayOpen":"00:00","weekdayClose":"23:59","weekendOpen":"00:00","weekendClose":"23:59","holidayOpen":"00:00","holidayClose":"23:59","feeInfo":"무료","phone":"055-570-3640","updatedAt":"2025-06-04","sido":"경상남도","sigungu":"의령군","dong":"가례면"},{"name":"죽전2구마을 주차장","type":"공영","category":"노외","address":"경상남도 의령군 봉수면 대한로 1235","lat":35.47027077,"lng":128.2706995,"totalSpaces":12,"isFree":true,"operatingDays":"평일+토요일+공휴일","weekdayOpen":"00:00","weekdayClose":"23:59","weekendOpen":"00:00","weekendClose":"23:59","holidayOpen":"00:00","holidayClose":"23:59","feeInfo":"무료","phone":"055-570-3640","updatedAt":"2025-06-04","sido":"경상남도","sigungu":"의령군","dong":"봉수면"},{"name":"신암(신정)마을 주차장","type":"공영","category":"노외","address":"경상남도 의령군 지정면 함의로10길 7","lat":35.40062928,"lng":128.3706676,"totalSpaces":12,"isFree":true,"operatingDays":"평일+토요일+공휴일","weekdayOpen":"00:00","weekdayClose":"23:59","weekendOpen":"00:00","weekendClose":"23:59","holidayOpen":"00:00","holidayClose":"23:59","feeInfo":"무료","phone":"055-570-3640","updatedAt":"2025-06-04","sido":"경상남도","sigungu":"의령군","dong":"지정면"},{"name":"백산마을 주차장","type":"공영","category":"노외","address":"경상남도 의령군 지정면 유곡리 410","lat":35.4318208,"lng":128.3777769,"totalSpaces":12,"isFree":true,"operatingDays":"평일+토요일+공휴일","weekdayOpen":"00:00","weekdayClose":"23:59","weekendOpen":"00:00","weekendClose":"23:59","holidayOpen":"00:00","holidayClose":"23:59","feeInfo":"무료","phone":"055-570-3640","updatedAt":"2025-06-04","sido":"경상남도","sigungu":"의령군","dong":"지정면"},{"name":"오천마을 주차장","type":"공영","category":"노외","address":"경상남도 의령군 지정면 기강로1길 86","lat":35.38761986,"lng":128.3962211,"totalSpaces":12,"isFree":true,"operatingDays":"평일+토요일+공휴일","weekdayOpen":"00:00","weekdayClose":"23:59","weekendOpen":"00:00","weekendClose":"23:59","holidayOpen":"00:00","holidayClose":"23:59","feeInfo":"무료","phone":"055-570-3640","updatedAt":"2025-06-04","sido":"경상남도","sigungu":"의령군","dong":"지정면"},{"name":"농업기술센타 진입로 주차장","type":"공영","category":"노상","address":"경상남도 의령군 의령읍 의병로9동길 30","lat":35.32224342,"lng":128.2568588,"totalSpaces":11,"isFree":true,"operatingDays":"평일+토요일+공휴일","weekdayOpen":"00:00","weekdayClose":"23:59","weekendOpen":"00:00","weekendClose":"23:59","holidayOpen":"00:00","holidayClose":"23:59","feeInfo":"무료","phone":"055-570-3640","updatedAt":"2025-06-04","sido":"경상남도","sigungu":"의령군","dong":"의령읍"},{"name":"서동농협-상동우수저류시설 주차장","type":"공영","category":"노상","address":"경상남도 의령군 의령읍 중동리 208-4","lat":35.32107792,"lng":128.2598913,"totalSpaces":11,"isFree":true,"operatingDays":"평일+토요일+공휴일","weekdayOpen":"00:00","weekdayClose":"23:59","weekendOpen":"00:00","weekendClose":"23:59","holidayOpen":"00:00","holidayClose":"23:59","feeInfo":"무료","phone":"055-570-3640","updatedAt":"2025-06-04","sido":"경상남도","sigungu":"의령군","dong":"의령읍"},{"name":"구성마을 주차장","type":"공영","category":"노외","address":"경상남도 의령군 대의면 마쌍리 451-5","lat":35.37234181,"lng":128.1068894,"totalSpaces":11,"isFree":true,"operatingDays":"평일+토요일+공휴일","weekdayOpen":"00:00","weekdayClose":"23:59","weekendOpen":"00:00","weekendClose":"23:59","holidayOpen":"00:00","holidayClose":"23:59","feeInfo":"무료","phone":"055-570-3640","updatedAt":"2025-06-04","sido":"경상남도","sigungu":"의령군","dong":"대의면"},{"name":"개승마을 주차장","type":"공영","category":"노외","address":"경상남도 의령군 가례면 가례로 677","lat":35.37604192,"lng":128.2324065,"totalSpaces":11,"isFree":true,"operatingDays":"평일+토요일+공휴일","weekdayOpen":"00:00","weekdayClose":"23:59","weekendOpen":"00:00","weekendClose":"23:59","holidayOpen":"00:00","holidayClose":"23:59","feeInfo":"무료","phone":"055-570-3640","updatedAt":"2025-06-04","sido":"경상남도","sigungu":"의령군","dong":"가례면"},{"name":"신기마을 주차장","type":"공영","category":"노외","address":"경상남도 의령군 궁류면 궁류로9길 23-1","lat":35.45639955,"lng":128.2539327,"totalSpaces":11,"isFree":true,"operatingDays":"평일+토요일+공휴일","weekdayOpen":"00:00","weekdayClose":"23:59","weekendOpen":"00:00","weekendClose":"23:59","holidayOpen":"00:00","holidayClose":"23:59","feeInfo":"무료","phone":"055-570-3640","updatedAt":"2025-06-04","sido":"경상남도","sigungu":"의령군","dong":"궁류면"},{"name":"나림마을 주차장","type":"공영","category":"노외","address":"경상남도 의령군 지정면 봉곡리 752-8","lat":35.38261859,"lng":128.3864981,"totalSpaces":10,"isFree":true,"operatingDays":"평일+토요일+공휴일","weekdayOpen":"00:00","weekdayClose":"23:59","weekendOpen":"00:00","weekendClose":"23:59","holidayOpen":"00:00","holidayClose":"23:59","feeInfo":"무료","phone":"055-570-3640","updatedAt":"2025-06-04","sido":"경상남도","sigungu":"의령군","dong":"지정면"},{"name":"독대마을 주차장","type":"공영","category":"노외","address":"경상남도 의령군 지정면 강변로6동길 52","lat":35.36573735,"lng":128.3837562,"totalSpaces":10,"isFree":true,"operatingDays":"평일+토요일+공휴일","weekdayOpen":"00:00","weekdayClose":"23:59","weekendOpen":"00:00","weekendClose":"23:59","holidayOpen":"00:00","holidayClose":"23:59","feeInfo":"무료","phone":"055-570-3640","updatedAt":"2025-06-04","sido":"경상남도","sigungu":"의령군","dong":"지정면"},{"name":"곡소마을 주차장","type":"공영","category":"노외","address":"경상남도 의령군 대의면 신전리 575","lat":35.38695892,"lng":128.1755663,"totalSpaces":10,"isFree":true,"operatingDays":"평일+토요일+공휴일","weekdayOpen":"00:00","weekdayClose":"23:59","weekendOpen":"00:00","weekendClose":"23:59","holidayOpen":"00:00","holidayClose":"23:59","feeInfo":"무료","phone":"055-570-3640","updatedAt":"2025-06-04","sido":"경상남도","sigungu":"의령군","dong":"대의면"},{"name":"죽전마을 주차장","type":"공영","category":"노외","address":"경상남도 의령군 대의면 다사리 486","lat":35.36592003,"lng":128.1342221,"totalSpaces":10,"isFree":true,"operatingDays":"평일+토요일+공휴일","weekdayOpen":"00:00","weekdayClose":"23:59","weekendOpen":"00:00","weekendClose":"23:59","holidayOpen":"00:00","holidayClose":"23:59","feeInfo":"무료","phone":"055-570-3640","updatedAt":"2025-06-04","sido":"경상남도","sigungu":"의령군","dong":"대의면"},{"name":"청계마을 추자장","type":"공영","category":"노외","address":"경상남도 의령군 봉수면 청계리 212-1","lat":35.4794366,"lng":128.2344695,"totalSpaces":10,"isFree":true,"operatingDays":"평일+토요일+공휴일","weekdayOpen":"00:00","weekdayClose":"23:59","weekendOpen":"00:00","weekendClose":"23:59","holidayOpen":"00:00","holidayClose":"23:59","feeInfo":"무료","phone":"055-570-3640","updatedAt":"2025-06-04","sido":"경상남도","sigungu":"의령군","dong":"봉수면"},{"name":"당지마을1 주차장","type":"공영","category":"노외","address":"경상남도 의령군 낙서면 여의리 84-4","lat":35.48413857,"lng":128.4116523,"totalSpaces":10,"isFree":true,"operatingDays":"평일+토요일+공휴일","weekdayOpen":"00:00","weekdayClose":"23:59","weekendOpen":"00:00","weekendClose":"23:59","holidayOpen":"00:00","holidayClose":"23:59","feeInfo":"무료","phone":"055-570-3640","updatedAt":"2025-06-04","sido":"경상남도","sigungu":"의령군","dong":"낙서면"},{"name":"웅곡마을 주차장","type":"공영","category":"노외","address":"경상남도 의령군 지정면 오천리 611","lat":35.38641942,"lng":128.4046532,"totalSpaces":10,"isFree":true,"operatingDays":"평일+토요일+공휴일","weekdayOpen":"00:00","weekdayClose":"23:59","weekendOpen":"00:00","weekendClose":"23:59","holidayOpen":"00:00","holidayClose":"23:59","feeInfo":"무료","phone":"055-570-3640","updatedAt":"2025-06-04","sido":"경상남도","sigungu":"의령군","dong":"지정면"},{"name":"심지 정자밖 주차장","type":"공영","category":"노외","address":"경상남도 의령군 대의면 심지리 429-15","lat":35.34122529,"lng":128.1127291,"totalSpaces":9,"isFree":true,"operatingDays":"평일+토요일+공휴일","weekdayOpen":"00:00","weekdayClose":"23:59","weekendOpen":"00:00","weekendClose":"23:59","holidayOpen":"00:00","holidayClose":"23:59","feeInfo":"무료","phone":"055-570-3640","updatedAt":"2025-06-04","sido":"경상남도","sigungu":"의령군","dong":"대의면"},{"name":"장내 부자한우촌 주차장","type":"공영","category":"노외","address":"경상남도 의령군 정곡면 중교리 420-8","lat":35.38034638,"lng":128.3251874,"totalSpaces":8,"isFree":true,"operatingDays":"평일+토요일+공휴일","weekdayOpen":"00:00","weekdayClose":"23:59","weekendOpen":"00:00","weekendClose":"23:59","holidayOpen":"00:00","holidayClose":"23:59","feeInfo":"무료","phone":"055-570-3640","updatedAt":"2025-06-04","sido":"경상남도","sigungu":"의령군","dong":"정곡면"},{"name":"방계마을 주차장","type":"공영","category":"노외","address":"경상남도 의령군 봉수면 청계리 1186","lat":35.47578782,"lng":128.2162751,"totalSpaces":8,"isFree":true,"operatingDays":"평일+토요일+공휴일","weekdayOpen":"00:00","weekdayClose":"23:59","weekendOpen":"00:00","weekendClose":"23:59","holidayOpen":"00:00","holidayClose":"23:59","feeInfo":"무료","phone":"055-570-3640","updatedAt":"2025-06-04","sido":"경상남도","sigungu":"의령군","dong":"봉수면"},{"name":"오암(오동골)마을 주차장","type":"공영","category":"노외","address":"경상남도 의령군 정곡면 정곡1길 118","lat":35.3697216,"lng":128.3002175,"totalSpaces":7,"isFree":true,"operatingDays":"평일+토요일+공휴일","weekdayOpen":"00:00","weekdayClose":"23:59","weekendOpen":"00:00","weekendClose":"23:59","holidayOpen":"00:00","holidayClose":"23:59","feeInfo":"무료","phone":"055-570-3640","updatedAt":"2025-06-04","sido":"경상남도","sigungu":"의령군","dong":"정곡면"},{"name":"백야마을 주차장","type":"공영","category":"노외","address":"경상남도 의령군 의령읍 남강로11길 25","lat":35.31270706,"lng":128.2875909,"totalSpaces":6,"isFree":true,"operatingDays":"평일+토요일+공휴일","weekdayOpen":"00:00","weekdayClose":"23:59","weekendOpen":"00:00","weekendClose":"23:59","holidayOpen":"00:00","holidayClose":"23:59","feeInfo":"무료","phone":"055-570-3640","updatedAt":"2025-06-04","sido":"경상남도","sigungu":"의령군","dong":"의령읍"},{"name":"신포주차장","type":"공영","category":"노외","address":"경상남도 의령군 칠곡면 신포리 340-4","lat":35.33640508,"lng":128.199042,"totalSpaces":5,"isFree":true,"operatingDays":"평일+토요일+공휴일","weekdayOpen":"00:00","weekdayClose":"23:59","weekendOpen":"00:00","weekendClose":"23:59","holidayOpen":"00:00","holidayClose":"23:59","feeInfo":"무료","phone":"055-570-3640","updatedAt":"2025-06-04","sido":"경상남도","sigungu":"의령군","dong":"칠곡면"},{"name":"서본 작은주차장2","type":"공영","category":"노외","address":"경상남도 의령군 의령읍 의병로17길 9","lat":35.32035244,"lng":128.2597547,"totalSpaces":4,"isFree":true,"operatingDays":"평일+토요일+공휴일","weekdayOpen":"00:00","weekdayClose":"23:59","weekendOpen":"00:00","weekendClose":"23:59","holidayOpen":"00:00","holidayClose":"23:59","feeInfo":"무료","phone":"055-570-3640","updatedAt":"2025-06-04","sido":"경상남도","sigungu":"의령군","dong":"의령읍"},{"name":"서본 작은주차장1","type":"공영","category":"노외","address":"경상남도 의령군 의령읍 서동리 470","lat":35.32006701,"lng":128.2587961,"totalSpaces":4,"isFree":true,"operatingDays":"평일+토요일+공휴일","weekdayOpen":"00:00","weekdayClose":"23:59","weekendOpen":"00:00","weekendClose":"23:59","holidayOpen":"00:00","holidayClose":"23:59","feeInfo":"무료","phone":"055-570-3640","updatedAt":"2025-06-04","sido":"경상남도","sigungu":"의령군","dong":"의령읍"},{"name":"상촌마을 주차장","type":"공영","category":"노외","address":"경상남도 의령군 유곡면 상촌리 73","lat":35.41757335,"lng":128.2755151,"totalSpaces":0,"isFree":true,"operatingDays":"평일+토요일+공휴일","weekdayOpen":"00:00","weekdayClose":"23:59","weekendOpen":"00:00","weekendClose":"23:59","holidayOpen":"00:00","holidayClose":"23:59","feeInfo":"무료","phone":"055-570-3640","updatedAt":"2025-06-04","sido":"경상남도","sigungu":"의령군","dong":"유곡면"}]}