{"sido":"경상남도","sigungu":"창원시","totalCount":71,"validCount":71,"items":[{"name":"창원종합버스터미널","type":"공영","category":"노외","address":"경상남도 창원시 의창구 팔용동 35-8","lat":35.23703312,"lng":128.6402811,"totalSpaces":507,"isFree":false,"operatingDays":"평일+토요일+공휴일","weekdayOpen":"00:00","weekdayClose":"23:59","weekendOpen":"00:00","weekendClose":"23:59","holidayOpen":"00:00","holidayClose":"23:59","feeInfo":"기본 30분 500원 / 추가 10분당 200원","phone":"070-4317-0137","updatedAt":"2025-12-18","sido":"경상남도","sigungu":"창원시","dong":""},{"name":"팔룡화물","type":"공영","category":"노외","address":"경상남도 창원시 의창구 팔용동 39-16","lat":35.24291452,"lng":128.6300768,"totalSpaces":445,"isFree":false,"operatingDays":"평일+토요일+공휴일","weekdayOpen":"00:00","weekdayClose":"23:59","weekendOpen":"00:00","weekendClose":"23:59","holidayOpen":"00:00","holidayClose":"23:59","feeInfo":"기본 30분 500원 / 추가 10분당 200원","phone":"070-4317-0137","updatedAt":"2025-12-18","sido":"경상남도","sigungu":"창원시","dong":""},{"name":"상남동 복합공영주차타워","type":"공영","category":"노외","address":"경상남도 창원시 성산구 상남동 76-2","lat":35.22215452,"lng":128.6808878,"totalSpaces":418,"isFree":false,"operatingDays":"평일+토요일+공휴일","weekdayOpen":"00:00","weekdayClose":"23:59","weekendOpen":"00:00","weekendClose":"23:59","holidayOpen":"00:00","holidayClose":"23:59","feeInfo":"기본 30분 500원 / 추가 10분당 200원","phone":"051-794-4296","updatedAt":"2025-12-18","sido":"경상남도","sigungu":"창원시","dong":""},{"name":"시민생활체육관 뒤","type":"공영","category":"노외","address":"경상남도 창원시 성산구 상남동 43-1","lat":35.22168283,"lng":128.687421,"totalSpaces":345,"isFree":false,"operatingDays":"평일+토요일+공휴일","weekdayOpen":"00:00","weekdayClose":"23:59","weekendOpen":"00:00","weekendClose":"23:59","holidayOpen":"00:00","holidayClose":"23:59","feeInfo":"기본 30분 500원 / 추가 10분당 200원","phone":"070-4317-0137","updatedAt":"2025-12-18","sido":"경상남도","sigungu":"창원시","dong":""},{"name":"용원동 복합공영주차타워","type":"공영","category":"노외","address":"경상남도 창원시 진해구 용원동 1219-1","lat":35.10025913,"lng":128.814341,"totalSpaces":276,"isFree":false,"operatingDays":"평일+토요일+공휴일","weekdayOpen":"00:00","weekdayClose":"23:59","weekendOpen":"00:00","weekendClose":"23:59","holidayOpen":"00:00","holidayClose":"23:59","feeInfo":"기본 30분 500원 / 추가 10분당 200원","phone":"051-794-4296","updatedAt":"2025-12-18","sido":"경상남도","sigungu":"창원시","dong":""},{"name":"사파복합","type":"공영","category":"노외","address":"경상남도 창원시 성산구 사파동 64-2","lat":35.22393667,"lng":128.7026932,"totalSpaces":244,"isFree":false,"operatingDays":"평일+토요일+공휴일","weekdayOpen":"00:00","weekdayClose":"23:59","weekendOpen":"00:00","weekendClose":"23:59","holidayOpen":"00:00","holidayClose":"23:59","feeInfo":"기본 30분 500원 / 추가 10분당 200원","phone":"070-4317-0137","updatedAt":"2025-12-18","sido":"경상남도","sigungu":"창원시","dong":""},{"name":"팔룡동 복합공영주차타워","type":"공영","category":"노외","address":"경상남도 창원시 의창구 팔용동 31-3","lat":35.23464702,"lng":128.642875,"totalSpaces":242,"isFree":false,"operatingDays":"평일+토요일+공휴일","weekdayOpen":"00:00","weekdayClose":"23:59","weekendOpen":"00:00","weekendClose":"23:59","holidayOpen":"00:00","holidayClose":"23:59","feeInfo":"기본 30분 500원 / 추가 10분당 200원","phone":"051-794-4296","updatedAt":"2025-12-18","sido":"경상남도","sigungu":"창원시","dong":""},{"name":"중앙 입체주차장","type":"공영","category":"노외","address":"경상남도 창원시 성산구 중앙동 4-8","lat":35.22883992,"lng":128.676822,"totalSpaces":193,"isFree":false,"operatingDays":"평일+토요일+공휴일","weekdayOpen":"00:00","weekdayClose":"23:59","weekendOpen":"00:00","weekendClose":"23:59","holidayOpen":"00:00","holidayClose":"23:59","feeInfo":"기본 30분 500원 / 추가 10분당 200원","phone":"070-4317-0137","updatedAt":"2025-12-18","sido":"경상남도","sigungu":"창원시","dong":""},{"name":"창원중앙역 주차장","type":"공영","category":"노외","address":"경상남도 창원시 의창구 사림동 167","lat":35.23956529,"lng":128.703214,"totalSpaces":185,"isFree":false,"operatingDays":"평일+토요일+공휴일","weekdayOpen":"00:00","weekdayClose":"23:59","weekendOpen":"00:00","weekendClose":"23:59","holidayOpen":"00:00","holidayClose":"23:59","feeInfo":"기본 30분 500원 / 추가 10분당 200원","phone":"055-212-4434","updatedAt":"2025-12-18","sido":"경상남도","sigungu":"창원시","dong":""},{"name":"대방 황토방앞","type":"공영","category":"노외","address":"경상남도 창원시 성산구 대방동 361-2","lat":35.2079495,"lng":128.7070011,"totalSpaces":181,"isFree":false,"operatingDays":"평일+토요일+공휴일","weekdayOpen":"00:00","weekdayClose":"23:59","weekendOpen":"00:00","weekendClose":"23:59","holidayOpen":"00:00","holidayClose":"23:59","feeInfo":"기본 30분 500원 / 추가 10분당 200원","phone":"070-4317-0137","updatedAt":"2025-12-18","sido":"경상남도","sigungu":"창원시","dong":""},{"name":"명동","type":"공영","category":"노외","address":"경상남도 창원시 진해구 명동 574-1","lat":35.10010297,"lng":128.717721,"totalSpaces":174,"isFree":false,"operatingDays":"평일+토요일+공휴일","weekdayOpen":"00:00","weekdayClose":"23:59","weekendOpen":"00:00","weekendClose":"23:59","holidayOpen":"00:00","holidayClose":"23:59","feeInfo":"기본 30분 500원 / 추가 10분당 200원","phone":"055-548-4436","updatedAt":"2025-12-18","sido":"경상남도","sigungu":"창원시","dong":""},{"name":"석동 복합공영주차타워","type":"공영","category":"노외","address":"경상남도 창원시 진해구 석동 140","lat":35.15274704,"lng":128.705155,"totalSpaces":141,"isFree":false,"operatingDays":"평일+토요일+공휴일","weekdayOpen":"00:00","weekdayClose":"23:59","weekendOpen":"00:00","weekendClose":"23:59","holidayOpen":"00:00","holidayClose":"23:59","feeInfo":"기본 30분 500원 / 추가 10분당 200원","phone":"051-794-4296","updatedAt":"2025-12-18","sido":"경상남도","sigungu":"창원시","dong":""},{"name":"마산역 공영주차장","type":"공영","category":"노상","address":"경상남도 창원시 마산회원구 석전동 267","lat":35.23368624,"lng":128.5788827,"totalSpaces":141,"isFree":false,"operatingDays":"평일+토요일+공휴일","weekdayOpen":"08:00","weekdayClose":"23:59","weekendOpen":"08:00","weekendClose":"23:59","holidayOpen":"08:00","holidayClose":"23:59","feeInfo":"기본 30분 500원 / 추가 10분당 200원","phone":"055-230-4445","updatedAt":"2025-12-18","sido":"경상남도","sigungu":"창원시","dong":""},{"name":"어린교","type":"공영","category":"노외","address":"경상남도 창원시 마산합포구 산호동 2","lat":35.22036586,"lng":128.587451,"totalSpaces":137,"isFree":false,"operatingDays":"평일+토요일+공휴일","weekdayOpen":"00:00","weekdayClose":"23:59","weekendOpen":"00:00","weekendClose":"23:59","holidayOpen":"00:00","holidayClose":"23:59","feeInfo":"기본 30분 500원 / 추가 10분당 200원","phone":"055-220-4436","updatedAt":"2025-12-18","sido":"경상남도","sigungu":"창원시","dong":""},{"name":"경남신문사지구 노상","type":"공영","category":"노상","address":"경상남도 창원시 성산구 신월동 100-5","lat":35.23145087,"lng":128.687549,"totalSpaces":128,"isFree":false,"operatingDays":"평일+토요일+공휴일","weekdayOpen":"08:00","weekdayClose":"23:59","weekendOpen":"08:00","weekendClose":"23:59","holidayOpen":"08:00","holidayClose":"23:59","feeInfo":"기본 30분 500원 / 추가 10분당 200원","phone":"070-4317-0137","updatedAt":"2025-12-18","sido":"경상남도","sigungu":"창원시","dong":""},{"name":"경남교육청지구 노상","type":"공영","category":"노상","address":"경상남도 창원시 성산구 용호동 6-1","lat":35.23422168,"lng":128.687828,"totalSpaces":117,"isFree":false,"operatingDays":"평일+토요일+공휴일","weekdayOpen":"08:00","weekdayClose":"23:59","weekendOpen":"08:00","weekendClose":"23:59","holidayOpen":"08:00","holidayClose":"23:59","feeInfo":"기본 30분 500원 / 추가 10분당 200원","phone":"070-4317-0137","updatedAt":"2025-12-18","sido":"경상남도","sigungu":"창원시","dong":""},{"name":"내서읍 중리 공영주차타워","type":"공영","category":"노외","address":"경상남도 창원시 마산회원구 내서읍 중리 1049-2","lat":35.24729946,"lng":128.508067,"totalSpaces":113,"isFree":false,"operatingDays":"평일+토요일+공휴일","weekdayOpen":"00:00","weekdayClose":"23:59","weekendOpen":"00:00","weekendClose":"23:59","holidayOpen":"00:00","holidayClose":"23:59","feeInfo":"기본 30분 300원 / 추가 10분당 100원","phone":"055-230-4445","updatedAt":"2025-12-18","sido":"경상남도","sigungu":"창원시","dong":""},{"name":"산호천 공영주차장","type":"공영","category":"노상","address":"경상남도 창원시 마산회원구 양덕동 36-2","lat":35.22804806,"lng":128.5847785,"totalSpaces":100,"isFree":false,"operatingDays":"평일+토요일+공휴일","weekdayOpen":"08:00","weekdayClose":"23:59","weekendOpen":"08:00","weekendClose":"23:59","holidayOpen":"08:00","holidayClose":"23:59","feeInfo":"기본 30분 500원 / 추가 10분당 200원","phone":"055-230-4445","updatedAt":"2025-12-18","sido":"경상남도","sigungu":"창원시","dong":""},{"name":"봉곡주차장","type":"공영","category":"노외","address":"경상남도 창원시 의창구 봉곡동 138-1","lat":35.24729518,"lng":128.6706944,"totalSpaces":97,"isFree":false,"operatingDays":"평일+토요일+공휴일","weekdayOpen":"00:00","weekdayClose":"23:59","weekendOpen":"00:00","weekendClose":"23:59","holidayOpen":"00:00","holidayClose":"23:59","feeInfo":"기본 30분 500원 / 추가 10분당 200원","phone":"070-4317-0137","updatedAt":"2025-12-18","sido":"경상남도","sigungu":"창원시","dong":""},{"name":"롯데메디컬 앞 노외","type":"공영","category":"노외","address":"경상남도 창원시 성산구 상남동 13-1","lat":35.22369129,"lng":128.6840569,"totalSpaces":97,"isFree":false,"operatingDays":"평일+토요일+공휴일","weekdayOpen":"00:00","weekdayClose":"23:59","weekendOpen":"00:00","weekendClose":"23:59","holidayOpen":"00:00","holidayClose":"23:59","feeInfo":"기본 30분 500원 / 추가 10분당 200원","phone":"070-4317-0137","updatedAt":"2025-12-18","sido":"경상남도","sigungu":"창원시","dong":""},{"name":"삼계공영유료주차장","type":"공영","category":"노외","address":"경상남도 창원시 마산회원구 내서읍 삼계리 26-1","lat":35.23325055,"lng":128.5035397,"totalSpaces":97,"isFree":false,"operatingDays":"평일+토요일+공휴일","weekdayOpen":"00:00","weekdayClose":"23:59","weekendOpen":"00:00","weekendClose":"23:59","holidayOpen":"00:00","holidayClose":"23:59","feeInfo":"기본 30분 300원 / 추가 10분당 100원","phone":"055-230-4445","updatedAt":"2025-12-18","sido":"경상남도","sigungu":"창원시","dong":""},{"name":"오동동1","type":"공영","category":"노외","address":"경상남도 창원시 마산합포구 오동동 88-3","lat":35.20905893,"lng":128.5782191,"totalSpaces":89,"isFree":false,"operatingDays":"평일+토요일+공휴일","weekdayOpen":"00:00","weekdayClose":"23:59","weekendOpen":"00:00","weekendClose":"23:59","holidayOpen":"00:00","holidayClose":"23:59","feeInfo":"기본 30분 500원 / 추가 10분당 200원","phone":"055-220-4436","updatedAt":"2025-12-18","sido":"경상남도","sigungu":"창원시","dong":""},{"name":"해안로 주차장","type":"공영","category":"노상","address":"경상남도 창원시 마산합포구 남성동 246-1","lat":35.20163119,"lng":128.576451,"totalSpaces":85,"isFree":false,"operatingDays":"평일+토요일+공휴일","weekdayOpen":"08:00","weekdayClose":"23:59","weekendOpen":"08:00","weekendClose":"23:59","holidayOpen":"08:00","holidayClose":"23:59","feeInfo":"기본 30분 500원 / 추가 10분당 200원","phone":"055-220-4436","updatedAt":"2025-12-18","sido":"경상남도","sigungu":"창원시","dong":""},{"name":"경창상가앞","type":"공영","category":"노외","address":"경상남도 창원시 성산구 상남동 74-5","lat":35.22067893,"lng":128.6784306,"totalSpaces":82,"isFree":false,"operatingDays":"평일+토요일+공휴일","weekdayOpen":"00:00","weekdayClose":"23:59","weekendOpen":"00:00","weekendClose":"23:59","holidayOpen":"00:00","holidayClose":"23:59","feeInfo":"기본 30분 500원 / 추가 10분당 200원","phone":"070-4317-0137","updatedAt":"2025-12-18","sido":"경상남도","sigungu":"창원시","dong":""},{"name":"용지호수 앞 노상","type":"공영","category":"노상","address":"경상남도 창원시 성산구 용호동 500-8","lat":35.23103951,"lng":128.6807104,"totalSpaces":77,"isFree":false,"operatingDays":"평일+토요일+공휴일","weekdayOpen":"08:00","weekdayClose":"23:59","weekendOpen":"08:00","weekendClose":"23:59","holidayOpen":"08:00","holidayClose":"23:59","feeInfo":"기본 30분 500원 / 추가 10분당 200원","phone":"070-4317-0137","updatedAt":"2025-12-18","sido":"경상남도","sigungu":"창원시","dong":""},{"name":"팔용주차장 노외","type":"공영","category":"노외","address":"경상남도 창원시 의창구 팔용동 165-5","lat":35.25919324,"lng":128.6114674,"totalSpaces":76,"isFree":false,"operatingDays":"평일+토요일+공휴일","weekdayOpen":"00:00","weekdayClose":"23:59","weekendOpen":"00:00","weekendClose":"23:59","holidayOpen":"00:00","holidayClose":"23:59","feeInfo":"기본 30분 500원 / 추가 10분당 200원","phone":"070-4317-0137","updatedAt":"2025-12-18","sido":"경상남도","sigungu":"창원시","dong":""},{"name":"창원보건소지구 노상","type":"공영","category":"노상","address":"경상남도 창원시 성산구 신월동 96-2","lat":35.22796796,"lng":128.685523,"totalSpaces":74,"isFree":false,"operatingDays":"평일+토요일+공휴일","weekdayOpen":"08:00","weekdayClose":"23:59","weekendOpen":"08:00","weekendClose":"23:59","holidayOpen":"08:00","holidayClose":"23:59","feeInfo":"기본 30분 500원 / 추가 10분당 200원","phone":"070-4317-0137","updatedAt":"2025-12-18","sido":"경상남도","sigungu":"창원시","dong":""},{"name":"용호기계식","type":"공영","category":"노외","address":"경상남도 창원시 성산구 용호동 73-13","lat":35.22968854,"lng":128.6798023,"totalSpaces":73,"isFree":false,"operatingDays":"평일+토요일+공휴일","weekdayOpen":"00:00","weekdayClose":"23:59","weekendOpen":"00:00","weekendClose":"23:59","holidayOpen":"00:00","holidayClose":"23:59","feeInfo":"기본 30분 500원 / 추가 10분당 200원","phone":"070-4317-0137","updatedAt":"2025-12-18","sido":"경상남도","sigungu":"창원시","dong":""},{"name":"양덕지구 우수저류시설 공영주차장","type":"공영","category":"노외","address":"경상남도 창원시 마산회원구 구암동 666-19","lat":35.24843969,"lng":128.58917,"totalSpaces":72,"isFree":false,"operatingDays":"평일+토요일+공휴일","weekdayOpen":"00:00","weekdayClose":"23:59","weekendOpen":"00:00","weekendClose":"23:59","holidayOpen":"00:00","holidayClose":"23:59","feeInfo":"기본 30분 500원 / 추가 10분당 200원","phone":"055-230-4445","updatedAt":"2025-12-18","sido":"경상남도","sigungu":"창원시","dong":""},{"name":"회성 유료공영주차장","type":"공영","category":"노외","address":"경상남도 창원시 마산회원구 회성동 223","lat":35.23439727,"lng":128.556299,"totalSpaces":67,"isFree":false,"operatingDays":"평일+토요일+공휴일","weekdayOpen":"00:00","weekdayClose":"23:59","weekendOpen":"00:00","weekendClose":"23:59","holidayOpen":"00:00","holidayClose":"23:59","feeInfo":"기본 30분 500원 / 추가 10분당 200원","phone":"055-230-4445","updatedAt":"2025-12-18","sido":"경상남도","sigungu":"창원시","dong":""},{"name":"창원공고 뒤","type":"공영","category":"노외","address":"경상남도 창원시 의창구 팔용동 33-6","lat":35.23630741,"lng":128.6432862,"totalSpaces":58,"isFree":false,"operatingDays":"평일+토요일+공휴일","weekdayOpen":"00:00","weekdayClose":"23:59","weekendOpen":"00:00","weekendClose":"23:59","holidayOpen":"00:00","holidayClose":"23:59","feeInfo":"기본 30분 500원 / 추가 10분당 200원","phone":"055-212-4434","updatedAt":"2025-12-18","sido":"경상남도","sigungu":"창원시","dong":""},{"name":"합포동","type":"공영","category":"노외","address":"경상남도 창원시 마산합포구 산호동 338-22","lat":35.208948,"lng":128.5831715,"totalSpaces":57,"isFree":false,"operatingDays":"평일+토요일+공휴일","weekdayOpen":"00:00","weekdayClose":"23:59","weekendOpen":"00:00","weekendClose":"23:59","holidayOpen":"00:00","holidayClose":"23:59","feeInfo":"기본 30분 500원 / 추가 10분당 200원","phone":"055-220-4436","updatedAt":"2025-12-18","sido":"경상남도","sigungu":"창원시","dong":""},{"name":"시청뒷길 노상","type":"공영","category":"노상","address":"경상남도 창원시 성산구 용호동 500-6","lat":35.22794544,"lng":128.6833319,"totalSpaces":55,"isFree":false,"operatingDays":"평일+토요일+공휴일","weekdayOpen":"08:00","weekdayClose":"23:59","weekendOpen":"08:00","weekendClose":"23:59","holidayOpen":"08:00","holidayClose":"23:59","feeInfo":"기본 30분 500원 / 추가 10분당 200원","phone":"070-4317-0137","updatedAt":"2025-12-18","sido":"경상남도","sigungu":"창원시","dong":""},{"name":"상남 제1노외","type":"공영","category":"노외","address":"경상남도 창원시 성산구 상남동 38-2","lat":35.21880875,"lng":128.681855,"totalSpaces":55,"isFree":false,"operatingDays":"평일+토요일+공휴일","weekdayOpen":"00:00","weekdayClose":"23:59","weekendOpen":"00:00","weekendClose":"23:59","holidayOpen":"00:00","holidayClose":"23:59","feeInfo":"기본 30분 500원 / 추가 10분당 200원","phone":"070-4317-0137","updatedAt":"2025-12-18","sido":"경상남도","sigungu":"창원시","dong":""},{"name":"오동동2","type":"공영","category":"노외","address":"경상남도 창원시 마산합포구 오동동 60-27","lat":35.20937161,"lng":128.5789888,"totalSpaces":54,"isFree":false,"operatingDays":"평일+토요일+공휴일","weekdayOpen":"00:00","weekdayClose":"23:59","weekendOpen":"00:00","weekendClose":"23:59","holidayOpen":"00:00","holidayClose":"23:59","feeInfo":"기본 30분 500원 / 추가 10분당 200원","phone":"055-220-4436","updatedAt":"2025-12-18","sido":"경상남도","sigungu":"창원시","dong":""},{"name":"장군동 주차장","type":"공영","category":"노상","address":"경상남도 창원시 마산합포구 중앙동3가 3-8","lat":35.19708842,"lng":128.5663771,"totalSpaces":47,"isFree":false,"operatingDays":"평일+토요일+공휴일","weekdayOpen":"08:00","weekdayClose":"23:59","weekendOpen":"08:00","weekendClose":"23:59","holidayOpen":"08:00","holidayClose":"23:59","feeInfo":"기본 30분 500원 / 추가 10분당 200원","phone":"055-220-4436","updatedAt":"2025-12-18","sido":"경상남도","sigungu":"창원시","dong":""},{"name":"내동파출소 옆 노외","type":"공영","category":"노외","address":"경상남도 창원시 성산구 내동 456-22","lat":35.21781642,"lng":128.669381,"totalSpaces":44,"isFree":false,"operatingDays":"평일+토요일+공휴일","weekdayOpen":"00:00","weekdayClose":"23:59","weekendOpen":"00:00","weekendClose":"23:59","holidayOpen":"00:00","holidayClose":"23:59","feeInfo":"기본 30분 500원 / 추가 10분당 200원","phone":"070-4317-0137","updatedAt":"2025-12-18","sido":"경상남도","sigungu":"창원시","dong":""},{"name":"내서 화물공영주차장","type":"공영","category":"노외","address":"경상남도 창원시 마산회원구 내서읍 호계리 790-256","lat":35.25795935,"lng":128.518584,"totalSpaces":44,"isFree":false,"operatingDays":"평일+토요일+공휴일","weekdayOpen":"00:00","weekdayClose":"23:59","weekendOpen":"00:00","weekendClose":"23:59","holidayOpen":"00:00","holidayClose":"23:59","feeInfo":"기본 30분 300원 / 추가 10분당 100원","phone":"055-230-4445","updatedAt":"2025-12-18","sido":"경상남도","sigungu":"창원시","dong":""},{"name":"도계초등 노상","type":"공영","category":"노상","address":"경상남도 창원시 의창구 도계동 438","lat":35.261187,"lng":128.6396987,"totalSpaces":43,"isFree":false,"operatingDays":"평일+토요일+공휴일","weekdayOpen":"08:00","weekdayClose":"23:59","weekendOpen":"08:00","weekendClose":"23:59","holidayOpen":"08:00","holidayClose":"23:59","feeInfo":"기본 30분 500원 / 추가 10분당 200원","phone":"070-4317-0137","updatedAt":"2025-12-18","sido":"경상남도","sigungu":"창원시","dong":""},{"name":"성주사역 노상","type":"공영","category":"노상","address":"경상남도 창원시 성산구 성주동 521","lat":35.18881379,"lng":128.6932528,"totalSpaces":42,"isFree":false,"operatingDays":"평일+토요일+공휴일","weekdayOpen":"08:00","weekdayClose":"23:59","weekendOpen":"08:00","weekendClose":"23:59","holidayOpen":"08:00","holidayClose":"23:59","feeInfo":"기본 30분 500원 / 추가 10분당 200원","phone":"070-4317-0137","updatedAt":"2025-12-18","sido":"경상남도","sigungu":"창원시","dong":""},{"name":"충무동","type":"공영","category":"노외","address":"경상남도 창원시 진해구 인사동 2-1","lat":35.14967775,"lng":128.666485,"totalSpaces":41,"isFree":false,"operatingDays":"평일+토요일+공휴일","weekdayOpen":"00:00","weekdayClose":"23:59","weekendOpen":"00:00","weekendClose":"23:59","holidayOpen":"00:00","holidayClose":"23:59","feeInfo":"기본 30분 500원 / 추가 10분당 200원","phone":"055-548-4436","updatedAt":"2025-12-18","sido":"경상남도","sigungu":"창원시","dong":""},{"name":"경남은행 명곡지점 노상","type":"공영","category":"노상","address":"경상남도 창원시 의창구 봉곡동 502-41","lat":35.24318367,"lng":128.6496194,"totalSpaces":41,"isFree":false,"operatingDays":"평일+토요일+공휴일","weekdayOpen":"08:00","weekdayClose":"23:59","weekendOpen":"08:00","weekendClose":"23:59","holidayOpen":"08:00","holidayClose":"23:59","feeInfo":"기본 30분 500원 / 추가 10분당 200원","phone":"070-4317-0137","updatedAt":"2025-12-18","sido":"경상남도","sigungu":"창원시","dong":""},{"name":"신한하나은행 노상","type":"공영","category":"노상","address":"경상남도 창원시 성산구 상남동 501-4","lat":35.21849564,"lng":128.67707,"totalSpaces":38,"isFree":false,"operatingDays":"평일+토요일+공휴일","weekdayOpen":"08:00","weekdayClose":"23:59","weekendOpen":"08:00","weekendClose":"23:59","holidayOpen":"08:00","holidayClose":"23:59","feeInfo":"기본 30분 500원 / 추가 10분당 200원","phone":"070-4317-0137","updatedAt":"2025-12-18","sido":"경상남도","sigungu":"창원시","dong":""},{"name":"정우 노상","type":"공영","category":"노상","address":"경상남도 창원시 성산구 용호동 73","lat":35.22932857,"lng":128.6808025,"totalSpaces":38,"isFree":false,"operatingDays":"평일+토요일+공휴일","weekdayOpen":"08:00","weekdayClose":"23:59","weekendOpen":"08:00","weekendClose":"23:59","holidayOpen":"08:00","holidayClose":"23:59","feeInfo":"기본 30분 500원 / 추가 10분당 200원","phone":"070-4317-0137","updatedAt":"2025-12-18","sido":"경상남도","sigungu":"창원시","dong":""},{"name":"한마음 노상","type":"공영","category":"노상","address":"경상남도 창원시 성산구 용호동 73","lat":35.22932857,"lng":128.6808025,"totalSpaces":37,"isFree":false,"operatingDays":"평일+토요일+공휴일","weekdayOpen":"08:00","weekdayClose":"23:59","weekendOpen":"08:00","weekendClose":"23:59","holidayOpen":"08:00","holidayClose":"23:59","feeInfo":"기본 30분 500원 / 추가 10분당 200원","phone":"070-4317-0137","updatedAt":"2025-12-18","sido":"경상남도","sigungu":"창원시","dong":""},{"name":"상남 제2 노외","type":"공영","category":"노외","address":"경상남도 창원시 성산구 상남동 30-2","lat":35.21935126,"lng":128.6805329,"totalSpaces":36,"isFree":false,"operatingDays":"평일+토요일+공휴일","weekdayOpen":"00:00","weekdayClose":"23:59","weekendOpen":"00:00","weekendClose":"23:59","holidayOpen":"00:00","holidayClose":"23:59","feeInfo":"기본 30분 500원 / 추가 10분당 200원","phone":"070-4317-0137","updatedAt":"2025-12-18","sido":"경상남도","sigungu":"창원시","dong":""},{"name":"팔용파출소옆 노외","type":"공영","category":"노외","address":"경상남도 창원시 의창구 팔용동 33-2","lat":35.23635893,"lng":128.643152,"totalSpaces":34,"isFree":false,"operatingDays":"평일+토요일+공휴일","weekdayOpen":"00:00","weekdayClose":"23:59","weekendOpen":"00:00","weekendClose":"23:59","holidayOpen":"00:00","holidayClose":"23:59","feeInfo":"기본 30분 500원 / 추가 10분당 200원","phone":"070-4317-0137","updatedAt":"2025-12-18","sido":"경상남도","sigungu":"창원시","dong":""},{"name":"자산동","type":"공영","category":"노외","address":"경상남도 창원시 마산합포구 자산동 20","lat":35.20527992,"lng":128.5651002,"totalSpaces":34,"isFree":false,"operatingDays":"평일+토요일+공휴일","weekdayOpen":"00:00","weekdayClose":"23:59","weekendOpen":"00:00","weekendClose":"23:59","holidayOpen":"00:00","holidayClose":"23:59","feeInfo":"기본 30분 500원 / 추가 10분당 200원","phone":"055-220-4436","updatedAt":"2025-12-18","sido":"경상남도","sigungu":"창원시","dong":""},{"name":"명서상업지구 노외","type":"공영","category":"노외","address":"경상남도 창원시 의창구 명서동 200-3","lat":35.24202052,"lng":128.649623,"totalSpaces":32,"isFree":false,"operatingDays":"평일+토요일+공휴일","weekdayOpen":"00:00","weekdayClose":"23:59","weekendOpen":"00:00","weekendClose":"23:59","holidayOpen":"00:00","holidayClose":"23:59","feeInfo":"기본 30분 500원 / 추가 10분당 200원","phone":"070-4317-0137","updatedAt":"2025-12-18","sido":"경상남도","sigungu":"창원시","dong":""},{"name":"중성동1","type":"공영","category":"노외","address":"경상남도 창원시 마산합포구 중성동 171-1","lat":35.21002686,"lng":128.574293,"totalSpaces":31,"isFree":false,"operatingDays":"평일+토요일+공휴일","weekdayOpen":"00:00","weekdayClose":"23:59","weekendOpen":"00:00","weekendClose":"23:59","holidayOpen":"00:00","holidayClose":"23:59","feeInfo":"기본 30분 500원 / 추가 10분당 200원","phone":"055-220-4436","updatedAt":"2025-12-18","sido":"경상남도","sigungu":"창원시","dong":""},{"name":"청금길 노상","type":"공영","category":"노상","address":"경상남도 창원시 성산구 반림동 501-3","lat":35.23513501,"lng":128.670086,"totalSpaces":30,"isFree":false,"operatingDays":"평일+토요일+공휴일","weekdayOpen":"08:00","weekdayClose":"23:59","weekendOpen":"08:00","weekendClose":"23:59","holidayOpen":"08:00","holidayClose":"23:59","feeInfo":"기본 30분 500원 / 추가 10분당 200원","phone":"070-4317-0137","updatedAt":"2025-12-18","sido":"경상남도","sigungu":"창원시","dong":""},{"name":"한서병원 앞 노상","type":"공영","category":"노상","address":"경상남도 창원시 성산구 중앙동 517-3","lat":35.22759428,"lng":128.679439,"totalSpaces":30,"isFree":false,"operatingDays":"평일+토요일+공휴일","weekdayOpen":"08:00","weekdayClose":"23:59","weekendOpen":"08:00","weekendClose":"23:59","holidayOpen":"08:00","holidayClose":"23:59","feeInfo":"기본 30분 500원 / 추가 10분당 200원","phone":"070-4317-0137","updatedAt":"2025-12-18","sido":"경상남도","sigungu":"창원시","dong":""},{"name":"회원동 공영유료주차장","type":"공영","category":"노외","address":"경상남도 창원시 마산회원구 회원동 30-60","lat":35.22048777,"lng":128.5711874,"totalSpaces":30,"isFree":false,"operatingDays":"평일+토요일+공휴일","weekdayOpen":"00:00","weekdayClose":"23:59","weekendOpen":"00:00","weekendClose":"23:59","holidayOpen":"00:00","holidayClose":"23:59","feeInfo":"기본 30분 500원 / 추가 10분당 200원","phone":"055-230-4445","updatedAt":"2025-12-18","sido":"경상남도","sigungu":"창원시","dong":""},{"name":"부림동","type":"공영","category":"노외","address":"경상남도 창원시 마산합포구 부림동 106-81","lat":35.20411943,"lng":128.5707106,"totalSpaces":30,"isFree":false,"operatingDays":"평일+토요일+공휴일","weekdayOpen":"00:00","weekdayClose":"23:59","weekendOpen":"00:00","weekendClose":"23:59","holidayOpen":"00:00","holidayClose":"23:59","feeInfo":"기본 30분 500원 / 추가 10분당 200원","phone":"055-220-4436","updatedAt":"2025-12-18","sido":"경상남도","sigungu":"창원시","dong":""},{"name":"삼원회관 노외","type":"공영","category":"노외","address":"경상남도 창원시 성산구 상남동 12-2","lat":35.2228778,"lng":128.685714,"totalSpaces":29,"isFree":false,"operatingDays":"평일+토요일+공휴일","weekdayOpen":"00:00","weekdayClose":"23:59","weekendOpen":"00:00","weekendClose":"23:59","holidayOpen":"00:00","holidayClose":"23:59","feeInfo":"기본 30분 500원 / 추가 10분당 200원","phone":"070-4317-0137","updatedAt":"2025-12-18","sido":"경상남도","sigungu":"창원시","dong":""},{"name":"도계시장 공영주차장","type":"공영","category":"노외","address":"경상남도 창원시 의창구 도계동 350-4","lat":35.25796192,"lng":128.636593,"totalSpaces":27,"isFree":false,"operatingDays":"평일+토요일+공휴일","weekdayOpen":"00:00","weekdayClose":"23:59","weekendOpen":"00:00","weekendClose":"23:59","holidayOpen":"00:00","holidayClose":"23:59","feeInfo":"기본 30분 500원 / 추가 10분당 200원","phone":"055-212-4434","updatedAt":"2025-12-18","sido":"경상남도","sigungu":"창원시","dong":""},{"name":"마산보건소 앞","type":"공영","category":"노상","address":"경상남도 창원시 마산합포구 해운동 70","lat":35.1826414,"lng":128.5643668,"totalSpaces":26,"isFree":false,"operatingDays":"평일+토요일+공휴일","weekdayOpen":"08:00","weekdayClose":"23:59","weekendOpen":"08:00","weekendClose":"23:59","holidayOpen":"08:00","holidayClose":"23:59","feeInfo":"기본 30분 500원 / 추가 10분당 200원","phone":"055-220-4436","updatedAt":"2025-12-18","sido":"경상남도","sigungu":"창원시","dong":""},{"name":"구암2동 공영유료주차장","type":"공영","category":"노외","address":"경상남도 창원시 마산회원구 구암동 24-1","lat":35.24523291,"lng":128.5903117,"totalSpaces":25,"isFree":false,"operatingDays":"평일+토요일+공휴일","weekdayOpen":"00:00","weekdayClose":"23:59","weekendOpen":"00:00","weekendClose":"23:59","holidayOpen":"00:00","holidayClose":"23:59","feeInfo":"기본 30분 500원 / 추가 10분당 200원","phone":"055-230-4445","updatedAt":"2025-12-18","sido":"경상남도","sigungu":"창원시","dong":""},{"name":"석전동 공영유료주차장","type":"공영","category":"노외","address":"경상남도 창원시 마산회원구 석전동 248-20","lat":35.23096196,"lng":128.575559,"totalSpaces":25,"isFree":false,"operatingDays":"평일+토요일+공휴일","weekdayOpen":"00:00","weekdayClose":"23:59","weekendOpen":"00:00","weekendClose":"23:59","holidayOpen":"00:00","holidayClose":"23:59","feeInfo":"기본 30분 500원 / 추가 10분당 200원","phone":"055-230-4445","updatedAt":"2025-12-18","sido":"경상남도","sigungu":"창원시","dong":""},{"name":"중앙로","type":"공영","category":"노외","address":"경상남도 창원시 진해구 여좌동 761-44","lat":35.15275821,"lng":128.662349,"totalSpaces":25,"isFree":false,"operatingDays":"평일+토요일+공휴일","weekdayOpen":"00:00","weekdayClose":"23:59","weekendOpen":"00:00","weekendClose":"23:59","holidayOpen":"00:00","holidayClose":"23:59","feeInfo":"기본 30분 500원 / 추가 10분당 200원","phone":"055-548-4436","updatedAt":"2025-12-18","sido":"경상남도","sigungu":"창원시","dong":""},{"name":"중앙삼각지","type":"공영","category":"노외","address":"경상남도 창원시 성산구 중앙동 72-1","lat":35.22834248,"lng":128.6767084,"totalSpaces":23,"isFree":false,"operatingDays":"평일+토요일+공휴일","weekdayOpen":"00:00","weekdayClose":"23:59","weekendOpen":"00:00","weekendClose":"23:59","holidayOpen":"00:00","holidayClose":"23:59","feeInfo":"기본 30분 500원 / 추가 10분당 200원","phone":"070-4317-0137","updatedAt":"2025-12-18","sido":"경상남도","sigungu":"창원시","dong":""},{"name":"명동 노외","type":"공영","category":"노외","address":"경상남도 창원시 성산구 용호동 73-57","lat":35.22939072,"lng":128.6796072,"totalSpaces":21,"isFree":false,"operatingDays":"평일+토요일+공휴일","weekdayOpen":"00:00","weekdayClose":"23:59","weekendOpen":"00:00","weekendClose":"23:59","holidayOpen":"00:00","holidayClose":"23:59","feeInfo":"기본 30분 500원 / 추가 10분당 200원","phone":"070-4317-0137","updatedAt":"2025-12-18","sido":"경상남도","sigungu":"창원시","dong":""},{"name":"내동상가 옆 노상","type":"공영","category":"노상","address":"경상남도 창원시 성산구 내동 456-2","lat":35.21757802,"lng":128.6695201,"totalSpaces":18,"isFree":false,"operatingDays":"평일+토요일+공휴일","weekdayOpen":"08:00","weekdayClose":"23:59","weekendOpen":"08:00","weekendClose":"23:59","holidayOpen":"08:00","holidayClose":"23:59","feeInfo":"기본 30분 500원 / 추가 10분당 200원","phone":"070-4317-0137","updatedAt":"2025-12-18","sido":"경상남도","sigungu":"창원시","dong":""},{"name":"용지호수 파리바게트 앞 노상","type":"공영","category":"노상","address":"경상남도 창원시 성산구 용호동 500-8","lat":35.23103951,"lng":128.6807104,"totalSpaces":18,"isFree":false,"operatingDays":"평일+토요일+공휴일","weekdayOpen":"08:00","weekdayClose":"23:59","weekendOpen":"08:00","weekendClose":"23:59","holidayOpen":"08:00","holidayClose":"23:59","feeInfo":"기본 30분 500원 / 추가 10분당 200원","phone":"070-4317-0137","updatedAt":"2025-12-18","sido":"경상남도","sigungu":"창원시","dong":""},{"name":"회산교","type":"공영","category":"노외","address":"경상남도 창원시 마산합포구 상남동 317-1","lat":35.216395,"lng":128.5705685,"totalSpaces":18,"isFree":false,"operatingDays":"평일+토요일+공휴일","weekdayOpen":"00:00","weekdayClose":"23:59","weekendOpen":"00:00","weekendClose":"23:59","holidayOpen":"00:00","holidayClose":"23:59","feeInfo":"기본 30분 500원 / 추가 10분당 200원","phone":"055-220-4436","updatedAt":"2025-12-18","sido":"경상남도","sigungu":"창원시","dong":""},{"name":"도계시장 노상","type":"공영","category":"노외","address":"경상남도 창원시 의창구 도계동 438","lat":35.261126,"lng":128.6396987,"totalSpaces":17,"isFree":false,"operatingDays":"평일+토요일+공휴일","weekdayOpen":"00:00","weekdayClose":"23:59","weekendOpen":"00:00","weekendClose":"23:59","holidayOpen":"00:00","holidayClose":"23:59","feeInfo":"기본 30분 500원 / 추가 10분당 200원","phone":"070-4317-0137","updatedAt":"2025-12-18","sido":"경상남도","sigungu":"창원시","dong":""},{"name":"중성동2","type":"공영","category":"노외","address":"경상남도 창원시 마산합포구 중성동 62-15","lat":35.20917384,"lng":128.576078,"totalSpaces":15,"isFree":false,"operatingDays":"평일+토요일+공휴일","weekdayOpen":"00:00","weekdayClose":"23:59","weekendOpen":"00:00","weekendClose":"23:59","holidayOpen":"00:00","holidayClose":"23:59","feeInfo":"기본 30분 500원 / 추가 10분당 200원","phone":"055-220-4436","updatedAt":"2025-12-18","sido":"경상남도","sigungu":"창원시","dong":""},{"name":"서상1지구","type":"공영","category":"노외","address":"경상남도 창원시 의창구 팔용동 160-1","lat":35.25656698,"lng":128.6089642,"totalSpaces":13,"isFree":false,"operatingDays":"평일+토요일+공휴일","weekdayOpen":"00:00","weekdayClose":"23:59","weekendOpen":"00:00","weekendClose":"23:59","holidayOpen":"00:00","holidayClose":"23:59","feeInfo":"기본 30분 500원 / 추가 10분당 200원","phone":"055-212-4434","updatedAt":"2025-12-18","sido":"경상남도","sigungu":"창원시","dong":""},{"name":"서상2지구","type":"공영","category":"노외","address":"경상남도 창원시 의창구 팔용동 151-2","lat":35.25539928,"lng":128.607405,"totalSpaces":11,"isFree":false,"operatingDays":"평일+토요일+공휴일","weekdayOpen":"00:00","weekdayClose":"23:59","weekendOpen":"00:00","weekendClose":"23:59","holidayOpen":"00:00","holidayClose":"23:59","feeInfo":"기본 30분 500원 / 추가 10분당 200원","phone":"055-212-4434","updatedAt":"2025-12-18","sido":"경상남도","sigungu":"창원시","dong":""},{"name":"시청 옆 공영주차장(고운치과 옆)","type":"공영","category":"노외","address":"경상남도 창원시 성산구 용호동 73-41","lat":35.22842105,"lng":128.680598,"totalSpaces":9,"isFree":false,"operatingDays":"평일+토요일+공휴일","weekdayOpen":"00:00","weekdayClose":"23:59","weekendOpen":"00:00","weekendClose":"23:59","holidayOpen":"00:00","holidayClose":"23:59","feeInfo":"기본 30분 500원 / 추가 10분당 200원","phone":"055-272-4437","updatedAt":"2025-12-18","sido":"경상남도","sigungu":"창원시","dong":""},{"name":"한성 노상","type":"공영","category":"노상","address":"경상남도 창원시 성산구 용호동 73","lat":35.22932857,"lng":128.6808025,"totalSpaces":8,"isFree":false,"operatingDays":"평일+토요일+공휴일","weekdayOpen":"08:00","weekdayClose":"23:59","weekendOpen":"08:00","weekendClose":"23:59","holidayOpen":"08:00","holidayClose":"23:59","feeInfo":"기본 30분 500원 / 추가 10분당 200원","phone":"070-4317-0137","updatedAt":"2025-12-18","sido":"경상남도","sigungu":"창원시","dong":""}]}