{"sido":"전라북도","sigungu":"고창군","totalCount":37,"validCount":37,"items":[{"name":"선운산도립공원주차장","type":"공영","category":"노외","address":"전라북도 고창군 아산면 삼인리 126","lat":35.5037326,"lng":126.5875773,"totalSpaces":1500,"isFree":true,"operatingDays":"평일+토요일+공휴일","weekdayOpen":"00:00","weekdayClose":"23:59","weekendOpen":"00:00","weekendClose":"23:59","holidayOpen":"00:00","holidayClose":"23:59","feeInfo":"무료","phone":"063-560-2571","updatedAt":"2023-08-08","sido":"전라북도","sigungu":"고창군","dong":"아산면"},{"name":"고창읍 공영주차타워","type":"공영","category":"노외","address":"전라북도 고창군 고창읍 읍내리 198-4","lat":35.4354761039,"lng":126.7008728,"totalSpaces":258,"isFree":true,"operatingDays":"평일+토요일+공휴일","weekdayOpen":"00:00","weekdayClose":"23:59","weekendOpen":"00:00","weekendClose":"23:59","holidayOpen":"00:00","holidayClose":"23:59","feeInfo":"무료","phone":"063-560-2571","updatedAt":"2023-08-08","sido":"전라북도","sigungu":"고창군","dong":"고창읍"},{"name":"고창읍성","type":"공영","category":"노외","address":"전라북도 고창군 고창읍 동리로 117","lat":35.4329159615,"lng":126.7052478356,"totalSpaces":158,"isFree":true,"operatingDays":"평일+토요일+공휴일","weekdayOpen":"00:00","weekdayClose":"23:59","weekendOpen":"00:00","weekendClose":"23:59","holidayOpen":"00:00","holidayClose":"23:59","feeInfo":"무료","phone":"063-560-2571","updatedAt":"2023-08-08","sido":"전라북도","sigungu":"고창군","dong":"고창읍"},{"name":"군산아구찜","type":"공영","category":"노외","address":"전라북도 고창군 고창읍 성산2길 41","lat":35.4360132103,"lng":126.7002566848,"totalSpaces":120,"isFree":true,"operatingDays":"평일+토요일+공휴일","weekdayOpen":"00:00","weekdayClose":"23:59","weekendOpen":"00:00","weekendClose":"23:59","holidayOpen":"00:00","holidayClose":"23:59","feeInfo":"무료","phone":"063-560-2571","updatedAt":"2023-08-08","sido":"전라북도","sigungu":"고창군","dong":"고창읍"},{"name":"월곡지하차도 앞","type":"공영","category":"노외","address":"전라북도 고창군 고창읍 월곡리 425-4","lat":35.4403909,"lng":126.7113632,"totalSpaces":110,"isFree":true,"operatingDays":"평일+토요일+공휴일","weekdayOpen":"00:00","weekdayClose":"23:59","weekendOpen":"00:00","weekendClose":"23:59","holidayOpen":"00:00","holidayClose":"23:59","feeInfo":"무료","phone":"063-560-2571","updatedAt":"2023-08-08","sido":"전라북도","sigungu":"고창군","dong":"고창읍"},{"name":"새마을공원","type":"공영","category":"노외","address":"전라북도 고창군 고창읍 모양성로 95","lat":35.439386598,"lng":126.6990767535,"totalSpaces":109,"isFree":true,"operatingDays":"평일+토요일+공휴일","weekdayOpen":"00:00","weekdayClose":"23:59","weekendOpen":"00:00","weekendClose":"23:59","holidayOpen":"00:00","holidayClose":"23:59","feeInfo":"무료","phone":"063-560-2571","updatedAt":"2023-08-08","sido":"전라북도","sigungu":"고창군","dong":"고창읍"},{"name":"구시포항 공영주차장 A","type":"공영","category":"노외","address":"전라북도 고창군 상하면 자룡리 975","lat":35.4491362,"lng":126.4276211,"totalSpaces":107,"isFree":true,"operatingDays":"평일+토요일+공휴일","weekdayOpen":"00:00","weekdayClose":"23:59","weekendOpen":"00:00","weekendClose":"23:59","holidayOpen":"00:00","holidayClose":"23:59","feeInfo":"무료","phone":"063-560-2571","updatedAt":"2023-08-08","sido":"전라북도","sigungu":"고창군","dong":"상하면"},{"name":"동호해수욕장","type":"공영","category":"노외","address":"전라북도 고창군 해리면 동호리 615-6","lat":35.5175683,"lng":126.4840141,"totalSpaces":91,"isFree":true,"operatingDays":"평일+토요일+공휴일","weekdayOpen":"00:00","weekdayClose":"23:59","weekendOpen":"00:00","weekendClose":"23:59","holidayOpen":"00:00","holidayClose":"23:59","feeInfo":"무료","phone":"063-560-2571","updatedAt":"2023-08-08","sido":"전라북도","sigungu":"고창군","dong":"해리면"},{"name":"구시포해수욕장 공영주차장","type":"공영","category":"노외","address":"전라북도 고창군 상하면 자룡리 529-49","lat":35.4444492,"lng":126.4367286,"totalSpaces":84,"isFree":true,"operatingDays":"평일+토요일+공휴일","weekdayOpen":"00:00","weekdayClose":"23:59","weekendOpen":"00:00","weekendClose":"23:59","holidayOpen":"00:00","holidayClose":"23:59","feeInfo":"무료","phone":"063-560-2571","updatedAt":"2023-08-08","sido":"전라북도","sigungu":"고창군","dong":"상하면"},{"name":"구시포항 공영주차장 B","type":"공영","category":"노외","address":"전라북도 고창군 상하면 자룡리 970","lat":35.4499259,"lng":126.4275249,"totalSpaces":71,"isFree":true,"operatingDays":"평일+토요일+공휴일","weekdayOpen":"00:00","weekdayClose":"23:59","weekendOpen":"00:00","weekendClose":"23:59","holidayOpen":"00:00","holidayClose":"23:59","feeInfo":"무료","phone":"063-560-2571","updatedAt":"2023-08-08","sido":"전라북도","sigungu":"고창군","dong":"상하면"},{"name":"고창읍 서북부공영주차장","type":"공영","category":"노외","address":"전라북도 고창군 고창읍 석교리 23-2","lat":35.4433668,"lng":126.6946869003,"totalSpaces":69,"isFree":true,"operatingDays":"평일+토요일+공휴일","weekdayOpen":"00:00","weekdayClose":"23:59","weekendOpen":"00:00","weekendClose":"23:59","holidayOpen":"00:00","holidayClose":"23:59","feeInfo":"무료","phone":"063-560-2571","updatedAt":"2023-08-08","sido":"전라북도","sigungu":"고창군","dong":"고창읍"},{"name":"화물차 공영차고지","type":"공영","category":"노외","address":"전라북도 고창군 고창읍 읍내리 636-8","lat":35.4351047,"lng":126.696503,"totalSpaces":64,"isFree":true,"operatingDays":"평일+토요일+공휴일","weekdayOpen":"00:00","weekdayClose":"23:59","weekendOpen":"00:00","weekendClose":"23:59","holidayOpen":"00:00","holidayClose":"23:59","feeInfo":"무료","phone":"063-560-2571","updatedAt":"2023-08-08","sido":"전라북도","sigungu":"고창군","dong":"고창읍"},{"name":"공음면 소재지","type":"공영","category":"노외","address":"전라북도 고창군 공음면 공음길 47-1","lat":35.3784092567,"lng":126.5128039739,"totalSpaces":63,"isFree":true,"operatingDays":"평일+토요일+공휴일","weekdayOpen":"00:00","weekdayClose":"23:59","weekendOpen":"00:00","weekendClose":"23:59","holidayOpen":"00:00","holidayClose":"23:59","feeInfo":"무료","phone":"063-560-2571","updatedAt":"2023-08-08","sido":"전라북도","sigungu":"고창군","dong":"공음면"},{"name":"전통문화체험관 주차장","type":"공영","category":"노외","address":"전라북도 고창군 고창읍 중거리당산로 152","lat":35.4324963,"lng":126.7016293,"totalSpaces":56,"isFree":true,"operatingDays":"평일+토요일+공휴일","weekdayOpen":"00:00","weekdayClose":"23:59","weekendOpen":"00:00","weekendClose":"23:59","holidayOpen":"00:00","holidayClose":"23:59","feeInfo":"무료","phone":"063-560-2571","updatedAt":"2023-08-08","sido":"전라북도","sigungu":"고창군","dong":"고창읍"},{"name":"고창읍사무소","type":"공영","category":"노외","address":"전라북도 고창군 고창읍 모양성로 26","lat":35.4344591359,"lng":126.7030541888,"totalSpaces":56,"isFree":true,"operatingDays":"평일+토요일+공휴일","weekdayOpen":"00:00","weekdayClose":"23:59","weekendOpen":"00:00","weekendClose":"23:59","holidayOpen":"00:00","holidayClose":"23:59","feeInfo":"무료","phone":"063-560-2571","updatedAt":"2023-08-08","sido":"전라북도","sigungu":"고창군","dong":"고창읍"},{"name":"재래시장(동편)","type":"공영","category":"노외","address":"전라북도 고창군 고창읍 시장안길 31","lat":35.4324914926,"lng":126.6987671864,"totalSpaces":53,"isFree":true,"operatingDays":"평일+토요일+공휴일","weekdayOpen":"00:00","weekdayClose":"23:59","weekendOpen":"00:00","weekendClose":"23:59","holidayOpen":"00:00","holidayClose":"23:59","feeInfo":"무료","phone":"063-560-2571","updatedAt":"2023-08-08","sido":"전라북도","sigungu":"고창군","dong":"고창읍"},{"name":"월곡공영주차장","type":"공영","category":"노외","address":"전라북도 고창군 고창읍 월곡8길 19","lat":35.435831908,"lng":126.7131498205,"totalSpaces":52,"isFree":true,"operatingDays":"평일+토요일+공휴일","weekdayOpen":"00:00","weekdayClose":"23:59","weekendOpen":"00:00","weekendClose":"23:59","holidayOpen":"00:00","holidayClose":"23:59","feeInfo":"무료","phone":"063-560-2571","updatedAt":"2023-08-08","sido":"전라북도","sigungu":"고창군","dong":"고창읍"},{"name":"해리면 소재지","type":"공영","category":"노외","address":"전라북도 고창군 해리면 하련1길 2","lat":35.4594614827,"lng":126.5413812785,"totalSpaces":50,"isFree":true,"operatingDays":"평일+토요일+공휴일","weekdayOpen":"00:00","weekdayClose":"23:59","weekendOpen":"00:00","weekendClose":"23:59","holidayOpen":"00:00","holidayClose":"23:59","feeInfo":"무료","phone":"063-560-2571","updatedAt":"2023-08-08","sido":"전라북도","sigungu":"고창군","dong":"해리면"},{"name":"고창읍 전불 주차장","type":"공영","category":"노외","address":"전라북도 고창군 고창읍 덕산리 23-22","lat":35.4245691,"lng":126.7037563099,"totalSpaces":50,"isFree":true,"operatingDays":"평일+토요일+공휴일","weekdayOpen":"00:00","weekdayClose":"23:59","weekendOpen":"00:00","weekendClose":"23:59","holidayOpen":"00:00","holidayClose":"23:59","feeInfo":"무료","phone":"063-560-2571","updatedAt":"2023-08-08","sido":"전라북도","sigungu":"고창군","dong":"고창읍"},{"name":"중앙가구 앞","type":"공영","category":"노외","address":"전라북도 고창군 고창읍 남정1길 15","lat":35.433876,"lng":126.6974876138,"totalSpaces":47,"isFree":true,"operatingDays":"평일+토요일+공휴일","weekdayOpen":"00:00","weekdayClose":"23:59","weekendOpen":"00:00","weekendClose":"23:59","holidayOpen":"00:00","holidayClose":"23:59","feeInfo":"무료","phone":"063-560-2571","updatedAt":"2023-08-08","sido":"전라북도","sigungu":"고창군","dong":"고창읍"},{"name":"고창어린이집 공영주차장","type":"공영","category":"노외","address":"전라북도 고창군 고창읍 월곡리 861","lat":35.4340268,"lng":126.7121936,"totalSpaces":42,"isFree":true,"operatingDays":"평일+토요일+공휴일","weekdayOpen":"00:00","weekdayClose":"23:59","weekendOpen":"00:00","weekendClose":"23:59","holidayOpen":"00:00","holidayClose":"23:59","feeInfo":"무료","phone":"063-560-2571","updatedAt":"2023-08-08","sido":"전라북도","sigungu":"고창군","dong":"고창읍"},{"name":"재래시장(서편)","type":"공영","category":"노외","address":"전라북도 고창군 고창읍 시장안길 23","lat":35.4326409,"lng":126.6979028121,"totalSpaces":42,"isFree":true,"operatingDays":"평일+토요일+공휴일","weekdayOpen":"00:00","weekdayClose":"23:59","weekendOpen":"00:00","weekendClose":"23:59","holidayOpen":"00:00","holidayClose":"23:59","feeInfo":"무료","phone":"063-560-2571","updatedAt":"2023-08-08","sido":"전라북도","sigungu":"고창군","dong":"고창읍"},{"name":"월곡뉴타운 제2주차장","type":"공영","category":"노외","address":"전라북도 고창군 고창읍 월곡리 861","lat":35.4340268,"lng":126.7121936,"totalSpaces":42,"isFree":true,"operatingDays":"평일+토요일+공휴일","weekdayOpen":"00:00","weekdayClose":"23:59","weekendOpen":"00:00","weekendClose":"23:59","holidayOpen":"00:00","holidayClose":"23:59","feeInfo":"무료","phone":"063-560-2571","updatedAt":"2023-08-08","sido":"전라북도","sigungu":"고창군","dong":"고창읍"},{"name":"흥덕면 시장 옆","type":"공영","category":"노외","address":"전라북도 고창군 흥덕면 흥덕시장길 14","lat":35.5214467214,"lng":126.7005350409,"totalSpaces":37,"isFree":true,"operatingDays":"평일+토요일+공휴일","weekdayOpen":"00:00","weekdayClose":"23:59","weekendOpen":"00:00","weekendClose":"23:59","holidayOpen":"00:00","holidayClose":"23:59","feeInfo":"무료","phone":"063-560-2571","updatedAt":"2023-08-08","sido":"전라북도","sigungu":"고창군","dong":"흥덕면"},{"name":"신영장 뒤","type":"공영","category":"노외","address":"전라북도 고창군 고창읍 성산1길 4-3","lat":35.4355988926,"lng":126.6975164356,"totalSpaces":35,"isFree":true,"operatingDays":"평일+토요일+공휴일","weekdayOpen":"00:00","weekdayClose":"23:59","weekendOpen":"00:00","weekendClose":"23:59","holidayOpen":"00:00","holidayClose":"23:59","feeInfo":"무료","phone":"063-560-2571","updatedAt":"2023-08-08","sido":"전라북도","sigungu":"고창군","dong":"고창읍"},{"name":"무장면 농협 앞","type":"공영","category":"노외","address":"전라북도 고창군 무장면 무장리 288","lat":35.4163453,"lng":126.5585179593,"totalSpaces":32,"isFree":true,"operatingDays":"평일+토요일+공휴일","weekdayOpen":"00:00","weekdayClose":"23:59","weekendOpen":"00:00","weekendClose":"23:59","holidayOpen":"00:00","holidayClose":"23:59","feeInfo":"무료","phone":"063-560-2571","updatedAt":"2023-08-08","sido":"전라북도","sigungu":"고창군","dong":"무장면"},{"name":"덕산택지","type":"공영","category":"노외","address":"전라북도 고창군 고창읍 남구1길 14","lat":35.4274586329,"lng":126.695376,"totalSpaces":30,"isFree":true,"operatingDays":"평일+토요일+공휴일","weekdayOpen":"00:00","weekdayClose":"23:59","weekendOpen":"00:00","weekendClose":"23:59","holidayOpen":"00:00","holidayClose":"23:59","feeInfo":"무료","phone":"063-560-2571","updatedAt":"2023-08-08","sido":"전라북도","sigungu":"고창군","dong":"고창읍"},{"name":"천주교 앞","type":"공영","category":"노외","address":"전라북도 고창군 고창읍 서문1길 8-2","lat":35.4298540503,"lng":126.6997039,"totalSpaces":30,"isFree":true,"operatingDays":"평일+토요일+공휴일","weekdayOpen":"00:00","weekdayClose":"23:59","weekendOpen":"00:00","weekendClose":"23:59","holidayOpen":"00:00","holidayClose":"23:59","feeInfo":"무료","phone":"063-560-2571","updatedAt":"2023-08-08","sido":"전라북도","sigungu":"고창군","dong":"고창읍"},{"name":"미당시문학관 주차장","type":"공영","category":"노외","address":"전라북도 고창군 부안면 선운리 915-2","lat":35.5374755,"lng":126.6103327,"totalSpaces":28,"isFree":true,"operatingDays":"평일+토요일+공휴일","weekdayOpen":"00:00","weekdayClose":"23:59","weekendOpen":"00:00","weekendClose":"23:59","holidayOpen":"00:00","holidayClose":"23:59","feeInfo":"무료","phone":"063-560-2571","updatedAt":"2023-08-08","sido":"전라북도","sigungu":"고창군","dong":"부안면"},{"name":"월곡뉴타운","type":"공영","category":"노외","address":"전라북도 고창군 고창읍 월곡뉴타운2길 44","lat":35.4340782894,"lng":126.7136348743,"totalSpaces":26,"isFree":true,"operatingDays":"평일+토요일+공휴일","weekdayOpen":"00:00","weekdayClose":"23:59","weekendOpen":"00:00","weekendClose":"23:59","holidayOpen":"00:00","holidayClose":"23:59","feeInfo":"무료","phone":"063-560-2571","updatedAt":"2023-08-08","sido":"전라북도","sigungu":"고창군","dong":"고창읍"},{"name":"흥덕면 장미주택 앞","type":"공영","category":"노외","address":"전라북도 고창군 흥덕면 흥남2길 18","lat":35.5201474316,"lng":126.7023301341,"totalSpaces":25,"isFree":true,"operatingDays":"평일+토요일+공휴일","weekdayOpen":"00:00","weekdayClose":"23:59","weekendOpen":"00:00","weekendClose":"23:59","holidayOpen":"00:00","holidayClose":"23:59","feeInfo":"무료","phone":"063-560-2571","updatedAt":"2023-08-08","sido":"전라북도","sigungu":"고창군","dong":"흥덕면"},{"name":"서흥동","type":"공영","category":"노외","address":"전라북도 고창군 고창읍 읍내리 323-2","lat":35.4334865,"lng":126.699571,"totalSpaces":22,"isFree":true,"operatingDays":"평일+토요일+공휴일","weekdayOpen":"00:00","weekdayClose":"23:59","weekendOpen":"00:00","weekendClose":"23:59","holidayOpen":"00:00","holidayClose":"23:59","feeInfo":"무료","phone":"063-560-2571","updatedAt":"2023-08-08","sido":"전라북도","sigungu":"고창군","dong":"고창읍"},{"name":"노인회관 옆","type":"공영","category":"노외","address":"전라북도 고창군 고창읍 읍내리 191-3","lat":35.4365289,"lng":126.6988748,"totalSpaces":20,"isFree":true,"operatingDays":"평일+토요일+공휴일","weekdayOpen":"00:00","weekdayClose":"23:59","weekendOpen":"00:00","weekendClose":"23:59","holidayOpen":"00:00","holidayClose":"23:59","feeInfo":"무료","phone":"063-560-2571","updatedAt":"2023-08-08","sido":"전라북도","sigungu":"고창군","dong":"고창읍"},{"name":"성송면 소재지","type":"공영","category":"노외","address":"전라북도 고창군 성송면 대성로 778","lat":35.3647697494,"lng":126.6467138318,"totalSpaces":17,"isFree":true,"operatingDays":"평일+토요일+공휴일","weekdayOpen":"00:00","weekdayClose":"23:59","weekendOpen":"00:00","weekendClose":"23:59","holidayOpen":"00:00","holidayClose":"23:59","feeInfo":"무료","phone":"063-560-2571","updatedAt":"2023-08-08","sido":"전라북도","sigungu":"고창군","dong":"성송면"},{"name":"모양성 서문 앞","type":"공영","category":"노외","address":"전라북도 고창군 고창읍 동리로 117","lat":35.4329159615,"lng":126.7052478356,"totalSpaces":17,"isFree":true,"operatingDays":"평일+토요일+공휴일","weekdayOpen":"00:00","weekdayClose":"23:59","weekendOpen":"00:00","weekendClose":"23:59","holidayOpen":"00:00","holidayClose":"23:59","feeInfo":"무료","phone":"063-560-2571","updatedAt":"2023-08-08","sido":"전라북도","sigungu":"고창군","dong":"고창읍"},{"name":"흥덕면 알뜰정육점 앞","type":"공영","category":"노외","address":"전라북도 고창군 흥덕면 선운대로 3738","lat":35.5199135,"lng":126.7000285,"totalSpaces":15,"isFree":true,"operatingDays":"평일+토요일+공휴일","weekdayOpen":"00:00","weekdayClose":"23:59","weekendOpen":"00:00","weekendClose":"23:59","holidayOpen":"00:00","holidayClose":"23:59","feeInfo":"무료","phone":"063-560-2571","updatedAt":"2023-08-08","sido":"전라북도","sigungu":"고창군","dong":"흥덕면"},{"name":"성내면사무소 앞","type":"공영","category":"노외","address":"전라북도 고창군 성내면 양계리 475-8","lat":35.5376991,"lng":126.7430532,"totalSpaces":9,"isFree":true,"operatingDays":"평일+토요일+공휴일","weekdayOpen":"00:00","weekdayClose":"23:59","weekendOpen":"00:00","weekendClose":"23:59","holidayOpen":"00:00","holidayClose":"23:59","feeInfo":"무료","phone":"063-560-2571","updatedAt":"2023-08-08","sido":"전라북도","sigungu":"고창군","dong":"성내면"}]}