{"sido":"충청남도","sigungu":"서천군","totalCount":28,"validCount":28,"items":[{"name":"서천(16) 공영주차장","type":"공영","category":"노외","address":"충청남도 서천군 서천읍 군사리 563-1","lat":36.07634754,"lng":126.6950426,"totalSpaces":80,"isFree":true,"operatingDays":"평일+토요일+공휴일","weekdayOpen":"00:00","weekdayClose":"23:59","weekendOpen":"00:00","weekendClose":"23:59","holidayOpen":"00:00","holidayClose":"23:59","feeInfo":"무료","phone":"041-950-4354","updatedAt":"2025-12-05","sido":"충청남도","sigungu":"서천군","dong":"서천읍"},{"name":"서천(1) 공영주차장","type":"공영","category":"노외","address":"충청남도 서천군 서천읍 군사길 1-3","lat":36.07634754,"lng":126.6950426,"totalSpaces":80,"isFree":true,"operatingDays":"평일+토요일+공휴일","weekdayOpen":"00:00","weekdayClose":"23:59","weekendOpen":"00:00","weekendClose":"23:59","holidayOpen":"00:00","holidayClose":"23:59","feeInfo":"무료","phone":"041-950-4354","updatedAt":"2025-12-05","sido":"충청남도","sigungu":"서천군","dong":"서천읍"},{"name":"장항(10) 공영주차장","type":"공영","category":"노외","address":"충청남도 서천군 장항읍 창선2리 232-26","lat":36.01368472,"lng":126.6958156,"totalSpaces":67,"isFree":true,"operatingDays":"평일+토요일+공휴일","weekdayOpen":"00:00","weekdayClose":"23:59","weekendOpen":"00:00","weekendClose":"23:59","holidayOpen":"00:00","holidayClose":"23:59","feeInfo":"무료","phone":"041-950-4354","updatedAt":"2025-12-05","sido":"충청남도","sigungu":"서천군","dong":"장항읍"},{"name":"서천(7) 공영주차장","type":"공영","category":"노외","address":"충청남도 서천군 서천읍 군사리 860-7, -8, -9","lat":36.0770723,"lng":126.6887744,"totalSpaces":50,"isFree":true,"operatingDays":"평일+토요일+공휴일","weekdayOpen":"00:00","weekdayClose":"23:59","weekendOpen":"00:00","weekendClose":"23:59","holidayOpen":"00:00","holidayClose":"23:59","feeInfo":"무료","phone":"041-950-4354","updatedAt":"2025-12-05","sido":"충청남도","sigungu":"서천군","dong":"서천읍"},{"name":"장항(4) 공영주차장","type":"공영","category":"노외","address":"충청남도 서천군 장항읍 장항로172번길 16","lat":36.0103035,"lng":126.6962175754,"totalSpaces":48,"isFree":true,"operatingDays":"평일+토요일+공휴일","weekdayOpen":"00:00","weekdayClose":"23:59","weekendOpen":"00:00","weekendClose":"23:59","holidayOpen":"00:00","holidayClose":"23:59","feeInfo":"무료","phone":"041-950-4354","updatedAt":"2025-12-05","sido":"충청남도","sigungu":"서천군","dong":"장항읍"},{"name":"서천(17) 공영주차장","type":"공영","category":"노외","address":"충청남도 서천군 서천읍 군사리 862-6, 862-7","lat":36.07607445,"lng":126.6897181,"totalSpaces":40,"isFree":true,"operatingDays":"평일+토요일+공휴일","weekdayOpen":"00:00","weekdayClose":"23:59","weekendOpen":"00:00","weekendClose":"23:59","holidayOpen":"00:00","holidayClose":"23:59","feeInfo":"무료","phone":"041-950-4354","updatedAt":"2025-12-05","sido":"충청남도","sigungu":"서천군","dong":"서천읍"},{"name":"서천(5) 공영주차장","type":"공영","category":"노외","address":"충청남도 서천군 서천읍 충절로59번길 23","lat":36.0760744508,"lng":126.6897181496,"totalSpaces":40,"isFree":true,"operatingDays":"평일+토요일+공휴일","weekdayOpen":"00:00","weekdayClose":"23:59","weekendOpen":"00:00","weekendClose":"23:59","holidayOpen":"00:00","holidayClose":"23:59","feeInfo":"무료","phone":"041-950-4354","updatedAt":"2025-12-05","sido":"충청남도","sigungu":"서천군","dong":"서천읍"},{"name":"장항(8) 공영주차장","type":"공영","category":"노외","address":"충청남도 서천군 장항읍 신창리 44-26","lat":36.0135904,"lng":126.6909879,"totalSpaces":37,"isFree":true,"operatingDays":"평일+토요일+공휴일","weekdayOpen":"00:00","weekdayClose":"23:59","weekendOpen":"00:00","weekendClose":"23:59","holidayOpen":"00:00","holidayClose":"23:59","feeInfo":"무료","phone":"041-950-4354","updatedAt":"2025-12-05","sido":"충청남도","sigungu":"서천군","dong":"장항읍"},{"name":"서천(2) 공영주차장","type":"공영","category":"노외","address":"충청남도 서천군 서천읍 군사리 859-12","lat":36.0764747,"lng":126.6880375,"totalSpaces":35,"isFree":true,"operatingDays":"평일+토요일+공휴일","weekdayOpen":"00:00","weekdayClose":"23:59","weekendOpen":"00:00","weekendClose":"23:59","holidayOpen":"00:00","holidayClose":"23:59","feeInfo":"무료","phone":"041-950-4354","updatedAt":"2025-12-05","sido":"충청남도","sigungu":"서천군","dong":"서천읍"},{"name":"서천(4) 공영주차장","type":"공영","category":"노외","address":"충청남도 서천군 서천읍 군사리 481-5","lat":36.0780596,"lng":126.689845,"totalSpaces":30,"isFree":true,"operatingDays":"평일+토요일+공휴일","weekdayOpen":"00:00","weekdayClose":"23:59","weekendOpen":"00:00","weekendClose":"23:59","holidayOpen":"00:00","holidayClose":"23:59","feeInfo":"무료","phone":"041-950-4354","updatedAt":"2025-12-05","sido":"충청남도","sigungu":"서천군","dong":"서천읍"},{"name":"서천(3) 공영주차장","type":"공영","category":"노외","address":"충청남도 서천군 서천읍 군사리 861-10","lat":36.07664859,"lng":126.6895505,"totalSpaces":25,"isFree":true,"operatingDays":"평일+토요일+공휴일","weekdayOpen":"00:00","weekdayClose":"23:59","weekendOpen":"00:00","weekendClose":"23:59","holidayOpen":"00:00","holidayClose":"23:59","feeInfo":"무료","phone":"041-950-4354","updatedAt":"2025-12-05","sido":"충청남도","sigungu":"서천군","dong":"서천읍"},{"name":"장항(6) 공영주차장","type":"공영","category":"노외","address":"충청남도 서천군 장항읍 창선1리 204-2","lat":36.0099461,"lng":126.6967737,"totalSpaces":24,"isFree":true,"operatingDays":"평일+토요일+공휴일","weekdayOpen":"00:00","weekdayClose":"23:59","weekendOpen":"00:00","weekendClose":"23:59","holidayOpen":"00:00","holidayClose":"23:59","feeInfo":"무료","phone":"041-950-4354","updatedAt":"2025-12-05","sido":"충청남도","sigungu":"서천군","dong":"장항읍"},{"name":"서천(12) 공영주차장","type":"공영","category":"노외","address":"충청남도 서천군 서천읍 군사리 642-106, -134","lat":36.07623453,"lng":126.6913504,"totalSpaces":20,"isFree":true,"operatingDays":"평일+토요일+공휴일","weekdayOpen":"00:00","weekdayClose":"23:59","weekendOpen":"00:00","weekendClose":"23:59","holidayOpen":"00:00","holidayClose":"23:59","feeInfo":"무료","phone":"041-950-4354","updatedAt":"2025-12-05","sido":"충청남도","sigungu":"서천군","dong":"서천읍"},{"name":"서천(14) 공영주차장","type":"공영","category":"노외","address":"충청남도 서천군 서천읍 군사리 700-1, -3, -4","lat":36.07710095,"lng":126.6894943,"totalSpaces":17,"isFree":true,"operatingDays":"평일+토요일+공휴일","weekdayOpen":"00:00","weekdayClose":"23:59","weekendOpen":"00:00","weekendClose":"23:59","holidayOpen":"00:00","holidayClose":"23:59","feeInfo":"무료","phone":"041-950-4354","updatedAt":"2025-12-05","sido":"충청남도","sigungu":"서천군","dong":"서천읍"},{"name":"장항(2) 공영주차장","type":"공영","category":"노외","address":"충청남도 서천군 장항읍 장항로157번길 8","lat":36.01156116,"lng":126.6953411,"totalSpaces":16,"isFree":true,"operatingDays":"평일+토요일+공휴일","weekdayOpen":"00:00","weekdayClose":"23:59","weekendOpen":"00:00","weekendClose":"23:59","holidayOpen":"00:00","holidayClose":"23:59","feeInfo":"무료","phone":"041-950-4354","updatedAt":"2025-12-05","sido":"충청남도","sigungu":"서천군","dong":"장항읍"},{"name":"서천(11) 공영주차장","type":"공영","category":"노외","address":"충청남도 서천군 서천읍 군사리 734-1, 2","lat":36.0786498,"lng":126.6897294,"totalSpaces":16,"isFree":true,"operatingDays":"평일+토요일+공휴일","weekdayOpen":"00:00","weekdayClose":"23:59","weekendOpen":"00:00","weekendClose":"23:59","holidayOpen":"00:00","holidayClose":"23:59","feeInfo":"무료","phone":"041-950-4354","updatedAt":"2025-12-05","sido":"충청남도","sigungu":"서천군","dong":"서천읍"},{"name":"장항(5) 공영주차장","type":"공영","category":"노외","address":"충청남도 서천군 장항읍 창선1리 215","lat":36.01039819,"lng":126.6968584,"totalSpaces":15,"isFree":true,"operatingDays":"평일+토요일+공휴일","weekdayOpen":"00:00","weekdayClose":"23:59","weekendOpen":"00:00","weekendClose":"23:59","holidayOpen":"00:00","holidayClose":"23:59","feeInfo":"무료","phone":"041-950-4354","updatedAt":"2025-12-05","sido":"충청남도","sigungu":"서천군","dong":"장항읍"},{"name":"장항(7) 공영주차장","type":"공영","category":"노외","address":"충청남도 서천군 장항읍 창선2리 545-1","lat":36.01153149,"lng":126.6976072,"totalSpaces":15,"isFree":true,"operatingDays":"평일+토요일+공휴일","weekdayOpen":"00:00","weekdayClose":"23:59","weekendOpen":"00:00","weekendClose":"23:59","holidayOpen":"00:00","holidayClose":"23:59","feeInfo":"무료","phone":"041-950-4354","updatedAt":"2025-12-05","sido":"충청남도","sigungu":"서천군","dong":"장항읍"},{"name":"서천(15) 공영주차장","type":"공영","category":"노외","address":"충청남도 서천군 서천읍 군사리 855-7","lat":36.07601181,"lng":126.6873706,"totalSpaces":14,"isFree":true,"operatingDays":"평일+토요일+공휴일","weekdayOpen":"00:00","weekdayClose":"23:59","weekendOpen":"00:00","weekendClose":"23:59","holidayOpen":"00:00","holidayClose":"23:59","feeInfo":"무료","phone":"041-950-4354","updatedAt":"2025-12-05","sido":"충청남도","sigungu":"서천군","dong":"서천읍"},{"name":"서천(19) 공영주차장","type":"공영","category":"노외","address":"충청남도 서천군 판교면 현암리 224-1","lat":36.15422793,"lng":126.6876139,"totalSpaces":14,"isFree":true,"operatingDays":"평일+토요일+공휴일","weekdayOpen":"00:00","weekdayClose":"23:59","weekendOpen":"00:00","weekendClose":"23:59","holidayOpen":"00:00","holidayClose":"23:59","feeInfo":"무료","phone":"041-950-4354","updatedAt":"2025-12-05","sido":"충청남도","sigungu":"서천군","dong":"판교면"},{"name":"장항(9) 공영주차장","type":"공영","category":"노외","address":"충청남도 서천군 장항읍 신창리 171-58","lat":36.0106378,"lng":126.6907725,"totalSpaces":14,"isFree":true,"operatingDays":"평일+토요일+공휴일","weekdayOpen":"00:00","weekdayClose":"23:59","weekendOpen":"00:00","weekendClose":"23:59","holidayOpen":"00:00","holidayClose":"23:59","feeInfo":"무료","phone":"041-950-4354","updatedAt":"2025-12-05","sido":"충청남도","sigungu":"서천군","dong":"장항읍"},{"name":"서천(10) 공영주차장","type":"공영","category":"노외","address":"충청남도 서천군 서천읍 군사리 861-13","lat":36.07681561,"lng":126.6892102,"totalSpaces":14,"isFree":true,"operatingDays":"평일+토요일+공휴일","weekdayOpen":"00:00","weekdayClose":"23:59","weekendOpen":"00:00","weekendClose":"23:59","holidayOpen":"00:00","holidayClose":"23:59","feeInfo":"무료","phone":"041-950-4354","updatedAt":"2025-12-05","sido":"충청남도","sigungu":"서천군","dong":"서천읍"},{"name":"서천(13) 공영주차장","type":"공영","category":"노외","address":"충청남도 서천군 서천읍 군사안길 26","lat":36.07675592,"lng":126.696301,"totalSpaces":13,"isFree":true,"operatingDays":"평일+토요일+공휴일","weekdayOpen":"00:00","weekdayClose":"23:59","weekendOpen":"00:00","weekendClose":"23:59","holidayOpen":"00:00","holidayClose":"23:59","feeInfo":"무료","phone":"041-950-4354","updatedAt":"2025-12-05","sido":"충청남도","sigungu":"서천군","dong":""},{"name":"장항(3) 공영주차장","type":"공영","category":"노외","address":"충청남도 서천군 장항읍 장서로43번길 27","lat":36.01168382,"lng":126.6968004,"totalSpaces":12,"isFree":true,"operatingDays":"평일+토요일+공휴일","weekdayOpen":"00:00","weekdayClose":"23:59","weekendOpen":"00:00","weekendClose":"23:59","holidayOpen":"00:00","holidayClose":"23:59","feeInfo":"무료","phone":"041-950-4354","updatedAt":"2025-12-05","sido":"충청남도","sigungu":"서천군","dong":"장항읍"},{"name":"장항(1) 공영주차장","type":"공영","category":"노외","address":"충청남도 서천군 장항읍 장서로44번길 10","lat":36.01150572,"lng":126.6990817,"totalSpaces":12,"isFree":true,"operatingDays":"평일+토요일+공휴일","weekdayOpen":"00:00","weekdayClose":"23:59","weekendOpen":"00:00","weekendClose":"23:59","holidayOpen":"00:00","holidayClose":"23:59","feeInfo":"무료","phone":"041-950-4354","updatedAt":"2025-12-05","sido":"충청남도","sigungu":"서천군","dong":"장항읍"},{"name":"서천(18) 공영주차장","type":"공영","category":"노외","address":"충청남도 서천군 서천읍 군사리 861-6","lat":36.0767732,"lng":126.6900122,"totalSpaces":12,"isFree":true,"operatingDays":"평일+토요일+공휴일","weekdayOpen":"00:00","weekdayClose":"23:59","weekendOpen":"00:00","weekendClose":"23:59","holidayOpen":"00:00","holidayClose":"23:59","feeInfo":"무료","phone":"041-950-4354","updatedAt":"2025-12-05","sido":"충청남도","sigungu":"서천군","dong":"서천읍"},{"name":"서천(8) 공영주차장","type":"공영","category":"노외","address":"충청남도 서천군 서천읍 군사리 861-6","lat":36.0767581,"lng":126.6900542,"totalSpaces":10,"isFree":true,"operatingDays":"평일+토요일+공휴일","weekdayOpen":"00:00","weekdayClose":"23:59","weekendOpen":"00:00","weekendClose":"23:59","holidayOpen":"00:00","holidayClose":"23:59","feeInfo":"무료","phone":"041-950-4354","updatedAt":"2025-12-05","sido":"충청남도","sigungu":"서천군","dong":"서천읍"},{"name":"서천(6) 공영주차장","type":"공영","category":"노외","address":"충청남도 서천군 서천읍 군사리 729","lat":36.07830936,"lng":126.6897238,"totalSpaces":5,"isFree":true,"operatingDays":"평일+토요일+공휴일","weekdayOpen":"00:00","weekdayClose":"23:59","weekendOpen":"00:00","weekendClose":"23:59","holidayOpen":"00:00","holidayClose":"23:59","feeInfo":"무료","phone":"041-950-4354","updatedAt":"2025-12-05","sido":"충청남도","sigungu":"서천군","dong":"서천읍"}]}