{"sido":"충청남도","sigungu":"아산시","totalCount":80,"validCount":80,"items":[{"name":"아산테크노밸리 제1공영주차장","type":"공영","category":"노외","address":"충청남도 아산시 둔포면 석곡리 1482","lat":36.91864074,"lng":127.0612741,"totalSpaces":355,"isFree":true,"operatingDays":"평일+토요일+공휴일","weekdayOpen":"00:00","weekdayClose":"23:59","weekendOpen":"00:00","weekendClose":"23:59","holidayOpen":"00:00","holidayClose":"23:59","feeInfo":"무료","phone":"041-540-2369","updatedAt":"2025-05-12","sido":"충청남도","sigungu":"아산시","dong":"둔포면"},{"name":"한들물빛도시 제1공영주차장","type":"공영","category":"노외","address":"충청남도 아산시 탕정면 매곡리 1202","lat":36.78829411,"lng":127.0858123,"totalSpaces":188,"isFree":true,"operatingDays":"평일+토요일+공휴일","weekdayOpen":"00:00","weekdayClose":"23:59","weekendOpen":"00:00","weekendClose":"23:59","holidayOpen":"00:00","holidayClose":"23:59","feeInfo":"무료","phone":"041-540-2369","updatedAt":"2025-05-12","sido":"충청남도","sigungu":"아산시","dong":"탕정면"},{"name":"방축동 제1공영주차장","type":"공영","category":"노외","address":"충청남도 아산시 방축동 428-30","lat":36.77645623,"lng":126.9818057,"totalSpaces":166,"isFree":true,"operatingDays":"평일+토요일+공휴일","weekdayOpen":"00:00","weekdayClose":"23:59","weekendOpen":"00:00","weekendClose":"23:59","holidayOpen":"00:00","holidayClose":"23:59","feeInfo":"무료","phone":"041-540-2369","updatedAt":"2025-05-12","sido":"충청남도","sigungu":"아산시","dong":"방축동"},{"name":"아산테크노밸리 제2공영주차장","type":"공영","category":"노외","address":"충청남도 아산시 둔포면 석곡리 1480","lat":36.92305577,"lng":127.0624898,"totalSpaces":165,"isFree":true,"operatingDays":"평일+토요일+공휴일","weekdayOpen":"00:00","weekdayClose":"23:59","weekendOpen":"00:00","weekendClose":"23:59","holidayOpen":"00:00","holidayClose":"23:59","feeInfo":"무료","phone":"041-540-2369","updatedAt":"2025-05-12","sido":"충청남도","sigungu":"아산시","dong":"둔포면"},{"name":"아산테크노밸리 제2공영주차장","type":"공영","category":"노외","address":"충청남도 아산시 둔포면 석곡리 1480","lat":36.923029,"lng":127.0624898,"totalSpaces":165,"isFree":true,"operatingDays":"평일+토요일+공휴일","weekdayOpen":"00:00","weekdayClose":"23:59","weekendOpen":"00:00","weekendClose":"23:59","holidayOpen":"00:00","holidayClose":"23:59","feeInfo":"무료","phone":"041-531-6997","updatedAt":"2025-09-01","sido":"충청남도","sigungu":"아산시","dong":"둔포면"},{"name":"인주면 걸매리 제1공영주차장","type":"공영","category":"노외","address":"충청남도 아산시 인주면 걸매리 1004","lat":36.87794723,"lng":126.8696448,"totalSpaces":140,"isFree":true,"operatingDays":"평일+토요일+공휴일","weekdayOpen":"00:00","weekdayClose":"23:59","weekendOpen":"00:00","weekendClose":"23:59","holidayOpen":"00:00","holidayClose":"23:59","feeInfo":"무료","phone":"041-540-2369","updatedAt":"2025-05-12","sido":"충청남도","sigungu":"아산시","dong":"인주면"},{"name":"인주면 걸매리 제3공영주차장","type":"공영","category":"노외","address":"충청남도 아산시 인주면 걸매리 1049","lat":36.87290772,"lng":126.8793288,"totalSpaces":132,"isFree":true,"operatingDays":"평일+토요일+공휴일","weekdayOpen":"00:00","weekdayClose":"23:59","weekendOpen":"00:00","weekendClose":"23:59","holidayOpen":"00:00","holidayClose":"23:59","feeInfo":"무료","phone":"041-540-2369","updatedAt":"2025-05-12","sido":"충청남도","sigungu":"아산시","dong":"인주면"},{"name":"아산제2테크노밸리 제5공영주차장","type":"공영","category":"노외","address":"충청남도 아산시 둔포면 석곡리 2037","lat":36.90655746,"lng":127.0695275,"totalSpaces":97,"isFree":true,"operatingDays":"평일+토요일+공휴일","weekdayOpen":"00:00","weekdayClose":"23:59","weekendOpen":"00:00","weekendClose":"23:59","holidayOpen":"00:00","holidayClose":"23:59","feeInfo":"무료","phone":"041-540-2369","updatedAt":"2025-05-12","sido":"충청남도","sigungu":"아산시","dong":"둔포면"},{"name":"득산동 공영주차장","type":"공영","category":"노외","address":"충청남도 아산시 득산동 389","lat":36.78546802,"lng":126.9607969,"totalSpaces":88,"isFree":true,"operatingDays":"평일+토요일+공휴일","weekdayOpen":"00:00","weekdayClose":"23:59","weekendOpen":"00:00","weekendClose":"23:59","holidayOpen":"00:00","holidayClose":"23:59","feeInfo":"무료","phone":"041-540-2369","updatedAt":"2025-05-12","sido":"충청남도","sigungu":"아산시","dong":"득산동"},{"name":"아산제2테크노밸리 제3공영주차장","type":"공영","category":"노외","address":"충청남도 아산시 음봉면 신휴리 793","lat":36.89948218,"lng":127.0643586,"totalSpaces":83,"isFree":true,"operatingDays":"평일+토요일+공휴일","weekdayOpen":"00:00","weekdayClose":"23:59","weekendOpen":"00:00","weekendClose":"23:59","holidayOpen":"00:00","holidayClose":"23:59","feeInfo":"무료","phone":"041-540-2369","updatedAt":"2025-05-12","sido":"충청남도","sigungu":"아산시","dong":"음봉면"},{"name":"도고면 기곡리 제1공영주차장","type":"공영","category":"노외","address":"충청남도 아산시 도고면 기곡리 296-4","lat":36.76245369,"lng":126.8887265,"totalSpaces":80,"isFree":true,"operatingDays":"평일+토요일+공휴일","weekdayOpen":"00:00","weekdayClose":"23:59","weekendOpen":"00:00","weekendClose":"23:59","holidayOpen":"00:00","holidayClose":"23:59","feeInfo":"무료","phone":"041-540-2369","updatedAt":"2025-05-12","sido":"충청남도","sigungu":"아산시","dong":"도고면"},{"name":"실옥동 제1공영주차장","type":"공영","category":"노외","address":"충청남도 아산시 실옥동 217-1","lat":36.78917139,"lng":126.9886232,"totalSpaces":70,"isFree":true,"operatingDays":"평일+토요일+공휴일","weekdayOpen":"00:00","weekdayClose":"23:59","weekendOpen":"00:00","weekendClose":"23:59","holidayOpen":"00:00","holidayClose":"23:59","feeInfo":"무료","phone":"041-540-2369","updatedAt":"2025-05-12","sido":"충청남도","sigungu":"아산시","dong":"실옥동"},{"name":"방축동 제4공영주차장","type":"공영","category":"노외","address":"충청남도 아산시 방축동 140-31","lat":36.78603518,"lng":126.9854192,"totalSpaces":68,"isFree":true,"operatingDays":"평일+토요일+공휴일","weekdayOpen":"00:00","weekdayClose":"23:59","weekendOpen":"00:00","weekendClose":"23:59","holidayOpen":"00:00","holidayClose":"23:59","feeInfo":"무료","phone":"041-540-2369","updatedAt":"2025-05-12","sido":"충청남도","sigungu":"아산시","dong":"방축동"},{"name":"아산제2테크노밸리 제4공영주차장","type":"공영","category":"노외","address":"충청남도 아산시 둔포면 석곡리 1949","lat":36.90675155,"lng":127.0562369,"totalSpaces":65,"isFree":true,"operatingDays":"평일+토요일+공휴일","weekdayOpen":"00:00","weekdayClose":"23:59","weekendOpen":"00:00","weekendClose":"23:59","holidayOpen":"00:00","holidayClose":"23:59","feeInfo":"무료","phone":"041-540-2369","updatedAt":"2025-05-12","sido":"충청남도","sigungu":"아산시","dong":"둔포면"},{"name":"좌부동 공영주차장","type":"공영","category":"노외","address":"충청남도 아산시 배방읍 신흥리 64-1","lat":36.75542174,"lng":127.0329583,"totalSpaces":64,"isFree":true,"operatingDays":"평일+토요일+공휴일","weekdayOpen":"00:00","weekdayClose":"23:59","weekendOpen":"00:00","weekendClose":"23:59","holidayOpen":"00:00","holidayClose":"23:59","feeInfo":"무료","phone":"041-540-2369","updatedAt":"2025-05-12","sido":"충청남도","sigungu":"아산시","dong":"배방읍"},{"name":"모종동 제1공영주차장","type":"공영","category":"노외","address":"충청남도 아산시 모종동 562-4","lat":36.78417858,"lng":127.0130422,"totalSpaces":63,"isFree":true,"operatingDays":"평일+토요일+공휴일","weekdayOpen":"00:00","weekdayClose":"23:59","weekendOpen":"00:00","weekendClose":"23:59","holidayOpen":"00:00","holidayClose":"23:59","feeInfo":"무료","phone":"041-540-2369","updatedAt":"2025-05-12","sido":"충청남도","sigungu":"아산시","dong":"모종동"},{"name":"온천동 제1공영주차장","type":"공영","category":"노외","address":"충청남도 아산시 온천동 1926","lat":36.79287666,"lng":126.9965123,"totalSpaces":60,"isFree":true,"operatingDays":"평일+토요일+공휴일","weekdayOpen":"00:00","weekdayClose":"23:59","weekendOpen":"00:00","weekendClose":"23:59","holidayOpen":"00:00","holidayClose":"23:59","feeInfo":"무료","phone":"041-540-2369","updatedAt":"2025-05-12","sido":"충청남도","sigungu":"아산시","dong":"온천동"},{"name":"배방읍 세교리 제1공영주차장","type":"공영","category":"노외","address":"충청남도 아산시 배방읍 세교리 1532","lat":36.78050704,"lng":127.0920717,"totalSpaces":57,"isFree":true,"operatingDays":"평일+토요일+공휴일","weekdayOpen":"00:00","weekdayClose":"23:59","weekendOpen":"00:00","weekendClose":"23:59","holidayOpen":"00:00","holidayClose":"23:59","feeInfo":"무료","phone":"041-540-2369","updatedAt":"2025-05-12","sido":"충청남도","sigungu":"아산시","dong":"배방읍"},{"name":"도고농공단지 공영주차장","type":"공영","category":"노외","address":"충청남도 아산시 도고면 신언리 809","lat":36.7565504,"lng":126.8721233,"totalSpaces":54,"isFree":true,"operatingDays":"평일+토요일+공휴일","weekdayOpen":"00:00","weekdayClose":"23:59","weekendOpen":"00:00","weekendClose":"23:59","holidayOpen":"00:00","holidayClose":"23:59","feeInfo":"무료","phone":"041-540-2369","updatedAt":"2025-05-12","sido":"충청남도","sigungu":"아산시","dong":"도고면"},{"name":"둔포면 둔포리 공영주차장","type":"공영","category":"노외","address":"충청남도 아산시 둔포면 둔포리 458-16","lat":36.92978488,"lng":127.0373778,"totalSpaces":50,"isFree":true,"operatingDays":"평일+토요일+공휴일","weekdayOpen":"00:00","weekdayClose":"23:59","weekendOpen":"00:00","weekendClose":"23:59","holidayOpen":"00:00","holidayClose":"23:59","feeInfo":"무료","phone":"041-540-2369","updatedAt":"2025-05-12","sido":"충청남도","sigungu":"아산시","dong":"둔포면"},{"name":"탕정지구 제7공영주차장","type":"공영","category":"노외","address":"충청남도 아산시 탕정면 매곡리 1408","lat":36.78103502,"lng":127.0876458,"totalSpaces":44,"isFree":true,"operatingDays":"평일+토요일+공휴일","weekdayOpen":"00:00","weekdayClose":"23:59","weekendOpen":"00:00","weekendClose":"23:59","holidayOpen":"00:00","holidayClose":"23:59","feeInfo":"무료","phone":"041-540-2369","updatedAt":"2025-05-12","sido":"충청남도","sigungu":"아산시","dong":"탕정면"},{"name":"탕정지구 제4공영주차장","type":"공영","category":"노외","address":"충청남도 아산시 탕정면 매곡리 1272","lat":36.78491953,"lng":127.0807862,"totalSpaces":42,"isFree":true,"operatingDays":"평일+토요일+공휴일","weekdayOpen":"00:00","weekdayClose":"23:59","weekendOpen":"00:00","weekendClose":"23:59","holidayOpen":"00:00","holidayClose":"23:59","feeInfo":"무료","phone":"041-540-2369","updatedAt":"2025-05-12","sido":"충청남도","sigungu":"아산시","dong":"탕정면"},{"name":"방축동 제2공영주차장","type":"공영","category":"노외","address":"충청남도 아산시 방축동 763","lat":36.77649611,"lng":126.9797536,"totalSpaces":40,"isFree":true,"operatingDays":"평일+토요일+공휴일","weekdayOpen":"00:00","weekdayClose":"23:59","weekendOpen":"00:00","weekendClose":"23:59","holidayOpen":"00:00","holidayClose":"23:59","feeInfo":"무료","phone":"041-540-2369","updatedAt":"2025-05-12","sido":"충청남도","sigungu":"아산시","dong":"방축동"},{"name":"신창역 공영주차장","type":"공영","category":"노외","address":"충청남도 아산시 신창면 행목리 346-1","lat":36.77003989,"lng":126.9516424,"totalSpaces":39,"isFree":true,"operatingDays":"평일+토요일+공휴일","weekdayOpen":"00:00","weekdayClose":"23:59","weekendOpen":"00:00","weekendClose":"23:59","holidayOpen":"00:00","holidayClose":"23:59","feeInfo":"무료","phone":"041-540-2369","updatedAt":"2025-05-12","sido":"충청남도","sigungu":"아산시","dong":"신창면"},{"name":"탕정지구 제3공영주차장","type":"공영","category":"노외","address":"충청남도 아산시 탕정면 매곡리 1240","lat":36.78606749,"lng":127.0810092,"totalSpaces":38,"isFree":true,"operatingDays":"평일+토요일+공휴일","weekdayOpen":"00:00","weekdayClose":"23:59","weekendOpen":"00:00","weekendClose":"23:59","holidayOpen":"00:00","holidayClose":"23:59","feeInfo":"무료","phone":"041-540-2369","updatedAt":"2025-05-12","sido":"충청남도","sigungu":"아산시","dong":"탕정면"},{"name":"배방읍 북수리 제2공영주차장","type":"공영","category":"노외","address":"충청남도 아산시 배방읍 북수리 1672","lat":36.77174922,"lng":127.0745422,"totalSpaces":37,"isFree":true,"operatingDays":"평일+토요일+공휴일","weekdayOpen":"00:00","weekdayClose":"23:59","weekendOpen":"00:00","weekendClose":"23:59","holidayOpen":"00:00","holidayClose":"23:59","feeInfo":"무료","phone":"041-540-2369","updatedAt":"2025-05-12","sido":"충청남도","sigungu":"아산시","dong":"배방읍"},{"name":"신창면 창암리 제2공영주차장","type":"공영","category":"노외","address":"충청남도 아산시 신창면 창암리 539","lat":36.76151666,"lng":126.9618366,"totalSpaces":36,"isFree":true,"operatingDays":"평일+토요일+공휴일","weekdayOpen":"00:00","weekdayClose":"23:59","weekendOpen":"00:00","weekendClose":"23:59","holidayOpen":"00:00","holidayClose":"23:59","feeInfo":"무료","phone":"041-540-2369","updatedAt":"2025-05-12","sido":"충청남도","sigungu":"아산시","dong":"신창면"},{"name":"탕정지구 제9공영주차장","type":"공영","category":"노외","address":"충청남도 아산시 배방읍 세교리 1576","lat":36.77893364,"lng":127.0948968,"totalSpaces":34,"isFree":true,"operatingDays":"평일+토요일+공휴일","weekdayOpen":"00:00","weekdayClose":"23:59","weekendOpen":"00:00","weekendClose":"23:59","holidayOpen":"00:00","holidayClose":"23:59","feeInfo":"무료","phone":"041-540-2369","updatedAt":"2025-05-12","sido":"충청남도","sigungu":"아산시","dong":"배방읍"},{"name":"탕정지구 제5공영주차장","type":"공영","category":"노외","address":"충청남도 아산시 탕정면 매곡리 1329","lat":36.78273465,"lng":127.0820358,"totalSpaces":30,"isFree":true,"operatingDays":"평일+토요일+공휴일","weekdayOpen":"00:00","weekdayClose":"23:59","weekendOpen":"00:00","weekendClose":"23:59","holidayOpen":"00:00","holidayClose":"23:59","feeInfo":"무료","phone":"041-540-2369","updatedAt":"2025-05-12","sido":"충청남도","sigungu":"아산시","dong":"탕정면"},{"name":"실옥동 제2공영주차장","type":"공영","category":"노외","address":"충청남도 아산시 실옥동 181-125","lat":36.78729181,"lng":126.9936293,"totalSpaces":30,"isFree":true,"operatingDays":"평일+토요일+공휴일","weekdayOpen":"00:00","weekdayClose":"23:59","weekendOpen":"00:00","weekendClose":"23:59","holidayOpen":"00:00","holidayClose":"23:59","feeInfo":"무료","phone":"041-540-2369","updatedAt":"2025-05-12","sido":"충청남도","sigungu":"아산시","dong":"실옥동"},{"name":"용화동 제3공영주차장","type":"공영","category":"노외","address":"충청남도 아산시 용화동 1459","lat":36.77235582,"lng":127.0086316,"totalSpaces":30,"isFree":true,"operatingDays":"평일+토요일+공휴일","weekdayOpen":"00:00","weekdayClose":"23:59","weekendOpen":"00:00","weekendClose":"23:59","holidayOpen":"00:00","holidayClose":"23:59","feeInfo":"무료","phone":"041-540-2369","updatedAt":"2025-05-12","sido":"충청남도","sigungu":"아산시","dong":"용화동"},{"name":"인주면 걸매리 제2공영주차장","type":"공영","category":"노외","address":"충청남도 아산시 인주면 걸매리 1024","lat":36.88429345,"lng":126.8805473,"totalSpaces":30,"isFree":true,"operatingDays":"평일+토요일+공휴일","weekdayOpen":"00:00","weekdayClose":"23:59","weekendOpen":"00:00","weekendClose":"23:59","holidayOpen":"00:00","holidayClose":"23:59","feeInfo":"무료","phone":"041-540-2369","updatedAt":"2025-05-12","sido":"충청남도","sigungu":"아산시","dong":"인주면"},{"name":"신창면 읍내리 제1공영주차장","type":"공영","category":"노외","address":"충청남도 아산시 신창면 읍내리 290-5. 291-1","lat":36.777894,"lng":127.933471,"totalSpaces":29,"isFree":true,"operatingDays":"평일+토요일+공휴일","weekdayOpen":"00:00","weekdayClose":"23:59","weekendOpen":"00:00","weekendClose":"23:59","holidayOpen":"00:00","holidayClose":"23:59","feeInfo":"무료","phone":"041-540-2369","updatedAt":"2025-05-12","sido":"충청남도","sigungu":"아산시","dong":"신창면"},{"name":"탕정면 매곡리 제1공영주차장","type":"공영","category":"노외","address":"충청남도 아산시 탕정면 매곡리 1167","lat":36.79235914,"lng":127.0871578,"totalSpaces":28,"isFree":true,"operatingDays":"평일+토요일+공휴일","weekdayOpen":"00:00","weekdayClose":"23:59","weekendOpen":"00:00","weekendClose":"23:59","holidayOpen":"00:00","holidayClose":"23:59","feeInfo":"무료","phone":"041-540-2369","updatedAt":"2025-05-12","sido":"충청남도","sigungu":"아산시","dong":"탕정면"},{"name":"둔포운용산단 공영주차장","type":"공영","category":"노외","address":"충청남도 아산시 둔포면 운용리 668","lat":36.9332331,"lng":127.0638784,"totalSpaces":28,"isFree":true,"operatingDays":"평일+토요일+공휴일","weekdayOpen":"00:00","weekdayClose":"23:59","weekendOpen":"00:00","weekendClose":"23:59","holidayOpen":"00:00","holidayClose":"23:59","feeInfo":"무료","phone":"041-540-2369","updatedAt":"2025-05-12","sido":"충청남도","sigungu":"아산시","dong":"둔포면"},{"name":"방축동 제3공영주차장","type":"공영","category":"노외","address":"충청남도 아산시 방축동 730","lat":36.77440339,"lng":126.9819111,"totalSpaces":28,"isFree":true,"operatingDays":"평일+토요일+공휴일","weekdayOpen":"00:00","weekdayClose":"23:59","weekendOpen":"00:00","weekendClose":"23:59","holidayOpen":"00:00","holidayClose":"23:59","feeInfo":"무료","phone":"041-540-2369","updatedAt":"2025-05-12","sido":"충청남도","sigungu":"아산시","dong":"방축동"},{"name":"배방읍 북수리 제3공영주차장","type":"공영","category":"노외","address":"충청남도 아산시 배방읍 북수리 1649","lat":36.77196691,"lng":127.0776366,"totalSpaces":27,"isFree":true,"operatingDays":"평일+토요일+공휴일","weekdayOpen":"00:00","weekdayClose":"23:59","weekendOpen":"00:00","weekendClose":"23:59","holidayOpen":"00:00","holidayClose":"23:59","feeInfo":"무료","phone":"041-540-2369","updatedAt":"2025-05-12","sido":"충청남도","sigungu":"아산시","dong":"배방읍"},{"name":"용화동 제6공영주차장","type":"공영","category":"노외","address":"충청남도 아산시 온천동 2038","lat":36.779276,"lng":127.011521,"totalSpaces":26,"isFree":true,"operatingDays":"평일+토요일+공휴일","weekdayOpen":"00:00","weekdayClose":"23:59","weekendOpen":"00:00","weekendClose":"23:59","holidayOpen":"00:00","holidayClose":"23:59","feeInfo":"무료","phone":"041-540-2369","updatedAt":"2025-05-12","sido":"충청남도","sigungu":"아산시","dong":"온천동"},{"name":"배방읍 공수리 제1공영주차장","type":"공영","category":"노외","address":"충청남도 아산시 배방읍 공수리 1451","lat":36.77290655,"lng":127.0455917,"totalSpaces":25,"isFree":true,"operatingDays":"평일+토요일+공휴일","weekdayOpen":"00:00","weekdayClose":"23:59","weekendOpen":"00:00","weekendClose":"23:59","holidayOpen":"00:00","holidayClose":"23:59","feeInfo":"무료","phone":"041-540-2369","updatedAt":"2025-05-12","sido":"충청남도","sigungu":"아산시","dong":"배방읍"},{"name":"배방읍 북수리 제6공영주차장","type":"공영","category":"노외","address":"충청남도 아산시 배방읍 북수리 1555","lat":36.77357847,"lng":127.0759004,"totalSpaces":22,"isFree":true,"operatingDays":"평일+토요일+공휴일","weekdayOpen":"00:00","weekdayClose":"23:59","weekendOpen":"00:00","weekendClose":"23:59","holidayOpen":"00:00","holidayClose":"23:59","feeInfo":"무료","phone":"041-540-2369","updatedAt":"2025-05-12","sido":"충청남도","sigungu":"아산시","dong":"배방읍"},{"name":"용화동 제4공영주차장","type":"공영","category":"노외","address":"충청남도 아산시 용화동 1596","lat":36.77410845,"lng":127.0124642,"totalSpaces":22,"isFree":true,"operatingDays":"평일+토요일+공휴일","weekdayOpen":"00:00","weekdayClose":"23:59","weekendOpen":"00:00","weekendClose":"23:59","holidayOpen":"00:00","holidayClose":"23:59","feeInfo":"무료","phone":"041-540-2369","updatedAt":"2025-05-12","sido":"충청남도","sigungu":"아산시","dong":"용화동"},{"name":"전통시장 주차장","type":"공영","category":"노외","address":"충청남도 아산시 온천동 98-15","lat":36.78373862,"lng":127.0034519,"totalSpaces":22,"isFree":true,"operatingDays":"평일+토요일+공휴일","weekdayOpen":"00:00","weekdayClose":"23:59","weekendOpen":"00:00","weekendClose":"23:59","holidayOpen":"00:00","holidayClose":"23:59","feeInfo":"무료","phone":"041-533-6995","updatedAt":"2025-09-01","sido":"충청남도","sigungu":"아산시","dong":"온천동"},{"name":"배방읍 북수리 제5공영주차장","type":"공영","category":"노외","address":"충청남도 아산시 배방읍 북수리 1844","lat":36.77064822,"lng":127.0782799,"totalSpaces":20,"isFree":true,"operatingDays":"평일+토요일+공휴일","weekdayOpen":"00:00","weekdayClose":"23:59","weekendOpen":"00:00","weekendClose":"23:59","holidayOpen":"00:00","holidayClose":"23:59","feeInfo":"무료","phone":"041-540-2369","updatedAt":"2025-05-12","sido":"충청남도","sigungu":"아산시","dong":"배방읍"},{"name":"배방읍 북수리 제7공영주차장","type":"공영","category":"노외","address":"충청남도 아산시 배방읍 북수리 1733","lat":36.77009383,"lng":127.072969,"totalSpaces":20,"isFree":true,"operatingDays":"평일+토요일+공휴일","weekdayOpen":"00:00","weekdayClose":"23:59","weekendOpen":"00:00","weekendClose":"23:59","holidayOpen":"00:00","holidayClose":"23:59","feeInfo":"무료","phone":"041-540-2369","updatedAt":"2025-05-12","sido":"충청남도","sigungu":"아산시","dong":"배방읍"},{"name":"배방읍 북수리 제4공영주차장","type":"공영","category":"노외","address":"충청남도 아산시 배방읍 북수리 1612","lat":36.77199549,"lng":127.079832,"totalSpaces":19,"isFree":true,"operatingDays":"평일+토요일+공휴일","weekdayOpen":"00:00","weekdayClose":"23:59","weekendOpen":"00:00","weekendClose":"23:59","holidayOpen":"00:00","holidayClose":"23:59","feeInfo":"무료","phone":"041-540-2369","updatedAt":"2025-05-12","sido":"충청남도","sigungu":"아산시","dong":"배방읍"},{"name":"탕정지구 제6공영주차장","type":"공영","category":"노외","address":"충청남도 아산시 탕정면 매곡리 1374","lat":36.78059469,"lng":127.0835741,"totalSpaces":18,"isFree":true,"operatingDays":"평일+토요일+공휴일","weekdayOpen":"00:00","weekdayClose":"23:59","weekendOpen":"00:00","weekendClose":"23:59","holidayOpen":"00:00","holidayClose":"23:59","feeInfo":"무료","phone":"041-540-2369","updatedAt":"2025-05-12","sido":"충청남도","sigungu":"아산시","dong":"탕정면"},{"name":"온양2동 공영주차장","type":"공영","category":"노외","address":"충청남도 아산시 온천동 771","lat":36.777894,"lng":127.003325,"totalSpaces":18,"isFree":true,"operatingDays":"평일+토요일+공휴일","weekdayOpen":"00:00","weekdayClose":"23:59","weekendOpen":"00:00","weekendClose":"23:59","holidayOpen":"00:00","holidayClose":"23:59","feeInfo":"무료","phone":"041-540-2369","updatedAt":"2025-05-12","sido":"충청남도","sigungu":"아산시","dong":"온천동"},{"name":"신창면 창암리 제1공영주차장","type":"공영","category":"노외","address":"충청남도 아산시 신창면 창암리 557","lat":36.76066549,"lng":126.9641834,"totalSpaces":17,"isFree":true,"operatingDays":"평일+토요일+공휴일","weekdayOpen":"00:00","weekdayClose":"23:59","weekendOpen":"00:00","weekendClose":"23:59","holidayOpen":"00:00","holidayClose":"23:59","feeInfo":"무료","phone":"041-540-2369","updatedAt":"2025-05-12","sido":"충청남도","sigungu":"아산시","dong":"신창면"},{"name":"온천동 제4공영주차장","type":"공영","category":"노외","address":"충청남도 아산시 온천동 3143","lat":36.785627,"lng":127.000123,"totalSpaces":13,"isFree":true,"operatingDays":"평일+토요일+공휴일","weekdayOpen":"00:00","weekdayClose":"23:59","weekendOpen":"00:00","weekendClose":"23:59","holidayOpen":"00:00","holidayClose":"23:59","feeInfo":"무료","phone":"041-540-2369","updatedAt":"2025-05-12","sido":"충청남도","sigungu":"아산시","dong":"온천동"},{"name":"용화동 제5공영주차장","type":"공영","category":"노외","address":"충청남도 아산시 온천동 2430","lat":36.774873,"lng":127.005112,"totalSpaces":8,"isFree":true,"operatingDays":"평일+토요일+공휴일","weekdayOpen":"00:00","weekdayClose":"23:59","weekendOpen":"00:00","weekendClose":"23:59","holidayOpen":"00:00","holidayClose":"23:59","feeInfo":"무료","phone":"041-540-2369","updatedAt":"2025-05-12","sido":"충청남도","sigungu":"아산시","dong":"온천동"},{"name":"공영노상주차장","type":"공영","category":"노상","address":"충청남도 아산시 온천동 226-3","lat":36.78404307,"lng":127.0010969,"totalSpaces":7,"isFree":true,"operatingDays":"평일+토요일+공휴일","weekdayOpen":"00:00","weekdayClose":"23:59","weekendOpen":"00:00","weekendClose":"23:59","holidayOpen":"00:00","holidayClose":"23:59","feeInfo":"무료","phone":"041-531-6997","updatedAt":"2025-09-01","sido":"충청남도","sigungu":"아산시","dong":"온천동"},{"name":"아산시청 부설주차장","type":"공영","category":"부설","address":"충청남도 아산시 시민로 456","lat":36.79025506,"lng":127.0019107,"totalSpaces":792,"isFree":false,"operatingDays":"평일+토요일+공휴일","weekdayOpen":"00:00","weekdayClose":"23:59","weekendOpen":"00:00","weekendClose":"23:59","holidayOpen":"00:00","holidayClose":"23:59","feeInfo":"기본 130분 1,000원 / 추가 10분당 200원","phone":"041-545-6997","updatedAt":"2025-09-01","sido":"충청남도","sigungu":"아산시","dong":"온천동"},{"name":"탕정 지중해마을 공영주차장","type":"공영","category":"노외","address":"충청남도 아산시 탕정면 명암리 946-2","lat":36.797022,"lng":127.062851,"totalSpaces":198,"isFree":false,"operatingDays":"평일+토요일+공휴일","weekdayOpen":"00:00","weekdayClose":"23:59","weekendOpen":"00:00","weekendClose":"23:59","holidayOpen":"00:00","holidayClose":"23:59","feeInfo":"추가 10분당 300원","phone":"041-540-2369","updatedAt":"2025-05-12","sido":"충청남도","sigungu":"아산시","dong":"탕정면"},{"name":"탕정 지중해마을 공영주차장","type":"공영","category":"노외","address":"충청남도 아산시 탕정면 탕정면로8번길 70","lat":36.7969836368,"lng":127.0628575097,"totalSpaces":196,"isFree":false,"operatingDays":"평일+토요일+공휴일","weekdayOpen":"00:00","weekdayClose":"23:59","weekendOpen":"00:00","weekendClose":"23:59","holidayOpen":"00:00","holidayClose":"23:59","feeInfo":"기본 60분 600원 / 추가 10분당 300원","phone":"041-531-6997","updatedAt":"2025-09-01","sido":"충청남도","sigungu":"아산시","dong":"탕정면"},{"name":"온양온천시장 복합지원센터","type":"공영","category":"노외","address":"충청남도 아산시 시민로 400","lat":36.7840421444,"lng":127.0016246414,"totalSpaces":179,"isFree":false,"operatingDays":"평일+토요일+공휴일","weekdayOpen":"08:00","weekdayClose":"22:00","weekendOpen":"08:00","weekendClose":"22:00","holidayOpen":"08:00","holidayClose":"22:00","feeInfo":"기본 60분 500원 / 추가 10분당 200원","phone":"041-533-6995","updatedAt":"2025-09-01","sido":"충청남도","sigungu":"아산시","dong":"온천동"},{"name":"배방읍 공수리 제3공영주차장","type":"공영","category":"노외","address":"충청남도 아산시 배방읍 공수리 1655","lat":36.77537971,"lng":127.0561747,"totalSpaces":175,"isFree":false,"operatingDays":"평일+토요일+공휴일","weekdayOpen":"00:00","weekdayClose":"23:59","weekendOpen":"00:00","weekendClose":"23:59","holidayOpen":"00:00","holidayClose":"23:59","feeInfo":"추가 10분당 300원","phone":"041-540-2369","updatedAt":"2025-05-12","sido":"충청남도","sigungu":"아산시","dong":"배방읍"},{"name":"공수리 제3공영주차장","type":"공영","category":"노외","address":"충청남도 아산시 배방읍 배방로13번길 18","lat":36.77537971,"lng":127.0561792,"totalSpaces":175,"isFree":false,"operatingDays":"평일+토요일+공휴일","weekdayOpen":"00:00","weekdayClose":"23:59","weekendOpen":"00:00","weekendClose":"23:59","holidayOpen":"00:00","holidayClose":"23:59","feeInfo":"기본 60분 600원 / 추가 10분당 300원","phone":"041-531-6997","updatedAt":"2025-09-01","sido":"충청남도","sigungu":"아산시","dong":"배방읍"},{"name":"온양온천시장 공영주차타워","type":"공영","category":"노외","address":"충청남도 아산시 충무로 25","lat":36.7836217,"lng":127.0045063,"totalSpaces":173,"isFree":false,"operatingDays":"평일+토요일+공휴일","weekdayOpen":"08:00","weekdayClose":"22:00","weekendOpen":"08:00","weekendClose":"22:00","holidayOpen":"08:00","holidayClose":"22:00","feeInfo":"기본 60분 500원 / 추가 10분당 200원","phone":"041-533-6995","updatedAt":"2025-09-01","sido":"충청남도","sigungu":"아산시","dong":"온천동"},{"name":"배방읍 공수리 제2공영주차장","type":"공영","category":"노외","address":"충청남도 아산시 배방읍 공수리 1495","lat":36.77592055,"lng":127.0535933,"totalSpaces":168,"isFree":false,"operatingDays":"평일+토요일+공휴일","weekdayOpen":"00:00","weekdayClose":"23:59","weekendOpen":"00:00","weekendClose":"23:59","holidayOpen":"00:00","holidayClose":"23:59","feeInfo":"추가 10분당 300원","phone":"041-540-2369","updatedAt":"2025-05-12","sido":"충청남도","sigungu":"아산시","dong":"배방읍"},{"name":"한들물빛도시 제1공영주차장","type":"공영","category":"노외","address":"충청남도 아산시 탕정면 한들물빛6로 25","lat":36.7882945092,"lng":127.0858133713,"totalSpaces":165,"isFree":false,"operatingDays":"평일+토요일+공휴일","weekdayOpen":"00:00","weekdayClose":"23:59","weekendOpen":"00:00","weekendClose":"23:59","holidayOpen":"00:00","holidayClose":"23:59","feeInfo":"기본 60분 600원 / 추가 10분당 300원","phone":"041-531-6997","updatedAt":"2025-09-01","sido":"충청남도","sigungu":"아산시","dong":"탕정면"},{"name":"공수리 제2공영주차장","type":"공영","category":"노외","address":"충청남도 아산시 배방읍 배방로 14번길 6","lat":36.77592055,"lng":127.0535933,"totalSpaces":164,"isFree":false,"operatingDays":"평일+토요일+공휴일","weekdayOpen":"00:00","weekdayClose":"23:59","weekendOpen":"00:00","weekendClose":"23:59","holidayOpen":"00:00","holidayClose":"23:59","feeInfo":"기본 60분 600원 / 추가 10분당 300원","phone":"041-531-6997","updatedAt":"2025-09-01","sido":"충청남도","sigungu":"아산시","dong":"배방읍"},{"name":"배방읍 북수리 제1공영주차장","type":"공영","category":"노외","address":"충청남도 아산시 배방읍 북수리 1122","lat":36.77191175,"lng":127.0669931,"totalSpaces":97,"isFree":false,"operatingDays":"평일+토요일+공휴일","weekdayOpen":"00:00","weekdayClose":"23:59","weekendOpen":"00:00","weekendClose":"23:59","holidayOpen":"00:00","holidayClose":"23:59","feeInfo":"추가 10분당 300원","phone":"041-540-2369","updatedAt":"2025-05-12","sido":"충청남도","sigungu":"아산시","dong":"배방읍"},{"name":"북수리 제1공영주차장","type":"공영","category":"노외","address":"충청남도 아산시 배방읍 배방로187번길 16-1","lat":36.771933,"lng":127.0669931,"totalSpaces":97,"isFree":false,"operatingDays":"평일+토요일+공휴일","weekdayOpen":"00:00","weekdayClose":"23:59","weekendOpen":"00:00","weekendClose":"23:59","holidayOpen":"00:00","holidayClose":"23:59","feeInfo":"기본 60분 600원 / 추가 10분당 300원","phone":"041-531-6997","updatedAt":"2025-09-01","sido":"충청남도","sigungu":"아산시","dong":"배방읍"},{"name":"온양온천역 제4공영주차장","type":"공영","category":"노외","address":"충청남도 아산시 온천대로 1496","lat":36.78046828,"lng":127.0034511,"totalSpaces":97,"isFree":false,"operatingDays":"평일+토요일+공휴일","weekdayOpen":"08:00","weekdayClose":"22:00","weekendOpen":"08:00","weekendClose":"22:00","holidayOpen":"08:00","holidayClose":"22:00","feeInfo":"기본 60분 500원 / 추가 10분당 200원","phone":"041-533-6995","updatedAt":"2025-09-01","sido":"충청남도","sigungu":"아산시","dong":""},{"name":"장재리 제1공영주차장","type":"공영","category":"노외","address":"충청남도 아산시 배방읍 장재리 2022","lat":36.79538751,"lng":127.1059616,"totalSpaces":87,"isFree":false,"operatingDays":"평일+토요일+공휴일","weekdayOpen":"00:00","weekdayClose":"23:59","weekendOpen":"00:00","weekendClose":"23:59","holidayOpen":"00:00","holidayClose":"23:59","feeInfo":"기본 60분 600원 / 추가 10분당 300원","phone":"041-531-6997","updatedAt":"2025-09-01","sido":"충청남도","sigungu":"아산시","dong":"배방읍"},{"name":"온천동 제3공영주차장","type":"공영","category":"노외","address":"충청남도 아산시 온천동 2999","lat":36.775789,"lng":127.010725,"totalSpaces":84,"isFree":false,"operatingDays":"평일+토요일+공휴일","weekdayOpen":"00:00","weekdayClose":"23:59","weekendOpen":"00:00","weekendClose":"23:59","holidayOpen":"00:00","holidayClose":"23:59","feeInfo":"추가 10분당 300원","phone":"041-540-2369","updatedAt":"2025-05-12","sido":"충청남도","sigungu":"아산시","dong":"온천동"},{"name":"온천동 제3공영주차장","type":"공영","category":"노외","address":"충청남도 아산시 용화로 48번길 19-7","lat":36.775724,"lng":127.010788,"totalSpaces":84,"isFree":false,"operatingDays":"평일+토요일+공휴일","weekdayOpen":"00:00","weekdayClose":"23:59","weekendOpen":"00:00","weekendClose":"23:59","holidayOpen":"00:00","holidayClose":"23:59","feeInfo":"기본 60분 600원 / 추가 10분당 300원","phone":"041-531-6997","updatedAt":"2025-09-01","sido":"충청남도","sigungu":"아산시","dong":"온천동"},{"name":"온천동 제2공영주차장","type":"공영","category":"노외","address":"충청남도 아산시 온천동 2829","lat":36.778187,"lng":127.008879,"totalSpaces":83,"isFree":false,"operatingDays":"평일+토요일+공휴일","weekdayOpen":"00:00","weekdayClose":"23:59","weekendOpen":"00:00","weekendClose":"23:59","holidayOpen":"00:00","holidayClose":"23:59","feeInfo":"추가 10분당 300원","phone":"041-540-2369","updatedAt":"2025-05-12","sido":"충청남도","sigungu":"아산시","dong":"온천동"},{"name":"온천동 제2공영주차장","type":"공영","category":"노외","address":"충청남도 아산시 용화로 76번길 25","lat":36.778121,"lng":127.0088917,"totalSpaces":83,"isFree":false,"operatingDays":"평일+토요일+공휴일","weekdayOpen":"00:00","weekdayClose":"23:59","weekendOpen":"00:00","weekendClose":"23:59","holidayOpen":"00:00","holidayClose":"23:59","feeInfo":"기본 60분 600원 / 추가 10분당 300원","phone":"041-531-6997","updatedAt":"2025-09-01","sido":"충청남도","sigungu":"아산시","dong":"온천동"},{"name":"온양온천역 제1공영주차장","type":"공영","category":"노외","address":"충청남도 아산시 온천대로 1496","lat":36.78046828,"lng":127.0034511,"totalSpaces":78,"isFree":false,"operatingDays":"평일+토요일+공휴일","weekdayOpen":"08:00","weekdayClose":"22:00","weekendOpen":"08:00","weekendClose":"22:00","holidayOpen":"08:00","holidayClose":"22:00","feeInfo":"기본 60분 500원 / 추가 10분당 200원","phone":"041-533-6995","updatedAt":"2025-09-01","sido":"충청남도","sigungu":"아산시","dong":"온천동"},{"name":"모종동 제1공영주차장","type":"공영","category":"노외","address":"충청남도 아산시 번영로196번길 7-9 주차장","lat":36.78417858,"lng":127.0130422,"totalSpaces":63,"isFree":false,"operatingDays":"평일+토요일+공휴일","weekdayOpen":"00:00","weekdayClose":"23:59","weekendOpen":"00:00","weekendClose":"23:59","holidayOpen":"00:00","holidayClose":"23:59","feeInfo":"기본 60분 600원 / 추가 10분당 300원","phone":"041-531-6997","updatedAt":"2025-09-01","sido":"충청남도","sigungu":"아산시","dong":"모종동"},{"name":"배방읍 공수리 제1공영주차장","type":"공영","category":"노외","address":"충청남도 아산시 배방읍 공수리 61-115","lat":36.77457352,"lng":127.0631814671,"totalSpaces":59,"isFree":false,"operatingDays":"평일+토요일+공휴일","weekdayOpen":"00:00","weekdayClose":"23:59","weekendOpen":"00:00","weekendClose":"23:59","holidayOpen":"00:00","holidayClose":"23:59","feeInfo":"기본 60분 600원 / 추가 10분당 300원","phone":"041-531-6997","updatedAt":"2025-09-01","sido":"충청남도","sigungu":"아산시","dong":"배방읍"},{"name":"배방읍 행정복지센터 부설주차장","type":"공영","category":"부설","address":"충청남도 아산시 배방읍 배방로 38","lat":36.773831,"lng":127.0536369,"totalSpaces":57,"isFree":false,"operatingDays":"평일+토요일+공휴일","weekdayOpen":"00:00","weekdayClose":"23:59","weekendOpen":"00:00","weekendClose":"23:59","holidayOpen":"00:00","holidayClose":"23:59","feeInfo":"기본 130분 1,000원 / 추가 10분당 200원","phone":"041-531-6997","updatedAt":"2025-09-01","sido":"충청남도","sigungu":"아산시","dong":"배방읍"},{"name":"배방읍 세교리 제1공영주차장","type":"공영","category":"노외","address":"충청남도 아산시 배방읍 세교리 1532","lat":36.7805071885,"lng":127.0920715156,"totalSpaces":55,"isFree":false,"operatingDays":"평일+토요일+공휴일","weekdayOpen":"00:00","weekdayClose":"23:59","weekendOpen":"00:00","weekendClose":"23:59","holidayOpen":"00:00","holidayClose":"23:59","feeInfo":"기본 60분 600원 / 추가 10분당 300원","phone":"041-531-6997","updatedAt":"2025-09-01","sido":"충청남도","sigungu":"아산시","dong":"배방읍"},{"name":"캠핑용자동차 전용공영주차장","type":"공영","category":"노외","address":"충청남도 아산시 염치읍 서원리 산10-5","lat":36.838541,"lng":126.972635,"totalSpaces":29,"isFree":false,"operatingDays":"평일+토요일+공휴일","weekdayOpen":"00:00","weekdayClose":"23:59","weekendOpen":"00:00","weekendClose":"23:59","holidayOpen":"00:00","holidayClose":"23:59","feeInfo":"유료","phone":"041-540-2369","updatedAt":"2025-05-12","sido":"충청남도","sigungu":"아산시","dong":"염치읍"},{"name":"캠핑용자동차 전용주차장","type":"공영","category":"노외","address":"충청남도 아산시 염치읍 아산로710번길 67","lat":36.83849933,"lng":126.9726365,"totalSpaces":29,"isFree":false,"operatingDays":"평일+토요일+공휴일","weekdayOpen":"00:00","weekdayClose":"23:59","weekendOpen":"00:00","weekendClose":"23:59","holidayOpen":"00:00","holidayClose":"23:59","feeInfo":"유료","phone":"041-531-6997","updatedAt":"2025-09-01","sido":"충청남도","sigungu":"아산시","dong":"염치읍"},{"name":"탕정면 매곡리 제1공영주차장","type":"공영","category":"노외","address":"충청남도 아산시 탕정면 매곡리 1167","lat":36.7923590979,"lng":127.0871577972,"totalSpaces":27,"isFree":false,"operatingDays":"평일+토요일+공휴일","weekdayOpen":"00:00","weekdayClose":"23:59","weekendOpen":"00:00","weekendClose":"23:59","holidayOpen":"00:00","holidayClose":"23:59","feeInfo":"기본 60분 600원 / 추가 10분당 300원","phone":"041-531-6997","updatedAt":"2025-09-01","sido":"충청남도","sigungu":"아산시","dong":"탕정면"},{"name":"장재리 제4공영주차장","type":"공영","category":"노외","address":"충청남도 아산시 배방읍 장재리 2011","lat":36.79596986,"lng":127.1029916,"totalSpaces":20,"isFree":false,"operatingDays":"평일+토요일+공휴일","weekdayOpen":"00:00","weekdayClose":"23:59","weekendOpen":"00:00","weekendClose":"23:59","holidayOpen":"00:00","holidayClose":"23:59","feeInfo":"기본 60분 600원 / 추가 10분당 300원","phone":"041-531-6997","updatedAt":"2025-09-01","sido":"충청남도","sigungu":"아산시","dong":"배방읍"},{"name":"온양온천역 제2공영주차장","type":"공영","category":"노외","address":"충청남도 아산시 온천대로 1496","lat":36.78046828,"lng":127.0034511,"totalSpaces":19,"isFree":false,"operatingDays":"평일+토요일+공휴일","weekdayOpen":"08:00","weekdayClose":"22:00","weekendOpen":"08:00","weekendClose":"22:00","holidayOpen":"08:00","holidayClose":"22:00","feeInfo":"기본 60분 500원 / 추가 10분당 200원","phone":"041-533-6995","updatedAt":"2025-09-01","sido":"충청남도","sigungu":"아산시","dong":"온천동"},{"name":"온양온천역 제3공영주차장","type":"공영","category":"노외","address":"충청남도 아산시 온천대로 1496","lat":36.7804682814,"lng":127.0034511105,"totalSpaces":12,"isFree":false,"operatingDays":"평일+토요일+공휴일","weekdayOpen":"08:00","weekdayClose":"22:00","weekendOpen":"08:00","weekendClose":"22:00","holidayOpen":"08:00","holidayClose":"22:00","feeInfo":"기본 60분 500원 / 추가 10분당 200원","phone":"041-533-6995","updatedAt":"2025-09-01","sido":"충청남도","sigungu":"아산시","dong":"온천동"}]}