{"sido":"충청남도","sigungu":"태안군","totalCount":37,"validCount":36,"items":[{"name":"신진대교 아래 주차장","type":"공영","category":"노외","address":"충청남도 태안군 근흥면 신진도리 253","lat":36.68258966,"lng":126.1498552,"totalSpaces":350,"isFree":true,"operatingDays":"평일+토요일+공휴일","weekdayOpen":"01:00","weekdayClose":"23:59","weekendOpen":"01:00","weekendClose":"23:59","holidayOpen":"01:00","holidayClose":"23:59","feeInfo":"무료","phone":"041-670-2718","updatedAt":"2025-12-29","sido":"충청남도","sigungu":"태안군","dong":"근흥면"},{"name":"신진도 새마을금고 주변 주차장","type":"공영","category":"노외","address":"충청남도 태안군 근흥면 신진도리 528","lat":36.67840568,"lng":126.1372996,"totalSpaces":150,"isFree":true,"operatingDays":"평일+토요일+공휴일","weekdayOpen":"01:00","weekdayClose":"23:59","weekendOpen":"01:00","weekendClose":"23:59","holidayOpen":"01:00","holidayClose":"23:59","feeInfo":"무료","phone":"041-670-2718","updatedAt":"2025-12-29","sido":"충청남도","sigungu":"태안군","dong":"근흥면"},{"name":"태안여고 로터리 주변 주차장","type":"공영","category":"노외","address":"충청남도 태안군 태안읍 남문리 362","lat":36.75809966,"lng":126.2908031,"totalSpaces":117,"isFree":true,"operatingDays":"평일+토요일+공휴일","weekdayOpen":"01:00","weekdayClose":"23:59","weekendOpen":"01:00","weekendClose":"23:59","holidayOpen":"01:00","holidayClose":"23:59","feeInfo":"무료","phone":"041-670-2718","updatedAt":"2025-12-29","sido":"충청남도","sigungu":"태안군","dong":"태안읍"},{"name":"구터미널 주차장","type":"공영","category":"노외","address":"충청남도 태안군 태안읍 남문리 573-1","lat":36.75516945,"lng":126.2945821,"totalSpaces":114,"isFree":true,"operatingDays":"평일+토요일+공휴일","weekdayOpen":"01:00","weekdayClose":"23:59","weekendOpen":"01:00","weekendClose":"23:59","holidayOpen":"01:00","holidayClose":"23:59","feeInfo":"무료","phone":"041-670-2718","updatedAt":"2025-12-29","sido":"충청남도","sigungu":"태안군","dong":"태안읍"},{"name":"수산시장 옆 주차장","type":"공영","category":"노외","address":"충청남도 태안군 안면읍 승언리 350","lat":36.51689337,"lng":126.3477882,"totalSpaces":105,"isFree":true,"operatingDays":"평일+토요일+공휴일","weekdayOpen":"01:00","weekdayClose":"23:59","weekendOpen":"01:00","weekendClose":"23:59","holidayOpen":"01:00","holidayClose":"23:59","feeInfo":"무료","phone":"041-670-2718","updatedAt":"2025-12-29","sido":"충청남도","sigungu":"태안군","dong":"안면읍"},{"name":"농아인협회 주변 주차장","type":"공영","category":"노외","address":"충청남도 태안군 태안읍 동문리 481-1","lat":36.75428804,"lng":126.2981365,"totalSpaces":89,"isFree":true,"operatingDays":"평일+토요일+공휴일","weekdayOpen":"01:00","weekdayClose":"23:59","weekendOpen":"01:00","weekendClose":"23:59","holidayOpen":"01:00","holidayClose":"23:59","feeInfo":"무료","phone":"041-670-2718","updatedAt":"2025-12-29","sido":"충청남도","sigungu":"태안군","dong":"태안읍"},{"name":"공영버스터미널 뒤 주차장","type":"공영","category":"노외","address":"충청남도 태안군 태안읍 남문리 705-6","lat":36.74733464,"lng":126.3017279,"totalSpaces":79,"isFree":true,"operatingDays":"평일+토요일+공휴일","weekdayOpen":"01:00","weekdayClose":"23:59","weekendOpen":"01:00","weekendClose":"23:59","holidayOpen":"01:00","holidayClose":"23:59","feeInfo":"무료","phone":"041-670-2718","updatedAt":"2025-12-29","sido":"충청남도","sigungu":"태안군","dong":"태안읍"},{"name":"동부시장 앞 주차장","type":"공영","category":"노외","address":"충청남도 태안군 태안읍 동문리 283-1","lat":36.75119506,"lng":126.2987851,"totalSpaces":75,"isFree":true,"operatingDays":"평일+토요일+공휴일","weekdayOpen":"01:00","weekdayClose":"23:59","weekendOpen":"01:00","weekendClose":"23:59","holidayOpen":"01:00","holidayClose":"23:59","feeInfo":"무료","phone":"041-670-2718","updatedAt":"2025-12-29","sido":"충청남도","sigungu":"태안군","dong":"태안읍"},{"name":"태안읍 새마을금고 뒤 주차장","type":"공영","category":"노외","address":"충청남도 태안군 태안읍 동문리 894-1","lat":36.74682847,"lng":126.3044799,"totalSpaces":61,"isFree":true,"operatingDays":"평일+토요일+공휴일","weekdayOpen":"01:00","weekdayClose":"23:59","weekendOpen":"01:00","weekendClose":"23:59","holidayOpen":"01:00","holidayClose":"23:59","feeInfo":"무료","phone":"041-670-2718","updatedAt":"2025-12-29","sido":"충청남도","sigungu":"태안군","dong":"태안읍"},{"name":"이원면 가재산 입구 주차장","type":"공영","category":"노외","address":"충청남도 태안군 이원면 포지리 51-12","lat":36.86912433,"lng":126.2797643,"totalSpaces":60,"isFree":true,"operatingDays":"평일+토요일+공휴일","weekdayOpen":"01:00","weekdayClose":"23:59","weekendOpen":"01:00","weekendClose":"23:59","holidayOpen":"01:00","holidayClose":"23:59","feeInfo":"무료","phone":"041-670-2718","updatedAt":"2025-12-29","sido":"충청남도","sigungu":"태안군","dong":"이원면"},{"name":"태안초등학교 뒤 주차장","type":"공영","category":"노외","address":"충청남도 태안군 태안읍 남문리 317-2","lat":36.75956754,"lng":126.294579,"totalSpaces":42,"isFree":true,"operatingDays":"평일+토요일+공휴일","weekdayOpen":"01:00","weekdayClose":"23:59","weekendOpen":"01:00","weekendClose":"23:59","holidayOpen":"01:00","holidayClose":"23:59","feeInfo":"무료","phone":"041-670-2718","updatedAt":"2025-12-29","sido":"충청남도","sigungu":"태안군","dong":"태안읍"},{"name":"마린마트 옆 주차장","type":"공영","category":"노외","address":"충청남도 태안군 태안읍 남문리 468","lat":36.75569512,"lng":126.2913889,"totalSpaces":40,"isFree":true,"operatingDays":"평일+토요일+공휴일","weekdayOpen":"01:00","weekdayClose":"23:59","weekendOpen":"01:00","weekendClose":"23:59","holidayOpen":"01:00","holidayClose":"23:59","feeInfo":"무료","phone":"041-670-2718","updatedAt":"2025-12-29","sido":"충청남도","sigungu":"태안군","dong":"태안읍"},{"name":"노인복지관 옆 주차장","type":"공영","category":"노외","address":"충청남도 태안군 안면읍 승언리 1122-17","lat":36.51656298,"lng":126.3444896,"totalSpaces":38,"isFree":true,"operatingDays":"평일+토요일+공휴일","weekdayOpen":"01:00","weekdayClose":"23:59","weekendOpen":"01:00","weekendClose":"23:59","holidayOpen":"01:00","holidayClose":"23:59","feeInfo":"무료","phone":"041-670-2718","updatedAt":"2025-12-29","sido":"충청남도","sigungu":"태안군","dong":"안면읍"},{"name":"허내과 주변 주차장","type":"공영","category":"노외","address":"충청남도 태안군 태안읍 남문리 152-5","lat":36.75146028,"lng":126.2983036,"totalSpaces":36,"isFree":true,"operatingDays":"평일+토요일+공휴일","weekdayOpen":"01:00","weekdayClose":"23:59","weekendOpen":"01:00","weekendClose":"23:59","holidayOpen":"01:00","holidayClose":"23:59","feeInfo":"무료","phone":"041-670-2718","updatedAt":"2025-12-29","sido":"충청남도","sigungu":"태안군","dong":"태안읍"},{"name":"그린내빌 옆 주차장","type":"공영","category":"노외","address":"충청남도 태안군 태안읍 동문리 335","lat":36.75207058,"lng":126.3044231,"totalSpaces":36,"isFree":true,"operatingDays":"평일+토요일+공휴일","weekdayOpen":"01:00","weekdayClose":"23:59","weekendOpen":"01:00","weekendClose":"23:59","holidayOpen":"01:00","holidayClose":"23:59","feeInfo":"무료","phone":"041-670-2718","updatedAt":"2025-12-29","sido":"충청남도","sigungu":"태안군","dong":"태안읍"},{"name":"대림아파트 앞 주차장","type":"공영","category":"노외","address":"충청남도 태안군 태안읍 동문리 677-1","lat":36.75665217,"lng":126.3007117,"totalSpaces":35,"isFree":true,"operatingDays":"평일+토요일+공휴일","weekdayOpen":"01:00","weekdayClose":"23:59","weekendOpen":"01:00","weekendClose":"23:59","holidayOpen":"01:00","holidayClose":"23:59","feeInfo":"무료","phone":"041-670-2718","updatedAt":"2025-12-29","sido":"충청남도","sigungu":"태안군","dong":"태안읍"},{"name":"주영아파트 뒤 주차장","type":"공영","category":"노외","address":"충청남도 태안군 태안읍 남문리 688-4","lat":36.74889878,"lng":126.2994793,"totalSpaces":34,"isFree":true,"operatingDays":"평일+토요일+공휴일","weekdayOpen":"01:00","weekdayClose":"23:59","weekendOpen":"01:00","weekendClose":"23:59","holidayOpen":"01:00","holidayClose":"23:59","feeInfo":"무료","phone":"041-670-2718","updatedAt":"2025-12-29","sido":"충청남도","sigungu":"태안군","dong":"태안읍"},{"name":"태안초등학교 앞 주차장","type":"공영","category":"노외","address":"충청남도 태안군 태안읍 남문리 300-102","lat":36.75824813,"lng":126.2962917,"totalSpaces":33,"isFree":true,"operatingDays":"평일+토요일+공휴일","weekdayOpen":"01:00","weekdayClose":"23:59","weekendOpen":"01:00","weekendClose":"23:59","holidayOpen":"01:00","holidayClose":"23:59","feeInfo":"무료","phone":"041-670-2718","updatedAt":"2025-12-29","sido":"충청남도","sigungu":"태안군","dong":"태안읍"},{"name":"대우식당 뒤 주차장","type":"공영","category":"노외","address":"충청남도 태안군 태안읍 남문리 710-11","lat":36.74647934,"lng":126.3023436,"totalSpaces":31,"isFree":true,"operatingDays":"평일+토요일+공휴일","weekdayOpen":"01:00","weekdayClose":"23:59","weekendOpen":"01:00","weekendClose":"23:59","holidayOpen":"01:00","holidayClose":"23:59","feeInfo":"무료","phone":"041-670-2718","updatedAt":"2025-12-29","sido":"충청남도","sigungu":"태안군","dong":"태안읍"},{"name":"이원면 면사무소 인근 주차장","type":"공영","category":"노외","address":"충청남도 태안군 이원면 포지리 33-16","lat":36.87026984,"lng":126.2808494,"totalSpaces":30,"isFree":true,"operatingDays":"평일+토요일+공휴일","weekdayOpen":"01:00","weekdayClose":"23:59","weekendOpen":"01:00","weekendClose":"23:59","holidayOpen":"01:00","holidayClose":"23:59","feeInfo":"무료","phone":"041-670-2718","updatedAt":"2025-12-29","sido":"충청남도","sigungu":"태안군","dong":"이원면"},{"name":"흑돼지 한 마리 앞 주차장","type":"공영","category":"노외","address":"충청남도 태안군 태안읍 동문리 884-6","lat":36.74854944,"lng":126.3047279,"totalSpaces":28,"isFree":true,"operatingDays":"평일+토요일+공휴일","weekdayOpen":"01:00","weekdayClose":"23:59","weekendOpen":"01:00","weekendClose":"23:59","holidayOpen":"01:00","holidayClose":"23:59","feeInfo":"무료","phone":"041-670-2718","updatedAt":"2025-12-29","sido":"충청남도","sigungu":"태안군","dong":"태안읍"},{"name":"해송아파트 옆 주차장","type":"공영","category":"노외","address":"충청남도 태안군 태안읍 삭선리 906-2","lat":36.78357969,"lng":126.2761675,"totalSpaces":27,"isFree":true,"operatingDays":"평일+토요일+공휴일","weekdayOpen":"01:00","weekdayClose":"23:59","weekendOpen":"01:00","weekendClose":"23:59","holidayOpen":"01:00","holidayClose":"23:59","feeInfo":"무료","phone":"041-670-2718","updatedAt":"2025-12-29","sido":"충청남도","sigungu":"태안군","dong":"태안읍"},{"name":"진흥아파트 옆 주차장","type":"공영","category":"노외","address":"충청남도 태안군 남면 신장리 374-26","lat":36.67530306,"lng":126.2951082,"totalSpaces":27,"isFree":true,"operatingDays":"평일+토요일+공휴일","weekdayOpen":"01:00","weekdayClose":"23:59","weekendOpen":"01:00","weekendClose":"23:59","holidayOpen":"01:00","holidayClose":"23:59","feeInfo":"무료","phone":"041-670-2718","updatedAt":"2025-12-29","sido":"충청남도","sigungu":"태안군","dong":"남면"},{"name":"청학동 옆 임시공영주차장","type":"공영","category":"노외","address":"충청남도 태안군 태안읍 남문리 713-4","lat":36.746065,"lng":126.3032,"totalSpaces":26,"isFree":true,"operatingDays":"평일+토요일+공휴일","weekdayOpen":"01:00","weekdayClose":"23:59","weekendOpen":"01:00","weekendClose":"23:59","holidayOpen":"01:00","holidayClose":"23:59","feeInfo":"무료","phone":"041-670-2718","updatedAt":"2025-12-29","sido":"충청남도","sigungu":"태안군","dong":"태안읍"},{"name":"백화산 만남의광장","type":"공영","category":"노외","address":"충청남도 태안군 태안읍 동문리 8-3","lat":36.75557146,"lng":126.3118495,"totalSpaces":20,"isFree":true,"operatingDays":"평일+토요일+공휴일","weekdayOpen":"01:00","weekdayClose":"23:59","weekendOpen":"01:00","weekendClose":"23:59","holidayOpen":"01:00","holidayClose":"23:59","feeInfo":"무료","phone":"041-670-2718","updatedAt":"2025-12-29","sido":"충청남도","sigungu":"태안군","dong":"태안읍"},{"name":"남면 하나로마트 주변 주차장","type":"공영","category":"노외","address":"충청남도 태안군 남면 신장리 374-26","lat":36.67530306,"lng":126.2951082,"totalSpaces":20,"isFree":true,"operatingDays":"평일+토요일+공휴일","weekdayOpen":"01:00","weekdayClose":"23:59","weekendOpen":"01:00","weekendClose":"23:59","holidayOpen":"01:00","holidayClose":"23:59","feeInfo":"무료","phone":"041-670-2718","updatedAt":"2025-12-29","sido":"충청남도","sigungu":"태안군","dong":"남면"},{"name":"온양하우스 뒤 주차장","type":"공영","category":"노외","address":"충청남도 태안군 태안읍 동문리 880-8","lat":36.7491296,"lng":126.3043339,"totalSpaces":18,"isFree":true,"operatingDays":"평일+토요일+공휴일","weekdayOpen":"01:00","weekdayClose":"23:59","weekendOpen":"01:00","weekendClose":"23:59","holidayOpen":"01:00","holidayClose":"23:59","feeInfo":"무료","phone":"041-670-2718","updatedAt":"2025-12-29","sido":"충청남도","sigungu":"태안군","dong":"태안읍"},{"name":"새빛마을 주변 1주차장","type":"공영","category":"노외","address":"충청남도 태안군 태안읍 평천리 1502","lat":36.74790171,"lng":126.3115051,"totalSpaces":16,"isFree":true,"operatingDays":"평일+토요일+공휴일","weekdayOpen":"01:00","weekdayClose":"23:59","weekendOpen":"01:00","weekendClose":"23:59","holidayOpen":"01:00","holidayClose":"23:59","feeInfo":"무료","phone":"041-670-2718","updatedAt":"2025-12-29","sido":"충청남도","sigungu":"태안군","dong":"태안읍"},{"name":"새빛마을 주변 2주차장","type":"공영","category":"노외","address":"충청남도 태안군 태안읍 평천리 1506","lat":36.74715852,"lng":126.3115497,"totalSpaces":14,"isFree":true,"operatingDays":"평일+토요일+공휴일","weekdayOpen":"01:00","weekdayClose":"23:59","weekendOpen":"01:00","weekendClose":"23:59","holidayOpen":"01:00","holidayClose":"23:59","feeInfo":"무료","phone":"041-670-2718","updatedAt":"2025-12-29","sido":"충청남도","sigungu":"태안군","dong":"태안읍"},{"name":"서부발전 주변 4주차장","type":"공영","category":"노외","address":"충청남도 태안군 태안읍 평천리 1495","lat":36.75003532,"lng":126.3171849,"totalSpaces":13,"isFree":true,"operatingDays":"평일+토요일+공휴일","weekdayOpen":"01:00","weekdayClose":"23:59","weekendOpen":"01:00","weekendClose":"23:59","holidayOpen":"01:00","holidayClose":"23:59","feeInfo":"무료","phone":"041-670-2718","updatedAt":"2025-12-29","sido":"충청남도","sigungu":"태안군","dong":"태안읍"},{"name":"백화산 입구 주차장","type":"공영","category":"노외","address":"충청남도 태안군 태안읍 삭선리 513-2","lat":36.76386932,"lng":126.2884559,"totalSpaces":11,"isFree":true,"operatingDays":"평일+토요일+공휴일","weekdayOpen":"01:00","weekdayClose":"23:59","weekendOpen":"01:00","weekendClose":"23:59","holidayOpen":"01:00","holidayClose":"23:59","feeInfo":"무료","phone":"041-670-2718","updatedAt":"2025-12-29","sido":"충청남도","sigungu":"태안군","dong":"태안읍"},{"name":"이화빌리지 옆 주차장","type":"공영","category":"노외","address":"충청남도 태안군 태안읍 동문리 419-2","lat":36.75571453,"lng":126.3013761,"totalSpaces":11,"isFree":true,"operatingDays":"평일+토요일+공휴일","weekdayOpen":"01:00","weekdayClose":"23:59","weekendOpen":"01:00","weekendClose":"23:59","holidayOpen":"01:00","holidayClose":"23:59","feeInfo":"무료","phone":"041-670-2718","updatedAt":"2025-12-29","sido":"충청남도","sigungu":"태안군","dong":"태안읍"},{"name":"삼성아파트 주변 주차장","type":"공영","category":"노외","address":"충청남도 태안군 태안읍 남문리 649-18","lat":36.74855079,"lng":126.2933666,"totalSpaces":9,"isFree":true,"operatingDays":"평일+토요일+공휴일","weekdayOpen":"01:00","weekdayClose":"23:59","weekendOpen":"01:00","weekendClose":"23:59","holidayOpen":"01:00","holidayClose":"23:59","feeInfo":"무료","phone":"041-670-2718","updatedAt":"2025-12-29","sido":"충청남도","sigungu":"태안군","dong":"태안읍"},{"name":"동신연립 주변 주차장","type":"공영","category":"노외","address":"충청남도 태안군 태안읍 동문리 364-9","lat":36.75257447,"lng":126.3051789,"totalSpaces":8,"isFree":true,"operatingDays":"평일+토요일+공휴일","weekdayOpen":"01:00","weekdayClose":"23:59","weekendOpen":"01:00","weekendClose":"23:59","holidayOpen":"01:00","holidayClose":"23:59","feeInfo":"무료","phone":"041-670-2718","updatedAt":"2025-12-29","sido":"충청남도","sigungu":"태안군","dong":"태안읍"},{"name":"새빛마을 주변 3주차장","type":"공영","category":"노외","address":"충청남도 태안군 태안읍 평천리 1512","lat":36.74623447,"lng":126.3117399,"totalSpaces":7,"isFree":true,"operatingDays":"평일+토요일+공휴일","weekdayOpen":"01:00","weekdayClose":"23:59","weekendOpen":"01:00","weekendClose":"23:59","holidayOpen":"01:00","holidayClose":"23:59","feeInfo":"무료","phone":"041-670-2718","updatedAt":"2025-12-29","sido":"충청남도","sigungu":"태안군","dong":"태안읍"},{"name":"남문공영주차장","type":"공영","category":"노외","address":"충청남도 태안군 태안읍 남문리 156-3","lat":36.75211746,"lng":126.2963048,"totalSpaces":414,"isFree":false,"operatingDays":"평일+토요일+공휴일","weekdayOpen":"01:00","weekdayClose":"23:59","weekendOpen":"01:00","weekendClose":"23:59","holidayOpen":"01:00","holidayClose":"23:59","feeInfo":"기본 60분 0원 / 추가 30분당 200원","phone":"041-670-2718","updatedAt":"2025-12-29","sido":"충청남도","sigungu":"태안군","dong":"태안읍"}]}