{"sido":"충청남도","sigungu":"홍성군","totalCount":77,"validCount":66,"items":[{"name":"서부 남당주차장","type":"공영","category":"노외","address":"충청남도 홍성군 서부면 남당리 578-2","lat":36.54198413,"lng":126.4718903,"totalSpaces":239,"isFree":true,"operatingDays":"평일+토요일+공휴일","weekdayOpen":"00:00","weekdayClose":"23:59","weekendOpen":"00:00","weekendClose":"23:59","holidayOpen":"00:00","holidayClose":"23:59","feeInfo":"무료","phone":"041-630-1898","updatedAt":"2025-12-31","sido":"충청남도","sigungu":"홍성군","dong":"서부면"},{"name":"광천 중담2 주차장","type":"공영","category":"노외","address":"충청남도 홍성군 광천읍 담산리 915-55","lat":36.48697666,"lng":126.6428307,"totalSpaces":187,"isFree":true,"operatingDays":"평일+토요일+공휴일","weekdayOpen":"00:00","weekdayClose":"23:59","weekendOpen":"00:00","weekendClose":"23:59","holidayOpen":"00:00","holidayClose":"23:59","feeInfo":"무료","phone":"041-630-1898","updatedAt":"2025-12-31","sido":"충청남도","sigungu":"홍성군","dong":"광천읍"},{"name":"서부면 어사리 공영주차장","type":"공영","category":"노외","address":"충청남도 홍성군 서부면 어사리 732-9","lat":36.55102733,"lng":126.467066,"totalSpaces":168,"isFree":true,"operatingDays":"평일+토요일+공휴일","weekdayOpen":"00:00","weekdayClose":"23:59","weekendOpen":"00:00","weekendClose":"23:59","holidayOpen":"00:00","holidayClose":"23:59","feeInfo":"무료","phone":"041-630-1898","updatedAt":"2025-12-31","sido":"충청남도","sigungu":"홍성군","dong":"서부면"},{"name":"홍성읍행정복지센터 및 군보건소 공영주차장","type":"공영","category":"노외","address":"충청남도 홍성군 홍성읍 오관리 479-5","lat":36.59572157,"lng":126.6623236,"totalSpaces":162,"isFree":true,"operatingDays":"평일+토요일+공휴일","weekdayOpen":"00:00","weekdayClose":"23:59","weekendOpen":"00:00","weekendClose":"23:59","holidayOpen":"00:00","holidayClose":"23:59","feeInfo":"무료","phone":"041-630-1898","updatedAt":"2025-12-31","sido":"충청남도","sigungu":"홍성군","dong":"홍성읍"},{"name":"홍성역세권 공영주차장","type":"공영","category":"노외","address":"충청남도 홍성군 홍성읍 고암리 444-3","lat":36.5992,"lng":126.6791618917,"totalSpaces":162,"isFree":true,"operatingDays":"평일+토요일+공휴일","weekdayOpen":"00:00","weekdayClose":"23:59","weekendOpen":"00:00","weekendClose":"23:59","holidayOpen":"00:00","holidayClose":"23:59","feeInfo":"무료","phone":"041-630-1898","updatedAt":"2025-12-31","sido":"충청남도","sigungu":"홍성군","dong":"홍성읍"},{"name":"법원 검찰청 주변","type":"공영","category":"노상","address":"충청남도 홍성군 홍성읍 월산리 871, 899번지","lat":36.60024113,"lng":126.6474846,"totalSpaces":140,"isFree":true,"operatingDays":"평일+토요일+공휴일","weekdayOpen":"00:00","weekdayClose":"23:59","weekendOpen":"00:00","weekendClose":"23:59","holidayOpen":"00:00","holidayClose":"23:59","feeInfo":"무료","phone":"041-630-1898","updatedAt":"2025-12-31","sido":"충청남도","sigungu":"홍성군","dong":"홍성읍"},{"name":"내포신도시 중심상업지역 임시공영주차장1","type":"공영","category":"노외","address":"충청남도 홍성군 홍북읍 신경리 564, 567","lat":36.65930913,"lng":126.6803529,"totalSpaces":116,"isFree":true,"operatingDays":"평일+토요일+공휴일","weekdayOpen":"00:00","weekdayClose":"23:59","weekendOpen":"00:00","weekendClose":"23:59","holidayOpen":"00:00","holidayClose":"23:59","feeInfo":"무료","phone":"041-630-1898","updatedAt":"2025-12-31","sido":"충청남도","sigungu":"홍성군","dong":"홍북읍"},{"name":"명동상가 임시 공영주차장","type":"공영","category":"노외","address":"충청남도 홍성군 홍성읍 오관리 399-12","lat":36.59944196,"lng":126.6650527,"totalSpaces":112,"isFree":true,"operatingDays":"평일+토요일+공휴일","weekdayOpen":"00:00","weekdayClose":"23:59","weekendOpen":"00:00","weekendClose":"23:59","holidayOpen":"00:00","holidayClose":"23:59","feeInfo":"무료","phone":"041-630-1898","updatedAt":"2025-12-31","sido":"충청남도","sigungu":"홍성군","dong":"홍성읍"},{"name":"내포신도시 중심상업지구 임시 공영주차장4","type":"공영","category":"노외","address":"충청남도 홍성군 홍북읍 신경리 582","lat":36.659043712,"lng":126.6812,"totalSpaces":94,"isFree":true,"operatingDays":"평일+토요일+공휴일","weekdayOpen":"00:00","weekdayClose":"23:59","weekendOpen":"00:00","weekendClose":"23:59","holidayOpen":"00:00","holidayClose":"23:59","feeInfo":"무료","phone":"041-630-1898","updatedAt":"2025-12-31","sido":"충청남도","sigungu":"홍성군","dong":"홍북읍"},{"name":"광천 오서산 주차장","type":"공영","category":"노외","address":"충청남도 홍성군 광천읍 담산리 714","lat":36.48098985,"lng":126.6376221,"totalSpaces":91,"isFree":true,"operatingDays":"평일+토요일+공휴일","weekdayOpen":"00:00","weekdayClose":"23:59","weekendOpen":"00:00","weekendClose":"23:59","holidayOpen":"00:00","holidayClose":"23:59","feeInfo":"무료","phone":"041-630-1898","updatedAt":"2025-12-31","sido":"충청남도","sigungu":"홍성군","dong":"광천읍"},{"name":"용봉초교 앞 주차장(용봉산 입구)","type":"공영","category":"노외","address":"충청남도 홍성군 홍북읍 상하리 564-18","lat":36.63019936,"lng":126.6516731,"totalSpaces":87,"isFree":true,"operatingDays":"평일+토요일+공휴일","weekdayOpen":"00:00","weekdayClose":"23:59","weekendOpen":"00:00","weekendClose":"23:59","holidayOpen":"00:00","holidayClose":"23:59","feeInfo":"무료","phone":"041-630-1898","updatedAt":"2025-12-31","sido":"충청남도","sigungu":"홍성군","dong":"홍북읍"},{"name":"갈산 상촌 임시주차장","type":"공영","category":"노외","address":"충청남도 홍성군 갈산면 상촌리 159","lat":36.60187453,"lng":126.5518066,"totalSpaces":86,"isFree":true,"operatingDays":"평일+토요일+공휴일","weekdayOpen":"00:00","weekdayClose":"23:59","weekendOpen":"00:00","weekendClose":"23:59","holidayOpen":"00:00","holidayClose":"23:59","feeInfo":"무료","phone":"041-630-1898","updatedAt":"2025-12-31","sido":"충청남도","sigungu":"홍성군","dong":"갈산면"},{"name":"(구)부흥마트 맞은편 임시주차장","type":"공영","category":"노외","address":"충청남도 홍성군 홍성읍 오관리 622-6","lat":36.59990906,"lng":126.6595723,"totalSpaces":78,"isFree":true,"operatingDays":"평일+토요일+공휴일","weekdayOpen":"00:00","weekdayClose":"23:59","weekendOpen":"00:00","weekendClose":"23:59","holidayOpen":"00:00","holidayClose":"23:59","feeInfo":"무료","phone":"000-0000-0000","updatedAt":"2025-12-31","sido":"충청남도","sigungu":"홍성군","dong":"홍성읍"},{"name":"옥암리 쌈지주차장","type":"공영","category":"노상","address":"충청남도 홍성군 홍성읍 옥암리 117-12","lat":36.59532221,"lng":126.6532913,"totalSpaces":77,"isFree":true,"operatingDays":"평일+토요일+공휴일","weekdayOpen":"00:00","weekdayClose":"23:59","weekendOpen":"00:00","weekendClose":"23:59","holidayOpen":"00:00","holidayClose":"23:59","feeInfo":"무료","phone":"041-630-1898","updatedAt":"2025-12-31","sido":"충청남도","sigungu":"홍성군","dong":"홍성읍"},{"name":"내포신도시 중심상업지역 임시공영주차장3","type":"공영","category":"노외","address":"충청남도 홍성군 홍북읍 신경리 569, 570","lat":36.65843317,"lng":126.6799793,"totalSpaces":77,"isFree":true,"operatingDays":"평일+토요일+공휴일","weekdayOpen":"00:00","weekdayClose":"23:59","weekendOpen":"00:00","weekendClose":"23:59","holidayOpen":"00:00","holidayClose":"23:59","feeInfo":"무료","phone":"041-630-1898","updatedAt":"2025-12-31","sido":"충청남도","sigungu":"홍성군","dong":"홍북읍"},{"name":"용봉산 신경리 주차장","type":"공영","category":"노외","address":"충청남도 홍성군 홍북읍 신경리 1730","lat":36.63935845,"lng":126.6647175,"totalSpaces":75,"isFree":true,"operatingDays":"평일+토요일+공휴일","weekdayOpen":"00:00","weekdayClose":"23:59","weekendOpen":"00:00","weekendClose":"23:59","holidayOpen":"00:00","holidayClose":"23:59","feeInfo":"무료","phone":"000-0000-0000","updatedAt":"2025-12-31","sido":"충청남도","sigungu":"홍성군","dong":"홍북읍"},{"name":"광천 전통시장 3주차장(구-충남차이나)","type":"공영","category":"노외","address":"충청남도 홍성군 광천읍 광천리 200-8","lat":36.50103065,"lng":126.6247187,"totalSpaces":68,"isFree":true,"operatingDays":"평일+토요일+공휴일","weekdayOpen":"00:00","weekdayClose":"23:59","weekendOpen":"00:00","weekendClose":"23:59","holidayOpen":"00:00","holidayClose":"23:59","feeInfo":"무료","phone":"041-630-1898","updatedAt":"2025-12-31","sido":"충청남도","sigungu":"홍성군","dong":"광천읍"},{"name":"광천역 ~ 버스터미널간","type":"공영","category":"노상","address":"충청남도 홍성군 광천읍 광천리 205-13","lat":36.50052072,"lng":126.6231916,"totalSpaces":61,"isFree":true,"operatingDays":"평일+토요일+공휴일","weekdayOpen":"00:00","weekdayClose":"23:59","weekendOpen":"00:00","weekendClose":"23:59","holidayOpen":"00:00","holidayClose":"23:59","feeInfo":"무료","phone":"041-630-1898","updatedAt":"2025-12-31","sido":"충청남도","sigungu":"홍성군","dong":"광천읍"},{"name":"장군상 오거리~홍성역","type":"공영","category":"노상","address":"충청남도 홍성군 홍성읍 고암리 1045","lat":36.60009422,"lng":126.6732349,"totalSpaces":60,"isFree":true,"operatingDays":"평일+토요일+공휴일","weekdayOpen":"00:00","weekdayClose":"23:59","weekendOpen":"00:00","weekendClose":"23:59","holidayOpen":"00:00","holidayClose":"23:59","feeInfo":"무료","phone":"041-630-1898","updatedAt":"2025-12-31","sido":"충청남도","sigungu":"홍성군","dong":"홍성읍"},{"name":"홍성읍 대교공원 주차장","type":"공영","category":"노외","address":"충청남도 홍성군 홍성읍 대교리 416","lat":36.60456022,"lng":126.6634496,"totalSpaces":60,"isFree":true,"operatingDays":"평일+토요일+공휴일","weekdayOpen":"00:00","weekdayClose":"23:59","weekendOpen":"00:00","weekendClose":"23:59","holidayOpen":"00:00","holidayClose":"23:59","feeInfo":"무료","phone":"041-630-1898","updatedAt":"2025-12-31","sido":"충청남도","sigungu":"홍성군","dong":"홍성읍"},{"name":"광천 전통시장 2주차장(구-우시장)","type":"공영","category":"노외","address":"충청남도 홍성군 광천읍 광천리 230-46","lat":36.49926529,"lng":126.6244024,"totalSpaces":54,"isFree":true,"operatingDays":"평일+토요일+공휴일","weekdayOpen":"00:00","weekdayClose":"23:59","weekendOpen":"00:00","weekendClose":"23:59","holidayOpen":"00:00","holidayClose":"23:59","feeInfo":"무료","phone":"041-630-1898","updatedAt":"2025-12-31","sido":"충청남도","sigungu":"홍성군","dong":"광천읍"},{"name":"광천 중담1 주차장","type":"공영","category":"노외","address":"충청남도 홍성군 광천읍 담산리 915-56","lat":36.48703739,"lng":126.6420079,"totalSpaces":53,"isFree":true,"operatingDays":"평일+토요일+공휴일","weekdayOpen":"00:00","weekdayClose":"23:59","weekendOpen":"00:00","weekendClose":"23:59","holidayOpen":"00:00","holidayClose":"23:59","feeInfo":"무료","phone":"041-630-1898","updatedAt":"2025-12-31","sido":"충청남도","sigungu":"홍성군","dong":"광천읍"},{"name":"남장리 미성아파트 앞 공영주차장","type":"공영","category":"노외","address":"충청남도 홍성군 홍성읍 남장리 95-2","lat":36.59353388,"lng":126.6652296,"totalSpaces":50,"isFree":true,"operatingDays":"평일+토요일+공휴일","weekdayOpen":"00:00","weekdayClose":"23:59","weekendOpen":"00:00","weekendClose":"23:59","holidayOpen":"00:00","holidayClose":"23:59","feeInfo":"무료","phone":"041-630-1898","updatedAt":"2025-12-31","sido":"충청남도","sigungu":"홍성군","dong":"홍성읍"},{"name":"월산지구 공영주차장","type":"공영","category":"노외","address":"충청남도 홍성군 홍성읍 월산리 915","lat":36.5987678049,"lng":126.6505969297,"totalSpaces":50,"isFree":true,"operatingDays":"평일+토요일+공휴일","weekdayOpen":"00:00","weekdayClose":"23:59","weekendOpen":"00:00","weekendClose":"23:59","holidayOpen":"00:00","holidayClose":"23:59","feeInfo":"무료","phone":"041-630-1898","updatedAt":"2025-12-31","sido":"충청남도","sigungu":"홍성군","dong":"홍성읍"},{"name":"조양문~서문교~북문교","type":"공영","category":"노상","address":"충청남도 홍성군 홍성읍 오관리 118-4, 오관리 125, 오관리 51-5","lat":36.60241955,"lng":126.6625451,"totalSpaces":47,"isFree":true,"operatingDays":"평일+토요일+공휴일","weekdayOpen":"00:00","weekdayClose":"23:59","weekendOpen":"00:00","weekendClose":"23:59","holidayOpen":"00:00","holidayClose":"23:59","feeInfo":"무료","phone":"041-630-1898","updatedAt":"2025-12-31","sido":"충청남도","sigungu":"홍성군","dong":"홍성읍"},{"name":"내포신도시 중심상업지역 임시공영주차장2","type":"공영","category":"노외","address":"충청남도 홍성군 홍북읍 신경리 566","lat":36.65887883,"lng":126.6798979,"totalSpaces":47,"isFree":true,"operatingDays":"평일+토요일+공휴일","weekdayOpen":"00:00","weekdayClose":"23:59","weekendOpen":"00:00","weekendClose":"23:59","holidayOpen":"00:00","holidayClose":"23:59","feeInfo":"무료","phone":"041-630-1898","updatedAt":"2025-12-31","sido":"충청남도","sigungu":"홍성군","dong":"홍북읍"},{"name":"장애인종합복지관 앞 주차장","type":"공영","category":"노외","address":"충청남도 홍성군 홍성읍 오관리 647-7","lat":36.59792367,"lng":126.655683,"totalSpaces":45,"isFree":true,"operatingDays":"평일+토요일+공휴일","weekdayOpen":"00:00","weekdayClose":"23:59","weekendOpen":"00:00","weekendClose":"23:59","holidayOpen":"00:00","holidayClose":"23:59","feeInfo":"무료","phone":"041-630-1898","updatedAt":"2025-12-31","sido":"충청남도","sigungu":"홍성군","dong":"홍성읍"},{"name":"결성통 건널목~광천역","type":"공영","category":"노상","address":"충청남도 홍성군 광천읍 신진리 429-85","lat":36.50199159,"lng":126.6216791,"totalSpaces":43,"isFree":true,"operatingDays":"평일+토요일+공휴일","weekdayOpen":"00:00","weekdayClose":"23:59","weekendOpen":"00:00","weekendClose":"23:59","holidayOpen":"00:00","holidayClose":"23:59","feeInfo":"무료","phone":"041-630-1898","updatedAt":"2025-12-31","sido":"충청남도","sigungu":"홍성군","dong":"광천읍"},{"name":"월산리 공영주차장","type":"공영","category":"노외","address":"충청남도 홍성군 홍성읍 월산리 842-1","lat":36.59903202,"lng":126.6488885,"totalSpaces":40,"isFree":true,"operatingDays":"평일+토요일+공휴일","weekdayOpen":"00:00","weekdayClose":"23:59","weekendOpen":"00:00","weekendClose":"23:59","holidayOpen":"00:00","holidayClose":"23:59","feeInfo":"무료","phone":"041-630-1898","updatedAt":"2025-12-31","sido":"충청남도","sigungu":"홍성군","dong":"홍성읍"},{"name":"오관구역 노외 공영주차장(노인회관 옆)","type":"공영","category":"노외","address":"충청남도 홍성군 홍성읍 오관리 472-4","lat":36.59794858,"lng":126.6637047,"totalSpaces":37,"isFree":true,"operatingDays":"평일+토요일+공휴일","weekdayOpen":"00:00","weekdayClose":"23:59","weekendOpen":"00:00","weekendClose":"23:59","holidayOpen":"00:00","holidayClose":"23:59","feeInfo":"무료","phone":"041-630-1898","updatedAt":"2025-12-31","sido":"충청남도","sigungu":"홍성군","dong":"홍성읍"},{"name":"홍성터미널 및 역세권 거리 주변 임시공영주차장","type":"공영","category":"노외","address":"충청남도 홍성군 홍성읍 고암리 972","lat":36.6010394,"lng":126.6730302,"totalSpaces":35,"isFree":true,"operatingDays":"평일+토요일+공휴일","weekdayOpen":"00:00","weekdayClose":"23:59","weekendOpen":"00:00","weekendClose":"23:59","holidayOpen":"00:00","holidayClose":"23:59","feeInfo":"무료","phone":"041-630-1898","updatedAt":"2025-12-31","sido":"충청남도","sigungu":"홍성군","dong":"홍성읍"},{"name":"옥암리 공영주차장","type":"공영","category":"노외","address":"충청남도 홍성군 홍성읍 옥암리 1256","lat":36.59325114,"lng":126.6526047,"totalSpaces":34,"isFree":true,"operatingDays":"평일+토요일+공휴일","weekdayOpen":"00:00","weekdayClose":"23:59","weekendOpen":"00:00","weekendClose":"23:59","holidayOpen":"00:00","holidayClose":"23:59","feeInfo":"무료","phone":"041-630-1898","updatedAt":"2025-12-31","sido":"충청남도","sigungu":"홍성군","dong":"홍성읍"},{"name":"서부 상황속동전망대 주차장","type":"공영","category":"노외","address":"충청남도 홍성군 서부면 상황리 628-2","lat":36.57701102,"lng":126.464581,"totalSpaces":33,"isFree":true,"operatingDays":"평일+토요일+공휴일","weekdayOpen":"00:00","weekdayClose":"23:59","weekendOpen":"00:00","weekendClose":"23:59","holidayOpen":"00:00","holidayClose":"23:59","feeInfo":"무료","phone":"000-0000-0000","updatedAt":"2025-12-31","sido":"충청남도","sigungu":"홍성군","dong":"서부면"},{"name":"근린상가지역 노상주차장","type":"공영","category":"노상","address":"충청남도 홍성군 홍북읍 신경리 1978","lat":36.64789795,"lng":126.6753891,"totalSpaces":30,"isFree":true,"operatingDays":"평일+토요일+공휴일","weekdayOpen":"00:00","weekdayClose":"23:59","weekendOpen":"00:00","weekendClose":"23:59","holidayOpen":"00:00","holidayClose":"23:59","feeInfo":"무료","phone":"041-630-1898","updatedAt":"2025-12-31","sido":"충청남도","sigungu":"홍성군","dong":"홍북읍"},{"name":"홍성역 주변 주차장","type":"공영","category":"노외","address":"충청남도 홍성군 홍성읍 고암리 1073","lat":36.6005747,"lng":126.6773254,"totalSpaces":30,"isFree":true,"operatingDays":"평일+토요일+공휴일","weekdayOpen":"00:00","weekdayClose":"23:59","weekendOpen":"00:00","weekendClose":"23:59","holidayOpen":"00:00","holidayClose":"23:59","feeInfo":"무료","phone":"041-630-1898","updatedAt":"2025-12-31","sido":"충청남도","sigungu":"홍성군","dong":"홍성읍"},{"name":"오관리 90-2 주차장(도시재생과뒤)","type":"공영","category":"노외","address":"충청남도 홍성군 홍성읍 오관리90-2","lat":36.60186571,"lng":126.6613976,"totalSpaces":27,"isFree":true,"operatingDays":"평일+토요일+공휴일","weekdayOpen":"00:00","weekdayClose":"23:59","weekendOpen":"00:00","weekendClose":"23:59","holidayOpen":"00:00","holidayClose":"23:59","feeInfo":"무료","phone":"041-630-1898","updatedAt":"2025-12-31","sido":"충청남도","sigungu":"홍성군","dong":"홍성읍"},{"name":"광천 신진리 광천지구대 주차장","type":"공영","category":"노외","address":"충청남도 홍성군 광천읍 신진리 463-4","lat":36.50432338,"lng":126.6245288,"totalSpaces":26,"isFree":true,"operatingDays":"평일+토요일+공휴일","weekdayOpen":"00:00","weekdayClose":"23:59","weekendOpen":"00:00","weekendClose":"23:59","holidayOpen":"00:00","holidayClose":"23:59","feeInfo":"무료","phone":"041-630-1898","updatedAt":"2025-12-31","sido":"충청남도","sigungu":"홍성군","dong":"광천읍"},{"name":"월산리 임시 공영주차장","type":"공영","category":"노외","address":"충청남도 홍성군 홍성읍 월산리 839-3","lat":36.5983405643,"lng":126.6482731504,"totalSpaces":26,"isFree":true,"operatingDays":"평일+토요일+공휴일","weekdayOpen":"00:00","weekdayClose":"23:59","weekendOpen":"00:00","weekendClose":"23:59","holidayOpen":"00:00","holidayClose":"23:59","feeInfo":"무료","phone":"041-630-1898","updatedAt":"2025-12-31","sido":"충청남도","sigungu":"홍성군","dong":"홍성읍"},{"name":"오관2리 쌈지주차장","type":"공영","category":"노외","address":"충청남도 홍성군 홍성읍 오관리180","lat":36.60299087,"lng":126.6646856,"totalSpaces":25,"isFree":true,"operatingDays":"평일+토요일+공휴일","weekdayOpen":"00:00","weekdayClose":"23:59","weekendOpen":"00:00","weekendClose":"23:59","holidayOpen":"00:00","holidayClose":"23:59","feeInfo":"무료","phone":"041-630-1898","updatedAt":"2025-12-31","sido":"충청남도","sigungu":"홍성군","dong":"홍성읍"},{"name":"광천읍 토굴새우젓 공영주차장","type":"공영","category":"노외","address":"충청남도 홍성군 광천읍 옹암리 508-38, 508-37","lat":36.48699134,"lng":126.6163608,"totalSpaces":25,"isFree":true,"operatingDays":"평일+토요일+공휴일","weekdayOpen":"00:00","weekdayClose":"23:59","weekendOpen":"00:00","weekendClose":"23:59","holidayOpen":"00:00","holidayClose":"23:59","feeInfo":"무료","phone":"041-630-1898","updatedAt":"2025-12-31","sido":"충청남도","sigungu":"홍성군","dong":"광천읍"},{"name":"광천읍 회전교차로 옆 공영주차장","type":"공영","category":"노외","address":"충청남도 홍성군 광천읍 광천리 173-2","lat":36.50333528,"lng":126.6258951,"totalSpaces":23,"isFree":true,"operatingDays":"평일+토요일+공휴일","weekdayOpen":"00:00","weekdayClose":"23:59","weekendOpen":"00:00","weekendClose":"23:59","holidayOpen":"00:00","holidayClose":"23:59","feeInfo":"무료","phone":"041-630-1898","updatedAt":"2025-12-31","sido":"충청남도","sigungu":"홍성군","dong":"광천읍"},{"name":"홍성읍 원도심 스마트 쌈지 공영주차장","type":"공영","category":"노외","address":"충청남도 홍성군 홍성읍 오관리 319-2","lat":36.60033485,"lng":126.6684499,"totalSpaces":23,"isFree":true,"operatingDays":"평일+토요일+공휴일","weekdayOpen":"00:00","weekdayClose":"23:59","weekendOpen":"00:00","weekendClose":"23:59","holidayOpen":"00:00","holidayClose":"23:59","feeInfo":"무료","phone":"041-630-1898","updatedAt":"2025-12-31","sido":"충청남도","sigungu":"홍성군","dong":"홍성읍"},{"name":"고암리 쌈지주차장","type":"공영","category":"노외","address":"충청남도 홍성군 홍성읍 고암리 588-4","lat":36.59605991,"lng":126.6750506,"totalSpaces":20,"isFree":true,"operatingDays":"평일+토요일+공휴일","weekdayOpen":"00:00","weekdayClose":"23:59","weekendOpen":"00:00","weekendClose":"23:59","holidayOpen":"00:00","holidayClose":"23:59","feeInfo":"무료","phone":"041-630-1898","updatedAt":"2025-12-31","sido":"충청남도","sigungu":"홍성군","dong":"홍성읍"},{"name":"신진1리 공영주차장","type":"공영","category":"노외","address":"충청남도 홍성군 광천읍 신진리 458-4","lat":36.50337122,"lng":126.6244059,"totalSpaces":20,"isFree":true,"operatingDays":"평일+토요일+공휴일","weekdayOpen":"00:00","weekdayClose":"23:59","weekendOpen":"00:00","weekendClose":"23:59","holidayOpen":"00:00","holidayClose":"23:59","feeInfo":"무료","phone":"041-630-1898","updatedAt":"2025-12-31","sido":"충청남도","sigungu":"홍성군","dong":"광천읍"},{"name":"광천교 ~ 버스터미널간","type":"공영","category":"노상","address":"충청남도 홍성군 광천읍 광천리 236-18","lat":36.5003254,"lng":126.6257847,"totalSpaces":18,"isFree":true,"operatingDays":"평일+토요일+공휴일","weekdayOpen":"00:00","weekdayClose":"23:59","weekendOpen":"00:00","weekendClose":"23:59","holidayOpen":"00:00","holidayClose":"23:59","feeInfo":"무료","phone":"041-630-1898","updatedAt":"2025-12-31","sido":"충청남도","sigungu":"홍성군","dong":"광천읍"},{"name":"오관1리 쌈지 공영주차장(도시재생과 뒤)","type":"공영","category":"노외","address":"충청남도 홍성군 홍성읍 오관리 89-3","lat":36.60205359,"lng":126.6614638,"totalSpaces":18,"isFree":true,"operatingDays":"평일+토요일+공휴일","weekdayOpen":"00:00","weekdayClose":"23:59","weekendOpen":"00:00","weekendClose":"23:59","holidayOpen":"00:00","holidayClose":"23:59","feeInfo":"무료","phone":"041-630-1898","updatedAt":"2025-12-31","sido":"충청남도","sigungu":"홍성군","dong":"홍성읍"},{"name":"광천 신진리 다진 주차장","type":"공영","category":"노외","address":"충청남도 홍성군 광천읍 신진리 503-6","lat":36.50528135,"lng":126.6191265,"totalSpaces":16,"isFree":true,"operatingDays":"평일+토요일+공휴일","weekdayOpen":"00:00","weekdayClose":"23:59","weekendOpen":"00:00","weekendClose":"23:59","holidayOpen":"00:00","holidayClose":"23:59","feeInfo":"무료","phone":"041-630-1898","updatedAt":"2025-12-31","sido":"충청남도","sigungu":"홍성군","dong":"광천읍"},{"name":"내포신도시 단독주택용지 공영주차장","type":"공영","category":"노외","address":"충청남도 홍성군 홍북읍 신경리 1073","lat":36.6505,"lng":126.6868,"totalSpaces":16,"isFree":true,"operatingDays":"평일+토요일+공휴일","weekdayOpen":"00:00","weekdayClose":"23:59","weekendOpen":"00:00","weekendClose":"23:59","holidayOpen":"00:00","holidayClose":"23:59","feeInfo":"무료","phone":"041-630-1898","updatedAt":"2025-12-31","sido":"충청남도","sigungu":"홍성군","dong":"홍북읍"},{"name":"갈산 상촌리 공영주차장","type":"공영","category":"노외","address":"충청남도 홍성군 갈산면 상촌리 167-11","lat":36.6037442,"lng":126.5528996,"totalSpaces":15,"isFree":true,"operatingDays":"평일+토요일+공휴일","weekdayOpen":"00:00","weekdayClose":"23:59","weekendOpen":"00:00","weekendClose":"23:59","holidayOpen":"00:00","holidayClose":"23:59","feeInfo":"무료","phone":"041-630-1898","updatedAt":"2025-12-31","sido":"충청남도","sigungu":"홍성군","dong":"갈산면"},{"name":"오관2 공영주차장(구 축협자리)(홍주성 옆)","type":"공영","category":"노외","address":"충청남도 홍성군 홍성읍 오관리 435-1","lat":36.59960293,"lng":126.6629531,"totalSpaces":15,"isFree":true,"operatingDays":"평일+토요일+공휴일","weekdayOpen":"00:00","weekdayClose":"23:59","weekendOpen":"00:00","weekendClose":"23:59","holidayOpen":"00:00","holidayClose":"23:59","feeInfo":"무료","phone":"041-630-1898","updatedAt":"2025-12-31","sido":"충청남도","sigungu":"홍성군","dong":"홍성읍"},{"name":"남장리 쌈지주차장","type":"공영","category":"노외","address":"충청남도 홍성군 홍성읍 남장리 74-32","lat":36.59127452,"lng":126.6696519,"totalSpaces":14,"isFree":true,"operatingDays":"평일+토요일+공휴일","weekdayOpen":"00:00","weekdayClose":"23:59","weekendOpen":"00:00","weekendClose":"23:59","holidayOpen":"00:00","holidayClose":"23:59","feeInfo":"무료","phone":"041-630-1898","updatedAt":"2025-12-31","sido":"충청남도","sigungu":"홍성군","dong":"홍성읍"},{"name":"(구)부흥슈퍼~서문탕 맞은편(군청뒤)","type":"공영","category":"노상","address":"충청남도 홍성군 홍성읍 오관리 690","lat":36.60222989,"lng":126.6595844,"totalSpaces":13,"isFree":true,"operatingDays":"평일+토요일+공휴일","weekdayOpen":"00:00","weekdayClose":"23:59","weekendOpen":"00:00","weekendClose":"23:59","holidayOpen":"00:00","holidayClose":"23:59","feeInfo":"무료","phone":"041-630-1898","updatedAt":"2025-12-31","sido":"충청남도","sigungu":"홍성군","dong":"홍성읍"},{"name":"역재방죽지구 주차장","type":"공영","category":"노외","address":"충청남도 홍성군 홍성읍 고암리 1131","lat":36.59137303,"lng":126.6698852,"totalSpaces":12,"isFree":true,"operatingDays":"평일+토요일+공휴일","weekdayOpen":"00:00","weekdayClose":"23:59","weekendOpen":"00:00","weekendClose":"23:59","holidayOpen":"00:00","holidayClose":"23:59","feeInfo":"무료","phone":"041-630-1898","updatedAt":"2025-12-31","sido":"충청남도","sigungu":"홍성군","dong":"홍성읍"},{"name":"홍주성 옆 오관리 쌈지주차장","type":"공영","category":"노상","address":"충청남도 홍성군 홍성읍 오관리 422-10","lat":36.59820394,"lng":126.6608043,"totalSpaces":10,"isFree":true,"operatingDays":"평일+토요일+공휴일","weekdayOpen":"00:00","weekdayClose":"23:59","weekendOpen":"00:00","weekendClose":"23:59","holidayOpen":"00:00","holidayClose":"23:59","feeInfo":"무료","phone":"041-630-1898","updatedAt":"2025-12-31","sido":"충청남도","sigungu":"홍성군","dong":"홍성읍"},{"name":"오관리 89-5 주차장(도시재생과뒤)","type":"공영","category":"노외","address":"충청남도 홍성군 홍성읍 오관리89-5","lat":36.60215244,"lng":126.6614615,"totalSpaces":10,"isFree":true,"operatingDays":"평일+토요일+공휴일","weekdayOpen":"00:00","weekdayClose":"23:59","weekendOpen":"00:00","weekendClose":"23:59","holidayOpen":"00:00","holidayClose":"23:59","feeInfo":"무료","phone":"041-630-1898","updatedAt":"2025-12-31","sido":"충청남도","sigungu":"홍성군","dong":"홍성읍"},{"name":"(구)부흥마트 사거리 유휴부지 공영주차장","type":"공영","category":"노외","address":"충청남도 홍성군 홍성읍 오관리 676-12","lat":36.60052825,"lng":126.6590024,"totalSpaces":4,"isFree":true,"operatingDays":"평일+토요일+공휴일","weekdayOpen":"00:00","weekdayClose":"23:59","weekendOpen":"00:00","weekendClose":"23:59","holidayOpen":"00:00","holidayClose":"23:59","feeInfo":"무료","phone":"041-630-1898","updatedAt":"2025-12-31","sido":"충청남도","sigungu":"홍성군","dong":"홍성읍"},{"name":"평일빌라 앞 유휴부지 공영주차장","type":"공영","category":"노외","address":"충청남도 홍성군 홍성읍 오관리 571-3","lat":36.5945952,"lng":126.6583691,"totalSpaces":3,"isFree":true,"operatingDays":"평일+토요일+공휴일","weekdayOpen":"00:00","weekdayClose":"23:59","weekendOpen":"00:00","weekendClose":"23:59","holidayOpen":"00:00","holidayClose":"23:59","feeInfo":"무료","phone":"041-630-1898","updatedAt":"2025-12-31","sido":"충청남도","sigungu":"홍성군","dong":"홍성읍"},{"name":"오관리 공영주차장(쌈지)","type":"공영","category":"노외","address":"충청남도 홍성군 홍성읍 오관리565-5","lat":36.59201333,"lng":126.6616272,"totalSpaces":2,"isFree":true,"operatingDays":"평일+토요일+공휴일","weekdayOpen":"00:00","weekdayClose":"23:59","weekendOpen":"00:00","weekendClose":"23:59","holidayOpen":"00:00","holidayClose":"23:59","feeInfo":"무료","phone":"041-630-1898","updatedAt":"2025-12-31","sido":"충청남도","sigungu":"홍성군","dong":"홍성읍"},{"name":"홍성천 복개주차장","type":"공영","category":"노외","address":"충청남도 홍성군 홍성읍 오관리 381-3","lat":36.60005592,"lng":126.6662802,"totalSpaces":237,"isFree":false,"operatingDays":"평일+토요일+공휴일","weekdayOpen":"00:00","weekdayClose":"23:59","weekendOpen":"00:00","weekendClose":"23:59","holidayOpen":"00:00","holidayClose":"23:59","feeInfo":"기본 30분 0원 / 추가 30분당 500원","phone":"041-630-1898","updatedAt":"2025-12-31","sido":"충청남도","sigungu":"홍성군","dong":"홍성읍"},{"name":"내포주차타워","type":"공영","category":"노외","address":"충청남도 홍성군 홍북읍 신경리 1197","lat":36.64752583,"lng":126.6765774,"totalSpaces":130,"isFree":false,"operatingDays":"평일+토요일+공휴일","weekdayOpen":"00:00","weekdayClose":"23:59","weekendOpen":"00:00","weekendClose":"23:59","holidayOpen":"00:00","holidayClose":"23:59","feeInfo":"기본 30분 0원 / 추가 30분당 500원","phone":"041-630-1898","updatedAt":"2025-12-31","sido":"충청남도","sigungu":"홍성군","dong":"홍북읍"},{"name":"홍주성 옆 공영주차장","type":"공영","category":"노외","address":"충청남도 홍성군 홍성읍 오관리 208","lat":36.60038436,"lng":126.663178,"totalSpaces":112,"isFree":false,"operatingDays":"평일+토요일+공휴일","weekdayOpen":"00:00","weekdayClose":"23:59","weekendOpen":"00:00","weekendClose":"23:59","holidayOpen":"00:00","holidayClose":"23:59","feeInfo":"기본 30분 0원 / 추가 30분당 500원","phone":"041-630-1898","updatedAt":"2025-12-31","sido":"충청남도","sigungu":"홍성군","dong":"홍성읍"},{"name":"하상 2공구(홍성천~대승빌딩)","type":"공영","category":"노외","address":"충청남도 홍성군 홍성읍 오관리 366-4","lat":36.59905971,"lng":126.6651756,"totalSpaces":110,"isFree":false,"operatingDays":"평일+토요일+공휴일","weekdayOpen":"00:00","weekdayClose":"23:59","weekendOpen":"00:00","weekendClose":"23:59","holidayOpen":"00:00","holidayClose":"23:59","feeInfo":"기본 30분 0원 / 추가 30분당 500원","phone":"041-630-1898","updatedAt":"2025-12-31","sido":"충청남도","sigungu":"홍성군","dong":"홍성읍"},{"name":"하상 3공구(홍성천~홍성온천)","type":"공영","category":"노외","address":"충청남도 홍성군 홍성읍 오관리 457-1","lat":36.59848909,"lng":126.6634295,"totalSpaces":64,"isFree":false,"operatingDays":"평일+토요일+공휴일","weekdayOpen":"00:00","weekdayClose":"23:59","weekendOpen":"00:00","weekendClose":"23:59","holidayOpen":"00:00","holidayClose":"23:59","feeInfo":"기본 30분 0원 / 추가 30분당 500원","phone":"041-630-1898","updatedAt":"2025-12-31","sido":"충청남도","sigungu":"홍성군","dong":"홍성읍"},{"name":"홍주교~장군상오거리","type":"공영","category":"노상","address":"충청남도 홍성군 홍성읍 대교리 398-1","lat":36.60125764,"lng":126.6679661,"totalSpaces":62,"isFree":false,"operatingDays":"평일+토요일+공휴일","weekdayOpen":"00:00","weekdayClose":"23:59","weekendOpen":"00:00","weekendClose":"23:59","holidayOpen":"00:00","holidayClose":"23:59","feeInfo":"기본 30분 0원 / 추가 30분당 500원","phone":"041-630-1898","updatedAt":"2025-12-31","sido":"충청남도","sigungu":"홍성군","dong":"홍성읍"},{"name":"하상 1공구(홍성천~5일시장)","type":"공영","category":"노외","address":"충청남도 홍성군 홍성읍 대교리 405-2","lat":36.60230027,"lng":126.667299974,"totalSpaces":52,"isFree":false,"operatingDays":"평일+토요일+공휴일","weekdayOpen":"00:00","weekdayClose":"23:59","weekendOpen":"00:00","weekendClose":"23:59","holidayOpen":"00:00","holidayClose":"23:59","feeInfo":"기본 30분 0원 / 추가 30분당 500원","phone":"041-630-1898","updatedAt":"2025-12-31","sido":"충청남도","sigungu":"홍성군","dong":"홍성읍"},{"name":"장군상~의사총사거리","type":"공영","category":"노상","address":"충청남도 홍성군 홍성읍 대교리 706","lat":36.60271834,"lng":126.6713743,"totalSpaces":20,"isFree":false,"operatingDays":"평일+토요일+공휴일","weekdayOpen":"00:00","weekdayClose":"23:59","weekendOpen":"00:00","weekendClose":"23:59","holidayOpen":"00:00","holidayClose":"23:59","feeInfo":"기본 30분 0원 / 추가 30분당 500원","phone":"041-630-1898","updatedAt":"2025-12-31","sido":"충청남도","sigungu":"홍성군","dong":"홍성읍"}]}