{"sido":"충청북도","sigungu":"보은군","totalCount":18,"validCount":18,"items":[{"name":"말티재1주차장(관문주차장)","type":"공영","category":"노외","address":"충청북도 보은군 속리산면 갈목리 산 19-3","lat":36.4994769,"lng":127.7909264,"totalSpaces":212,"isFree":true,"operatingDays":"평일+토요일+공휴일","weekdayOpen":"00:00","weekdayClose":"23:59","weekendOpen":"00:00","weekendClose":"23:59","holidayOpen":"00:00","holidayClose":"23:59","feeInfo":"무료","phone":"043-540-3095","updatedAt":"2025-02-18","sido":"충청북도","sigungu":"보은군","dong":"속리산면"},{"name":"연꽃단지주차장","type":"공영","category":"노외","address":"충청북도 보은군 속리산면 상판리 239","lat":36.51697181,"lng":127.8152921149,"totalSpaces":116,"isFree":true,"operatingDays":"평일+토요일+공휴일","weekdayOpen":"00:00","weekdayClose":"23:59","weekendOpen":"00:00","weekendClose":"23:59","holidayOpen":"00:00","holidayClose":"23:59","feeInfo":"무료","phone":"043-540-3095","updatedAt":"2025-02-18","sido":"충청북도","sigungu":"보은군","dong":"속리산면"},{"name":"남다리하상","type":"공영","category":"노외","address":"충청북도 보은군 보은읍 죽전리 132-4","lat":36.48070776,"lng":127.7200836,"totalSpaces":114,"isFree":true,"operatingDays":"평일+토요일+공휴일","weekdayOpen":"00:00","weekdayClose":"23:59","weekendOpen":"00:00","weekendClose":"23:59","holidayOpen":"00:00","holidayClose":"23:59","feeInfo":"무료","phone":"043-540-3095","updatedAt":"2025-02-18","sido":"충청북도","sigungu":"보은군","dong":"보은읍"},{"name":"솔향공원주차장","type":"공영","category":"노외","address":"충청북도 보은군 속리산면 갈목리 77","lat":36.4995454,"lng":127.8027075548,"totalSpaces":101,"isFree":true,"operatingDays":"평일+토요일+공휴일","weekdayOpen":"00:00","weekdayClose":"23:59","weekendOpen":"00:00","weekendClose":"23:59","holidayOpen":"00:00","holidayClose":"23:59","feeInfo":"무료","phone":"043-540-3095","updatedAt":"2025-02-18","sido":"충청북도","sigungu":"보은군","dong":"속리산면"},{"name":"동다리하상","type":"공영","category":"노외","address":"충청북도 보은군 보은읍 교사리 440-1","lat":36.48663466,"lng":127.7216224,"totalSpaces":97,"isFree":true,"operatingDays":"평일+토요일+공휴일","weekdayOpen":"00:00","weekdayClose":"23:59","weekendOpen":"00:00","weekendClose":"23:59","holidayOpen":"00:00","holidayClose":"23:59","feeInfo":"무료","phone":"043-540-3095","updatedAt":"2025-02-18","sido":"충청북도","sigungu":"보은군","dong":"보은읍"},{"name":"장신1교~통계슈퍼","type":"공영","category":"노상","address":"충청북도 보은군 보은읍 삼산리 202","lat":36.48587985,"lng":127.7180104,"totalSpaces":40,"isFree":true,"operatingDays":"평일+토요일+공휴일","weekdayOpen":"00:00","weekdayClose":"23:59","weekendOpen":"00:00","weekendClose":"23:59","holidayOpen":"00:00","holidayClose":"23:59","feeInfo":"무료","phone":"043-540-3095","updatedAt":"2025-02-18","sido":"충청북도","sigungu":"보은군","dong":"보은읍"},{"name":"삼승 재래시장","type":"공영","category":"노외","address":"충청북도 보은군 삼승면 원남리 190-2","lat":36.399836,"lng":127.727146,"totalSpaces":34,"isFree":true,"operatingDays":"평일+토요일+공휴일","weekdayOpen":"00:00","weekdayClose":"23:59","weekendOpen":"00:00","weekendClose":"23:59","holidayOpen":"00:00","holidayClose":"23:59","feeInfo":"무료","phone":"043-540-3095","updatedAt":"2025-02-18","sido":"충청북도","sigungu":"보은군","dong":"삼승면"},{"name":"말티재주차장","type":"공영","category":"노외","address":"충청북도 보은군 속리산면 속리산로 481","lat":36.4986466,"lng":127.7921452,"totalSpaces":21,"isFree":true,"operatingDays":"평일+토요일+공휴일","weekdayOpen":"00:00","weekdayClose":"23:59","weekendOpen":"00:00","weekendClose":"23:59","holidayOpen":"00:00","holidayClose":"23:59","feeInfo":"무료","phone":"043-540-3095","updatedAt":"2025-02-18","sido":"충청북도","sigungu":"보은군","dong":"속리산면"},{"name":"순대나라인근","type":"공영","category":"노외","address":"충청북도 보은군 보은읍 삼산리 30-78","lat":36.48070776,"lng":127.7200836,"totalSpaces":20,"isFree":true,"operatingDays":"평일+토요일+공휴일","weekdayOpen":"00:00","weekdayClose":"23:59","weekendOpen":"00:00","weekendClose":"23:59","holidayOpen":"00:00","holidayClose":"23:59","feeInfo":"무료","phone":"043-540-3095","updatedAt":"2025-02-18","sido":"충청북도","sigungu":"보은군","dong":"보은읍"},{"name":"송화식당 앞","type":"공영","category":"노외","address":"충청북도 보은군 보은읍 삼산리 199-9","lat":36.48536711,"lng":127.7121896,"totalSpaces":19,"isFree":true,"operatingDays":"평일+토요일+공휴일","weekdayOpen":"00:00","weekdayClose":"23:59","weekendOpen":"00:00","weekendClose":"23:59","holidayOpen":"00:00","holidayClose":"23:59","feeInfo":"무료","phone":"043-540-3095","updatedAt":"2025-02-18","sido":"충청북도","sigungu":"보은군","dong":"보은읍"},{"name":"회인다목적관 근처","type":"공영","category":"노외","address":"충청북도 보은군 회인면 중앙리 20-7","lat":36.4895416,"lng":127.5978085,"totalSpaces":18,"isFree":true,"operatingDays":"평일+토요일+공휴일","weekdayOpen":"00:00","weekdayClose":"23:59","weekendOpen":"00:00","weekendClose":"23:59","holidayOpen":"00:00","holidayClose":"23:59","feeInfo":"무료","phone":"043-540-3095","updatedAt":"2025-02-18","sido":"충청북도","sigungu":"보은군","dong":"회인면"},{"name":"모노레일주차장","type":"공영","category":"노외","address":"충청북도 보은군 속리산면 속리산로 611","lat":36.4992213,"lng":127.8031957908,"totalSpaces":18,"isFree":true,"operatingDays":"평일+토요일+공휴일","weekdayOpen":"00:00","weekdayClose":"23:59","weekendOpen":"00:00","weekendClose":"23:59","holidayOpen":"00:00","holidayClose":"23:59","feeInfo":"무료","phone":"043-540-3095","updatedAt":"2025-02-18","sido":"충청북도","sigungu":"보은군","dong":"속리산면"},{"name":"한솔식당 앞","type":"공영","category":"노상","address":"충청북도 보은군 보은읍 정문고개길 2-1","lat":36.4883576,"lng":127.7174879,"totalSpaces":16,"isFree":true,"operatingDays":"평일+토요일+공휴일","weekdayOpen":"00:00","weekdayClose":"23:59","weekendOpen":"00:00","weekendClose":"23:59","holidayOpen":"00:00","holidayClose":"23:59","feeInfo":"무료","phone":"043-540-3095","updatedAt":"2025-02-18","sido":"충청북도","sigungu":"보은군","dong":"보은읍"},{"name":"남보은농협 근처","type":"공영","category":"노외","address":"충청북도 보은군 삼승면 원남리 201-11","lat":36.3960659,"lng":127.7315127,"totalSpaces":12,"isFree":true,"operatingDays":"평일+토요일+공휴일","weekdayOpen":"00:00","weekdayClose":"23:59","weekendOpen":"00:00","weekendClose":"23:59","holidayOpen":"00:00","holidayClose":"23:59","feeInfo":"무료","phone":"043-540-3095","updatedAt":"2025-02-18","sido":"충청북도","sigungu":"보은군","dong":"삼승면"},{"name":"이안리츠빌 앞","type":"공영","category":"노상","address":"충청북도 보은군 보은읍 이평리 153-1","lat":36.48670303,"lng":127.7265581,"totalSpaces":12,"isFree":true,"operatingDays":"평일+토요일+공휴일","weekdayOpen":"00:00","weekdayClose":"23:59","weekendOpen":"00:00","weekendClose":"23:59","holidayOpen":"00:00","holidayClose":"23:59","feeInfo":"무료","phone":"043-540-3095","updatedAt":"2025-02-18","sido":"충청북도","sigungu":"보은군","dong":"보은읍"},{"name":"진화아파트 근처","type":"공영","category":"노상","address":"충청북도 보은군 보은읍 삼산리 171-30","lat":36.48750851,"lng":127.7155444,"totalSpaces":8,"isFree":true,"operatingDays":"평일+토요일+공휴일","weekdayOpen":"00:00","weekdayClose":"23:59","weekendOpen":"00:00","weekendClose":"23:59","holidayOpen":"00:00","holidayClose":"23:59","feeInfo":"무료","phone":"043-540-3095","updatedAt":"2025-02-18","sido":"충청북도","sigungu":"보은군","dong":"보은읍"},{"name":"대신리치빌아파트 앞","type":"공영","category":"노상","address":"충청북도 보은군 보은읍 삼산리 151-25","lat":36.48607094,"lng":127.7171319,"totalSpaces":7,"isFree":true,"operatingDays":"평일+토요일+공휴일","weekdayOpen":"00:00","weekdayClose":"23:59","weekendOpen":"00:00","weekendClose":"23:59","holidayOpen":"00:00","holidayClose":"23:59","feeInfo":"무료","phone":"043-540-3095","updatedAt":"2025-02-18","sido":"충청북도","sigungu":"보은군","dong":"보은읍"},{"name":"보은도서관 옆","type":"공영","category":"노상","address":"충청북도 보은군 보은읍 삼산리 125-4","lat":36.48411117,"lng":127.7160921,"totalSpaces":2,"isFree":true,"operatingDays":"평일+토요일+공휴일","weekdayOpen":"00:00","weekdayClose":"23:59","weekendOpen":"00:00","weekendClose":"23:59","holidayOpen":"00:00","holidayClose":"23:59","feeInfo":"무료","phone":"043-540-3095","updatedAt":"2025-02-18","sido":"충청북도","sigungu":"보은군","dong":"보은읍"}]}