{"sido":"충청북도","sigungu":"영동군","totalCount":75,"validCount":75,"items":[{"name":"영동천주차장","type":"공영","category":"노외","address":"충청북도 영동군 영동읍 계산리 867-1","lat":36.1746094766,"lng":127.7746234457,"totalSpaces":454,"isFree":true,"operatingDays":"평일+토요일+공휴일","weekdayOpen":"00:00","weekdayClose":"23:59","weekendOpen":"00:00","weekendClose":"23:59","holidayOpen":"00:00","holidayClose":"23:59","feeInfo":"무료","phone":"043-740-3511","updatedAt":"2022-06-24","sido":"충청북도","sigungu":"영동군","dong":"영동읍"},{"name":"덕진리마을공영주차장","type":"공영","category":"노외","address":"충청북도 영동군 용산면 백자전리 381-1","lat":36.275235,"lng":127.841283,"totalSpaces":240,"isFree":true,"operatingDays":"평일+토요일+공휴일","weekdayOpen":"00:00","weekdayClose":"23:59","weekendOpen":"00:00","weekendClose":"23:59","holidayOpen":"00:00","holidayClose":"23:59","feeInfo":"무료","phone":"043-740-3511","updatedAt":"2022-06-24","sido":"충청북도","sigungu":"영동군","dong":"용산면"},{"name":"물한계곡주차장","type":"공영","category":"노외","address":"충청북도 영동군 상촌면 물한리 652-1","lat":36.06977799,"lng":127.8799439,"totalSpaces":223,"isFree":true,"operatingDays":"평일+토요일+공휴일","weekdayOpen":"00:00","weekdayClose":"23:59","weekendOpen":"00:00","weekendClose":"23:59","holidayOpen":"00:00","holidayClose":"23:59","feeInfo":"무료","phone":"043-740-3511","updatedAt":"2022-06-24","sido":"충청북도","sigungu":"영동군","dong":"상촌면"},{"name":"천태산주차장","type":"공영","category":"노외","address":"충청북도 영동군 양산면 누교리 1357","lat":36.164515,"lng":127.623615,"totalSpaces":208,"isFree":true,"operatingDays":"평일+토요일+공휴일","weekdayOpen":"00:00","weekdayClose":"23:59","weekendOpen":"00:00","weekendClose":"23:59","holidayOpen":"00:00","holidayClose":"23:59","feeInfo":"무료","phone":"043-740-3511","updatedAt":"2022-06-24","sido":"충청북도","sigungu":"영동군","dong":"양산면"},{"name":"영동역환승주차장","type":"공영","category":"노외","address":"충청북도 영동군 영동읍 계산리 205-1","lat":36.1723205541,"lng":127.7848821793,"totalSpaces":169,"isFree":true,"operatingDays":"평일+토요일+공휴일","weekdayOpen":"00:00","weekdayClose":"23:59","weekendOpen":"00:00","weekendClose":"23:59","holidayOpen":"00:00","holidayClose":"23:59","feeInfo":"무료","phone":"043-740-3511","updatedAt":"2022-06-24","sido":"충청북도","sigungu":"영동군","dong":"영동읍"},{"name":"송호주차장","type":"공영","category":"노외","address":"충청북도 영동군 양산면 송호리 299-1","lat":36.130737,"lng":127.674272,"totalSpaces":165,"isFree":true,"operatingDays":"평일+토요일+공휴일","weekdayOpen":"00:00","weekdayClose":"23:59","weekendOpen":"00:00","weekendClose":"23:59","holidayOpen":"00:00","holidayClose":"23:59","feeInfo":"무료","phone":"043-740-3511","updatedAt":"2022-06-24","sido":"충청북도","sigungu":"영동군","dong":"양산면"},{"name":"철도변주차장","type":"공영","category":"노상","address":"충청북도 영동군 영동읍 계산리 205-115","lat":36.1720148241,"lng":127.7853706272,"totalSpaces":161,"isFree":true,"operatingDays":"평일+토요일+공휴일","weekdayOpen":"00:00","weekdayClose":"23:59","weekendOpen":"00:00","weekendClose":"23:59","holidayOpen":"00:00","holidayClose":"23:59","feeInfo":"무료","phone":"043-740-3511","updatedAt":"2022-06-24","sido":"충청북도","sigungu":"영동군","dong":"영동읍"},{"name":"제방밑주차장","type":"공영","category":"노상","address":"충청북도 영동군 영동읍 계산리 674-4","lat":36.1730695779,"lng":127.7794533223,"totalSpaces":151,"isFree":true,"operatingDays":"평일+토요일+공휴일","weekdayOpen":"00:00","weekdayClose":"23:59","weekendOpen":"00:00","weekendClose":"23:59","holidayOpen":"00:00","holidayClose":"23:59","feeInfo":"무료","phone":"043-740-3511","updatedAt":"2022-06-24","sido":"충청북도","sigungu":"영동군","dong":"영동읍"},{"name":"계산로 공영주차장","type":"공영","category":"노상","address":"충청북도 영동군 영동읍 계산리 912","lat":36.1745738058,"lng":127.7777528157,"totalSpaces":146,"isFree":true,"operatingDays":"평일+토요일+공휴일","weekdayOpen":"00:00","weekdayClose":"23:59","weekendOpen":"00:00","weekendClose":"23:59","holidayOpen":"00:00","holidayClose":"23:59","feeInfo":"무료","phone":"043-740-3518","updatedAt":"2022-06-24","sido":"충청북도","sigungu":"영동군","dong":"영동읍"},{"name":"매천리 공영주차장","type":"공영","category":"노외","address":"충청북도 영동군 영동읍 계산리 667-19","lat":36.1724343,"lng":127.7803611,"totalSpaces":132,"isFree":true,"operatingDays":"평일+토요일+공휴일","weekdayOpen":"00:00","weekdayClose":"23:59","weekendOpen":"00:00","weekendClose":"23:59","holidayOpen":"00:00","holidayClose":"23:59","feeInfo":"무료","phone":"043-740-3511","updatedAt":"2022-06-24","sido":"충청북도","sigungu":"영동군","dong":"영동읍"},{"name":"용두교하상주차장","type":"공영","category":"노외","address":"충청북도 영동군 영동읍 계산리 125-3","lat":36.1708066293,"lng":127.7850545,"totalSpaces":123,"isFree":true,"operatingDays":"평일+토요일+공휴일","weekdayOpen":"00:00","weekdayClose":"23:59","weekendOpen":"00:00","weekendClose":"23:59","holidayOpen":"00:00","holidayClose":"23:59","feeInfo":"무료","phone":"043-740-3516","updatedAt":"2022-06-24","sido":"충청북도","sigungu":"영동군","dong":"영동읍"},{"name":"심천주차장","type":"공영","category":"노외","address":"충청북도 영동군 심천면 심천리 318-6","lat":36.23674925,"lng":127.7204023,"totalSpaces":100,"isFree":true,"operatingDays":"평일+토요일+공휴일","weekdayOpen":"00:00","weekdayClose":"23:59","weekendOpen":"00:00","weekendClose":"23:59","holidayOpen":"00:00","holidayClose":"23:59","feeInfo":"무료","phone":"043-740-3511","updatedAt":"2022-06-24","sido":"충청북도","sigungu":"영동군","dong":"심천면"},{"name":"영동역유휴부지주차장","type":"공영","category":"노외","address":"충청북도 영동군 영동읍 계산리 205-1","lat":36.1723205541,"lng":127.7848821793,"totalSpaces":93,"isFree":true,"operatingDays":"평일+토요일+공휴일","weekdayOpen":"00:00","weekdayClose":"23:59","weekendOpen":"00:00","weekendClose":"23:59","holidayOpen":"00:00","holidayClose":"23:59","feeInfo":"무료","phone":"043-740-3511","updatedAt":"2022-06-24","sido":"충청북도","sigungu":"영동군","dong":"영동읍"},{"name":"영산동공영주차장","type":"공영","category":"노외","address":"충청북도 영동군 영동읍 계산리 484-6","lat":36.17730547,"lng":127.776439,"totalSpaces":63,"isFree":true,"operatingDays":"평일+토요일+공휴일","weekdayOpen":"00:00","weekdayClose":"23:59","weekendOpen":"00:00","weekendClose":"23:59","holidayOpen":"00:00","holidayClose":"23:59","feeInfo":"무료","phone":"043-740-3511","updatedAt":"2022-06-24","sido":"충청북도","sigungu":"영동군","dong":"영동읍"},{"name":"양강 구강 마을 주차장","type":"공영","category":"노외","address":"충청북도 영동군 영동읍 계산리 458-6","lat":36.17785617,"lng":127.7745331,"totalSpaces":62,"isFree":true,"operatingDays":"평일+토요일+공휴일","weekdayOpen":"00:00","weekdayClose":"23:59","weekendOpen":"00:00","weekendClose":"23:59","holidayOpen":"00:00","holidayClose":"23:59","feeInfo":"무료","phone":"043-740-3511","updatedAt":"2022-06-24","sido":"충청북도","sigungu":"영동군","dong":"영동읍"},{"name":"황간천주차장","type":"공영","category":"노외","address":"충청북도 영동군 황간면 남성리 674-1","lat":36.2309757777,"lng":127.9037080018,"totalSpaces":60,"isFree":true,"operatingDays":"평일+토요일+공휴일","weekdayOpen":"00:00","weekdayClose":"23:59","weekendOpen":"00:00","weekendClose":"23:59","holidayOpen":"00:00","holidayClose":"23:59","feeInfo":"무료","phone":"043-740-3511","updatedAt":"2022-06-24","sido":"충청북도","sigungu":"영동군","dong":"황간면"},{"name":"용산면","type":"공영","category":"노상","address":"충청북도 영동군 용산면 구촌리 179-1","lat":36.2593552029,"lng":127.8284542652,"totalSpaces":53,"isFree":true,"operatingDays":"평일+토요일+공휴일","weekdayOpen":"00:00","weekdayClose":"23:59","weekendOpen":"00:00","weekendClose":"23:59","holidayOpen":"00:00","holidayClose":"23:59","feeInfo":"무료","phone":"043-740-3511","updatedAt":"2022-06-24","sido":"충청북도","sigungu":"영동군","dong":"용산면"},{"name":"계산동공영주차장","type":"공영","category":"노외","address":"충청북도 영동군 영동읍 매천리 472","lat":36.1677149943,"lng":127.7751405,"totalSpaces":50,"isFree":true,"operatingDays":"평일+토요일+공휴일","weekdayOpen":"00:00","weekdayClose":"23:59","weekendOpen":"00:00","weekendClose":"23:59","holidayOpen":"00:00","holidayClose":"23:59","feeInfo":"무료","phone":"043-740-3511","updatedAt":"2022-06-24","sido":"충청북도","sigungu":"영동군","dong":"영동읍"},{"name":"영동고뒤하상주차장","type":"공영","category":"노외","address":"충청북도 영동군 영동읍 매천리 81-1","lat":36.1690309505,"lng":127.7871224901,"totalSpaces":50,"isFree":true,"operatingDays":"평일+토요일+공휴일","weekdayOpen":"00:00","weekdayClose":"23:59","weekendOpen":"00:00","weekendClose":"23:59","holidayOpen":"00:00","holidayClose":"23:59","feeInfo":"무료","phone":"043-740-3511","updatedAt":"2022-06-24","sido":"충청북도","sigungu":"영동군","dong":"영동읍"},{"name":"용화면공영주차장","type":"공영","category":"노외","address":"충청북도 영동군 영동읍 계산리 산 14-6","lat":36.180436219,"lng":127.7811653087,"totalSpaces":41,"isFree":true,"operatingDays":"평일+토요일+공휴일","weekdayOpen":"00:00","weekdayClose":"23:59","weekendOpen":"00:00","weekendClose":"23:59","holidayOpen":"00:00","holidayClose":"23:59","feeInfo":"무료","phone":"043-740-3511","updatedAt":"2022-06-24","sido":"충청북도","sigungu":"영동군","dong":"영동읍"},{"name":"양가동공영주차장","type":"공영","category":"노외","address":"충청북도 영동군 영동읍 부용리 173-1","lat":36.1640766187,"lng":127.7634933796,"totalSpaces":40,"isFree":true,"operatingDays":"평일+토요일+공휴일","weekdayOpen":"00:00","weekdayClose":"23:59","weekendOpen":"00:00","weekendClose":"23:59","holidayOpen":"00:00","holidayClose":"23:59","feeInfo":"무료","phone":"043-740-3511","updatedAt":"2022-06-24","sido":"충청북도","sigungu":"영동군","dong":"영동읍"},{"name":"갈기산주차장","type":"공영","category":"노외","address":"충청북도 영동군 학산면 지내리 1395-2","lat":36.11720597,"lng":127.640477,"totalSpaces":40,"isFree":true,"operatingDays":"평일+토요일+공휴일","weekdayOpen":"00:00","weekdayClose":"23:59","weekendOpen":"00:00","weekendClose":"23:59","holidayOpen":"00:00","holidayClose":"23:59","feeInfo":"무료","phone":"043-740-3511","updatedAt":"2022-06-24","sido":"충청북도","sigungu":"영동군","dong":"학산면"},{"name":"추풍령주차장","type":"공영","category":"노외","address":"충청북도 영동군 추풍령면 추풍령리 336-90","lat":36.21299598,"lng":127.9954462,"totalSpaces":40,"isFree":true,"operatingDays":"평일+토요일+공휴일","weekdayOpen":"00:00","weekdayClose":"23:59","weekendOpen":"00:00","weekendClose":"23:59","holidayOpen":"00:00","holidayClose":"23:59","feeInfo":"무료","phone":"043-740-3511","updatedAt":"2022-06-24","sido":"충청북도","sigungu":"영동군","dong":"추풍령면"},{"name":"조심동하상주차장","type":"공영","category":"노외","address":"충청북도 영동군 영동읍 매천리 89-2","lat":36.16883138,"lng":127.7890651,"totalSpaces":34,"isFree":true,"operatingDays":"평일+토요일+공휴일","weekdayOpen":"00:00","weekdayClose":"23:59","weekendOpen":"00:00","weekendClose":"23:59","holidayOpen":"00:00","holidayClose":"23:59","feeInfo":"무료","phone":"043-740-3511","updatedAt":"2022-06-24","sido":"충청북도","sigungu":"영동군","dong":"영동읍"},{"name":"중앙지구대 옆","type":"공영","category":"노상","address":"충청북도 영동군 영동읍 계산리 663-45","lat":36.1730188843,"lng":127.7828444371,"totalSpaces":33,"isFree":true,"operatingDays":"평일+토요일+공휴일","weekdayOpen":"00:00","weekdayClose":"23:59","weekendOpen":"00:00","weekendClose":"23:59","holidayOpen":"00:00","holidayClose":"23:59","feeInfo":"무료","phone":"043-740-3511","updatedAt":"2022-06-24","sido":"충청북도","sigungu":"영동군","dong":"영동읍"},{"name":"상촌 유곡 마을 주차장","type":"공영","category":"노외","address":"충청북도 영동군 양강면 유점리 184-1","lat":36.12557244,"lng":127.744621,"totalSpaces":32,"isFree":true,"operatingDays":"평일+토요일+공휴일","weekdayOpen":"00:00","weekdayClose":"23:59","weekendOpen":"00:00","weekendClose":"23:59","holidayOpen":"00:00","holidayClose":"23:59","feeInfo":"무료","phone":"043-740-3511","updatedAt":"2022-06-24","sido":"충청북도","sigungu":"영동군","dong":"양강면"},{"name":"구교리 공영주차장","type":"공영","category":"노외","address":"충청북도 영동군 영동읍 부용리 56-2","lat":36.16895786,"lng":127.7690193909,"totalSpaces":30,"isFree":true,"operatingDays":"평일+토요일+공휴일","weekdayOpen":"00:00","weekdayClose":"23:59","weekendOpen":"00:00","weekendClose":"23:59","holidayOpen":"00:00","holidayClose":"23:59","feeInfo":"무료","phone":"043-740-3511","updatedAt":"2022-06-24","sido":"충청북도","sigungu":"영동군","dong":"영동읍"},{"name":"박계리마을공영주차장","type":"공영","category":"노외","address":"충청북도 영동군 학산면 박계리 17","lat":36.1096822835,"lng":127.6808146875,"totalSpaces":30,"isFree":true,"operatingDays":"평일+토요일+공휴일","weekdayOpen":"00:00","weekdayClose":"23:59","weekendOpen":"00:00","weekendClose":"23:59","holidayOpen":"00:00","holidayClose":"23:59","feeInfo":"무료","phone":"043-740-3511","updatedAt":"2022-06-24","sido":"충청북도","sigungu":"영동군","dong":"학산면"},{"name":"동정리 주차장","type":"공영","category":"노상","address":"충청북도 영동군 영동읍 동정리 77-6","lat":36.1742446379,"lng":127.7882587395,"totalSpaces":30,"isFree":true,"operatingDays":"평일+토요일+공휴일","weekdayOpen":"00:00","weekdayClose":"23:59","weekendOpen":"00:00","weekendClose":"23:59","holidayOpen":"00:00","holidayClose":"23:59","feeInfo":"무료","phone":"043-740-3517","updatedAt":"2022-06-24","sido":"충청북도","sigungu":"영동군","dong":"영동읍"},{"name":"학산주차장","type":"공영","category":"노외","address":"충청북도 영동군 학산면 서산리 838-2","lat":36.098071,"lng":127.683863,"totalSpaces":30,"isFree":true,"operatingDays":"평일+토요일+공휴일","weekdayOpen":"00:00","weekdayClose":"23:59","weekendOpen":"00:00","weekendClose":"23:59","holidayOpen":"00:00","holidayClose":"23:59","feeInfo":"무료","phone":"043-740-3511","updatedAt":"2022-06-24","sido":"충청북도","sigungu":"영동군","dong":"학산면"},{"name":"매천교옆주차장","type":"공영","category":"노상","address":"충청북도 영동군 영동읍 계산리 72-7","lat":36.1694930138,"lng":127.7884058283,"totalSpaces":27,"isFree":true,"operatingDays":"평일+토요일+공휴일","weekdayOpen":"00:00","weekdayClose":"23:59","weekendOpen":"00:00","weekendClose":"23:59","holidayOpen":"00:00","holidayClose":"23:59","feeInfo":"무료","phone":"043-740-3511","updatedAt":"2022-06-24","sido":"충청북도","sigungu":"영동군","dong":"영동읍"},{"name":"인삼조합앞주차장","type":"공영","category":"노상","address":"충청북도 영동군 영동읍 계산리 256-4","lat":36.1764283325,"lng":127.7802895691,"totalSpaces":27,"isFree":true,"operatingDays":"평일+토요일+공휴일","weekdayOpen":"00:00","weekdayClose":"23:59","weekendOpen":"00:00","weekendClose":"23:59","holidayOpen":"00:00","holidayClose":"23:59","feeInfo":"무료","phone":"043-740-3511","updatedAt":"2022-06-24","sido":"충청북도","sigungu":"영동군","dong":"영동읍"},{"name":"서송원마을공영주차장","type":"공영","category":"노외","address":"충청북도 영동군 황간면 남성리 566-2","lat":36.2266312,"lng":127.9082124,"totalSpaces":26,"isFree":true,"operatingDays":"평일+토요일+공휴일","weekdayOpen":"00:00","weekdayClose":"23:59","weekendOpen":"00:00","weekendClose":"23:59","holidayOpen":"00:00","holidayClose":"23:59","feeInfo":"무료","phone":"043-740-3511","updatedAt":"2022-06-24","sido":"충청북도","sigungu":"영동군","dong":"황간면"},{"name":"계산동 제1공영주차장","type":"공영","category":"노외","address":"충청북도 영동군 영동읍 계산리 662-10","lat":36.17227491,"lng":127.7821057,"totalSpaces":26,"isFree":true,"operatingDays":"평일+토요일+공휴일","weekdayOpen":"00:00","weekdayClose":"23:59","weekendOpen":"00:00","weekendClose":"23:59","holidayOpen":"00:00","holidayClose":"23:59","feeInfo":"무료","phone":"043-740-3512","updatedAt":"2022-06-24","sido":"충청북도","sigungu":"영동군","dong":"영동읍"},{"name":"학산공영주차장","type":"공영","category":"노외","address":"충청북도 영동군 학산면 서산리 838-2","lat":36.098071,"lng":127.683863,"totalSpaces":25,"isFree":true,"operatingDays":"평일+토요일+공휴일","weekdayOpen":"00:00","weekdayClose":"23:59","weekendOpen":"00:00","weekendClose":"23:59","holidayOpen":"00:00","holidayClose":"23:59","feeInfo":"무료","phone":"043-740-3511","updatedAt":"2022-06-24","sido":"충청북도","sigungu":"영동군","dong":"학산면"},{"name":"한전옆주차장","type":"공영","category":"노상","address":"충청북도 영동군 영동읍 계산리 681-4","lat":36.1739456084,"lng":127.7785821284,"totalSpaces":25,"isFree":true,"operatingDays":"평일+토요일+공휴일","weekdayOpen":"00:00","weekdayClose":"23:59","weekendOpen":"00:00","weekendClose":"23:59","holidayOpen":"00:00","holidayClose":"23:59","feeInfo":"무료","phone":"043-740-3511","updatedAt":"2022-06-24","sido":"충청북도","sigungu":"영동군","dong":"영동읍"},{"name":"당곡리마을공영주차장","type":"공영","category":"노외","address":"충청북도 영동군 영동읍 당곡리 172-3","lat":36.1478051488,"lng":127.8231274,"totalSpaces":24,"isFree":true,"operatingDays":"평일+토요일+공휴일","weekdayOpen":"00:00","weekdayClose":"23:59","weekendOpen":"00:00","weekendClose":"23:59","holidayOpen":"00:00","holidayClose":"23:59","feeInfo":"무료","phone":"043-740-3511","updatedAt":"2022-06-24","sido":"충청북도","sigungu":"영동군","dong":"영동읍"},{"name":"부용2리 공영주차장","type":"공영","category":"노외","address":"충청북도 영동군 용화면 용화리 512","lat":36.0205075635,"lng":127.7664292771,"totalSpaces":23,"isFree":true,"operatingDays":"평일+토요일+공휴일","weekdayOpen":"00:00","weekdayClose":"23:59","weekendOpen":"00:00","weekendClose":"23:59","holidayOpen":"00:00","holidayClose":"23:59","feeInfo":"무료","phone":"043-740-3511","updatedAt":"2022-06-24","sido":"충청북도","sigungu":"영동군","dong":"용화면"},{"name":"공수2리마을공영주차장","type":"공영","category":"노외","address":"충청북도 영동군 매곡면 공수리 500","lat":36.1621126904,"lng":127.9725573953,"totalSpaces":22,"isFree":true,"operatingDays":"평일+토요일+공휴일","weekdayOpen":"00:00","weekdayClose":"23:59","weekendOpen":"00:00","weekendClose":"23:59","holidayOpen":"00:00","holidayClose":"23:59","feeInfo":"무료","phone":"043-740-3511","updatedAt":"2022-06-24","sido":"충청북도","sigungu":"영동군","dong":"매곡면"},{"name":"동정리 공영주차장","type":"공영","category":"노외","address":"충청북도 영동군 영동읍 동정리 41-1","lat":36.1728285535,"lng":127.7916976909,"totalSpaces":22,"isFree":true,"operatingDays":"평일+토요일+공휴일","weekdayOpen":"00:00","weekdayClose":"23:59","weekendOpen":"00:00","weekendClose":"23:59","holidayOpen":"00:00","holidayClose":"23:59","feeInfo":"무료","phone":"043-740-3514","updatedAt":"2022-06-24","sido":"충청북도","sigungu":"영동군","dong":"영동읍"},{"name":"상지마을공영주차장","type":"공영","category":"노외","address":"충청북도 영동군 학산면 박계리 1065-3","lat":36.11286075,"lng":127.660199,"totalSpaces":21,"isFree":true,"operatingDays":"평일+토요일+공휴일","weekdayOpen":"00:00","weekdayClose":"23:59","weekendOpen":"00:00","weekendClose":"23:59","holidayOpen":"00:00","holidayClose":"23:59","feeInfo":"무료","phone":"043-740-3511","updatedAt":"2022-06-24","sido":"충청북도","sigungu":"영동군","dong":"학산면"},{"name":"영산2리중소규모주차장","type":"공영","category":"노외","address":"충청북도 영동군 영동읍 계산리 867-14","lat":36.1713708725,"lng":127.7766346997,"totalSpaces":20,"isFree":true,"operatingDays":"평일+토요일+공휴일","weekdayOpen":"00:00","weekdayClose":"23:59","weekendOpen":"00:00","weekendClose":"23:59","holidayOpen":"00:00","holidayClose":"23:59","feeInfo":"무료","phone":"043-740-3511","updatedAt":"2022-06-24","sido":"충청북도","sigungu":"영동군","dong":"영동읍"},{"name":"매금리마을공영주차장","type":"공영","category":"노외","address":"충청북도 영동군 용산면 매금리 613-1","lat":36.2818663499,"lng":127.8273798931,"totalSpaces":20,"isFree":true,"operatingDays":"평일+토요일+공휴일","weekdayOpen":"00:00","weekdayClose":"23:59","weekendOpen":"00:00","weekendClose":"23:59","holidayOpen":"00:00","holidayClose":"23:59","feeInfo":"무료","phone":"043-740-3511","updatedAt":"2022-06-24","sido":"충청북도","sigungu":"영동군","dong":"용산면"},{"name":"명천리마을공영주차장","type":"공영","category":"노외","address":"충청북도 영동군 심천면 명천리 370","lat":36.17533263,"lng":127.7066047,"totalSpaces":20,"isFree":true,"operatingDays":"평일+토요일+공휴일","weekdayOpen":"00:00","weekdayClose":"23:59","weekendOpen":"00:00","weekendClose":"23:59","holidayOpen":"00:00","holidayClose":"23:59","feeInfo":"무료","phone":"043-740-3511","updatedAt":"2022-06-24","sido":"충청북도","sigungu":"영동군","dong":"심천면"},{"name":"마산리마을공영주차장","type":"공영","category":"노외","address":"충청북도 영동군 추풍령면 추풍령리 355-82","lat":36.2127041961,"lng":128.000443,"totalSpaces":20,"isFree":true,"operatingDays":"평일+토요일+공휴일","weekdayOpen":"00:00","weekdayClose":"23:59","weekendOpen":"00:00","weekendClose":"23:59","holidayOpen":"00:00","holidayClose":"23:59","feeInfo":"무료","phone":"043-740-3511","updatedAt":"2022-06-24","sido":"충청북도","sigungu":"영동군","dong":"추풍령면"},{"name":"계산동 제2공영주차장","type":"공영","category":"노외","address":"충청북도 영동군 영동읍 계산리 655-9","lat":36.17167013,"lng":127.7846198,"totalSpaces":20,"isFree":true,"operatingDays":"평일+토요일+공휴일","weekdayOpen":"00:00","weekdayClose":"23:59","weekendOpen":"00:00","weekendClose":"23:59","holidayOpen":"00:00","holidayClose":"23:59","feeInfo":"무료","phone":"043-740-3513","updatedAt":"2022-06-24","sido":"충청북도","sigungu":"영동군","dong":"영동읍"},{"name":"서외과옆주차장","type":"공영","category":"노상","address":"충청북도 영동군 영동읍 부용리 345-67","lat":36.1735302279,"lng":127.7728976829,"totalSpaces":20,"isFree":true,"operatingDays":"평일+토요일+공휴일","weekdayOpen":"00:00","weekdayClose":"23:59","weekendOpen":"00:00","weekendClose":"23:59","holidayOpen":"00:00","holidayClose":"23:59","feeInfo":"무료","phone":"043-740-3511","updatedAt":"2022-06-24","sido":"충청북도","sigungu":"영동군","dong":"영동읍"},{"name":"황간면 남성리 공영주차장","type":"공영","category":"노외","address":"충청북도 영동군 황간면 서송원리 709-4","lat":36.1912797116,"lng":127.8790237916,"totalSpaces":18,"isFree":true,"operatingDays":"평일+토요일+공휴일","weekdayOpen":"00:00","weekdayClose":"23:59","weekendOpen":"00:00","weekendClose":"23:59","holidayOpen":"00:00","holidayClose":"23:59","feeInfo":"무료","phone":"043-740-3511","updatedAt":"2022-06-24","sido":"충청북도","sigungu":"영동군","dong":"황간면"},{"name":"장동마을공영주차장","type":"공영","category":"노외","address":"충청북도 영동군 심천면 장동길 43-1","lat":36.2246224185,"lng":127.6834169535,"totalSpaces":18,"isFree":true,"operatingDays":"평일+토요일+공휴일","weekdayOpen":"00:00","weekdayClose":"23:59","weekendOpen":"00:00","weekendClose":"23:59","holidayOpen":"00:00","holidayClose":"23:59","feeInfo":"무료","phone":"043-740-3511","updatedAt":"2022-06-24","sido":"충청북도","sigungu":"영동군","dong":""},{"name":"죽전마을공영주차장","type":"공영","category":"노외","address":"충청북도 영동군 추풍령면 죽전리 306","lat":36.223984,"lng":128.0255776,"totalSpaces":18,"isFree":true,"operatingDays":"평일+토요일+공휴일","weekdayOpen":"00:00","weekdayClose":"23:59","weekendOpen":"00:00","weekendClose":"23:59","holidayOpen":"00:00","holidayClose":"23:59","feeInfo":"무료","phone":"043-740-3511","updatedAt":"2022-06-24","sido":"충청북도","sigungu":"영동군","dong":"추풍령면"},{"name":"유곡2리마을공영주차장","type":"공영","category":"노외","address":"충청북도 영동군 황간면 금계리 264","lat":36.2696453,"lng":127.8619596743,"totalSpaces":18,"isFree":true,"operatingDays":"평일+토요일+공휴일","weekdayOpen":"00:00","weekdayClose":"23:59","weekendOpen":"00:00","weekendClose":"23:59","holidayOpen":"00:00","holidayClose":"23:59","feeInfo":"무료","phone":"043-740-3511","updatedAt":"2022-06-24","sido":"충청북도","sigungu":"영동군","dong":"황간면"},{"name":"묘동소규모주차장","type":"공영","category":"노외","address":"충청북도 영동군 양강면 묘동리 274-2","lat":36.1422414754,"lng":127.7459381266,"totalSpaces":17,"isFree":true,"operatingDays":"평일+토요일+공휴일","weekdayOpen":"00:00","weekdayClose":"23:59","weekendOpen":"00:00","weekendClose":"23:59","holidayOpen":"00:00","holidayClose":"23:59","feeInfo":"무료","phone":"043-740-3511","updatedAt":"2022-06-24","sido":"충청북도","sigungu":"영동군","dong":"양강면"},{"name":"지내마을공영주차장","type":"공영","category":"노외","address":"충청북도 영동군 학산면 지내리 562","lat":36.100619,"lng":127.6461606,"totalSpaces":17,"isFree":true,"operatingDays":"평일+토요일+공휴일","weekdayOpen":"00:00","weekdayClose":"23:59","weekendOpen":"00:00","weekendClose":"23:59","holidayOpen":"00:00","holidayClose":"23:59","feeInfo":"무료","phone":"043-740-3511","updatedAt":"2022-06-24","sido":"충청북도","sigungu":"영동군","dong":"학산면"},{"name":"심천리마을공영주차장","type":"공영","category":"노외","address":"충청북도 영동군 양산면 가곡리 389","lat":36.1224319,"lng":127.6671089963,"totalSpaces":16,"isFree":true,"operatingDays":"평일+토요일+공휴일","weekdayOpen":"00:00","weekdayClose":"23:59","weekendOpen":"00:00","weekendClose":"23:59","holidayOpen":"00:00","holidayClose":"23:59","feeInfo":"무료","phone":"043-740-3511","updatedAt":"2022-06-24","sido":"충청북도","sigungu":"영동군","dong":"양산면"},{"name":"삼일탑주차장","type":"공영","category":"노상","address":"충청북도 영동군 영동읍 계산리 685","lat":36.1747993447,"lng":127.7782442604,"totalSpaces":16,"isFree":true,"operatingDays":"평일+토요일+공휴일","weekdayOpen":"00:00","weekdayClose":"23:59","weekendOpen":"00:00","weekendClose":"23:59","holidayOpen":"00:00","holidayClose":"23:59","feeInfo":"무료","phone":"043-740-3511","updatedAt":"2022-06-24","sido":"충청북도","sigungu":"영동군","dong":"영동읍"},{"name":"부용1리중소규모주차장","type":"공영","category":"노외","address":"충청북도 영동군 영동읍 부용리 334-16","lat":36.1735908567,"lng":127.7709809,"totalSpaces":15,"isFree":true,"operatingDays":"평일+토요일+공휴일","weekdayOpen":"00:00","weekdayClose":"23:59","weekendOpen":"00:00","weekendClose":"23:59","holidayOpen":"00:00","holidayClose":"23:59","feeInfo":"무료","phone":"043-740-3511","updatedAt":"2022-06-24","sido":"충청북도","sigungu":"영동군","dong":"영동읍"},{"name":"동정리마을주차장","type":"공영","category":"노외","address":"충청북도 영동군 영동읍 동정리 48-1","lat":36.17377621,"lng":127.7897339,"totalSpaces":15,"isFree":true,"operatingDays":"평일+토요일+공휴일","weekdayOpen":"00:00","weekdayClose":"23:59","weekendOpen":"00:00","weekendClose":"23:59","holidayOpen":"00:00","holidayClose":"23:59","feeInfo":"무료","phone":"043-740-3511","updatedAt":"2022-06-24","sido":"충청북도","sigungu":"영동군","dong":"영동읍"},{"name":"가곡리마을공영주차장","type":"공영","category":"노외","address":"충청북도 영동군 심천면 심천리 318-14","lat":36.2371108626,"lng":127.7213314234,"totalSpaces":13,"isFree":true,"operatingDays":"평일+토요일+공휴일","weekdayOpen":"00:00","weekdayClose":"23:59","weekendOpen":"00:00","weekendClose":"23:59","holidayOpen":"00:00","holidayClose":"23:59","feeInfo":"무료","phone":"043-740-3511","updatedAt":"2022-06-24","sido":"충청북도","sigungu":"영동군","dong":"심천면"},{"name":"백자전마을공영주차장","type":"공영","category":"노외","address":"충청북도 영동군 용산면 백자전리 160-3","lat":36.258901,"lng":127.840538,"totalSpaces":13,"isFree":true,"operatingDays":"평일+토요일+공휴일","weekdayOpen":"00:00","weekdayClose":"23:59","weekendOpen":"00:00","weekendClose":"23:59","holidayOpen":"00:00","holidayClose":"23:59","feeInfo":"무료","phone":"043-740-3511","updatedAt":"2022-06-24","sido":"충청북도","sigungu":"영동군","dong":"용산면"},{"name":"산림조합공영주차장","type":"공영","category":"노외","address":"충청북도 영동군 영동읍 계산리 458","lat":36.17771261,"lng":127.7746418,"totalSpaces":12,"isFree":true,"operatingDays":"평일+토요일+공휴일","weekdayOpen":"00:00","weekdayClose":"23:59","weekendOpen":"00:00","weekendClose":"23:59","holidayOpen":"00:00","holidayClose":"23:59","feeInfo":"무료","phone":"043-740-3511","updatedAt":"2022-06-24","sido":"충청북도","sigungu":"영동군","dong":"영동읍"},{"name":"유곡마을공영주차장","type":"공영","category":"노외","address":"충청북도 영동군 상촌면 유곡리 533-4","lat":36.14077168,"lng":127.913864,"totalSpaces":12,"isFree":true,"operatingDays":"평일+토요일+공휴일","weekdayOpen":"00:00","weekdayClose":"23:59","weekendOpen":"00:00","weekendClose":"23:59","holidayOpen":"00:00","holidayClose":"23:59","feeInfo":"무료","phone":"043-740-3511","updatedAt":"2022-06-24","sido":"충청북도","sigungu":"영동군","dong":"상촌면"},{"name":"하가리마을공영주차장","type":"공영","category":"노외","address":"충청북도 영동군 영동읍 하가리 781-1","lat":36.17699358,"lng":127.844145,"totalSpaces":12,"isFree":true,"operatingDays":"평일+토요일+공휴일","weekdayOpen":"00:00","weekdayClose":"23:59","weekendOpen":"00:00","weekendClose":"23:59","holidayOpen":"00:00","holidayClose":"23:59","feeInfo":"무료","phone":"043-740-3511","updatedAt":"2022-06-24","sido":"충청북도","sigungu":"영동군","dong":"영동읍"},{"name":"금동안길공영주차장","type":"공영","category":"노상","address":"충청북도 영동군 영동읍 계산리 509-3","lat":36.17920937,"lng":127.7783595,"totalSpaces":12,"isFree":true,"operatingDays":"평일+토요일+공휴일","weekdayOpen":"00:00","weekdayClose":"23:59","weekendOpen":"00:00","weekendClose":"23:59","holidayOpen":"00:00","holidayClose":"23:59","feeInfo":"무료","phone":"043-740-3519","updatedAt":"2022-06-24","sido":"충청북도","sigungu":"영동군","dong":"영동읍"},{"name":"신안마을공영주차장","type":"공영","category":"노외","address":"충청북도 영동군 추풍령면 신안리 588","lat":36.265333,"lng":127.9956391,"totalSpaces":10,"isFree":true,"operatingDays":"평일+토요일+공휴일","weekdayOpen":"00:00","weekdayClose":"23:59","weekendOpen":"00:00","weekendClose":"23:59","holidayOpen":"00:00","holidayClose":"23:59","feeInfo":"무료","phone":"043-740-3511","updatedAt":"2022-06-24","sido":"충청북도","sigungu":"영동군","dong":"추풍령면"},{"name":"추풍령마을공영주차장","type":"공영","category":"노외","address":"충청북도 영동군 황간면 마산리 28-4","lat":36.2239154698,"lng":127.912797757,"totalSpaces":10,"isFree":true,"operatingDays":"평일+토요일+공휴일","weekdayOpen":"00:00","weekdayClose":"23:59","weekendOpen":"00:00","weekendClose":"23:59","holidayOpen":"00:00","holidayClose":"23:59","feeInfo":"무료","phone":"043-740-3511","updatedAt":"2022-06-24","sido":"충청북도","sigungu":"영동군","dong":"황간면"},{"name":"노근리마을공영주차장","type":"공영","category":"노외","address":"충청북도 영동군 황간면 노근리 719","lat":36.210065,"lng":127.8819994,"totalSpaces":10,"isFree":true,"operatingDays":"평일+토요일+공휴일","weekdayOpen":"00:00","weekdayClose":"23:59","weekendOpen":"00:00","weekendClose":"23:59","holidayOpen":"00:00","holidayClose":"23:59","feeInfo":"무료","phone":"043-740-3511","updatedAt":"2022-06-24","sido":"충청북도","sigungu":"영동군","dong":"황간면"},{"name":"아암리마을공영주차장","type":"공영","category":"노외","address":"충청북도 영동군 학산면 아암리 687","lat":36.081674,"lng":127.681679,"totalSpaces":9,"isFree":true,"operatingDays":"평일+토요일+공휴일","weekdayOpen":"00:00","weekdayClose":"23:59","weekendOpen":"00:00","weekendClose":"23:59","holidayOpen":"00:00","holidayClose":"23:59","feeInfo":"무료","phone":"043-740-3511","updatedAt":"2022-06-24","sido":"충청북도","sigungu":"영동군","dong":"학산면"},{"name":"오정리마을공영주차장","type":"공영","category":"노외","address":"충청북도 영동군 영동읍 오탄리 537-1","lat":36.19426443,"lng":127.7659175,"totalSpaces":8,"isFree":true,"operatingDays":"평일+토요일+공휴일","weekdayOpen":"00:00","weekdayClose":"23:59","weekendOpen":"00:00","weekendClose":"23:59","holidayOpen":"00:00","holidayClose":"23:59","feeInfo":"무료","phone":"043-740-3511","updatedAt":"2022-06-24","sido":"충청북도","sigungu":"영동군","dong":"영동읍"},{"name":"금계리마을공영주차장","type":"공영","category":"노외","address":"충청북도 영동군 상촌면 유곡리 241","lat":36.116514,"lng":127.920187,"totalSpaces":8,"isFree":true,"operatingDays":"평일+토요일+공휴일","weekdayOpen":"00:00","weekdayClose":"23:59","weekendOpen":"00:00","weekendClose":"23:59","holidayOpen":"00:00","holidayClose":"23:59","feeInfo":"무료","phone":"043-740-3511","updatedAt":"2022-06-24","sido":"충청북도","sigungu":"영동군","dong":"상촌면"},{"name":"영산동 제2공영주차장","type":"공영","category":"노외","address":"충청북도 영동군 영동읍 계산리 563-1","lat":36.17710978,"lng":127.775669,"totalSpaces":8,"isFree":true,"operatingDays":"평일+토요일+공휴일","weekdayOpen":"00:00","weekdayClose":"23:59","weekendOpen":"00:00","weekendClose":"23:59","holidayOpen":"00:00","holidayClose":"23:59","feeInfo":"무료","phone":"043-740-3515","updatedAt":"2022-06-24","sido":"충청북도","sigungu":"영동군","dong":"영동읍"},{"name":"호탄리마을공영주차장","type":"공영","category":"노외","address":"충청북도 영동군 양산면 호탄리 355-1","lat":36.13371813,"lng":127.6370024,"totalSpaces":6,"isFree":true,"operatingDays":"평일+토요일+공휴일","weekdayOpen":"00:00","weekdayClose":"23:59","weekendOpen":"00:00","weekendClose":"23:59","holidayOpen":"00:00","holidayClose":"23:59","feeInfo":"무료","phone":"043-740-3511","updatedAt":"2022-06-24","sido":"충청북도","sigungu":"영동군","dong":"양산면"},{"name":"서산리중소규모주차장","type":"공영","category":"노외","address":"충청북도 영동군 학산면 서산리 816","lat":36.09687826,"lng":127.6850023,"totalSpaces":5,"isFree":true,"operatingDays":"평일+토요일+공휴일","weekdayOpen":"00:00","weekdayClose":"23:59","weekendOpen":"00:00","weekendClose":"23:59","holidayOpen":"00:00","holidayClose":"23:59","feeInfo":"무료","phone":"043-740-3511","updatedAt":"2022-06-24","sido":"충청북도","sigungu":"영동군","dong":"학산면"},{"name":"영동전통시장제2주차장","type":"공영","category":"노외","address":"충청북도 영동군 양강면 구강리 489","lat":36.1580358285,"lng":127.6948142326,"totalSpaces":5,"isFree":true,"operatingDays":"평일+토요일+공휴일","weekdayOpen":"00:00","weekdayClose":"23:59","weekendOpen":"00:00","weekendClose":"23:59","holidayOpen":"00:00","holidayClose":"23:59","feeInfo":"무료","phone":"043-740-3511","updatedAt":"2022-06-24","sido":"충청북도","sigungu":"영동군","dong":"양강면"},{"name":"유전리마을공영주차장","type":"공영","category":"노외","address":"충청북도 영동군 상촌면 유곡리 74-1","lat":36.1287882,"lng":127.926837,"totalSpaces":2,"isFree":true,"operatingDays":"평일+토요일+공휴일","weekdayOpen":"00:00","weekdayClose":"23:59","weekendOpen":"00:00","weekendClose":"23:59","holidayOpen":"00:00","holidayClose":"23:59","feeInfo":"무료","phone":"043-740-3511","updatedAt":"2022-06-24","sido":"충청북도","sigungu":"영동군","dong":"상촌면"},{"name":"영동전통시장제1주차장","type":"공영","category":"노외","address":"충청북도 영동군 영동읍 계산리 694-16","lat":36.1749054491,"lng":127.7761407179,"totalSpaces":33,"isFree":false,"operatingDays":"평일+토요일+공휴일","weekdayOpen":"00:00","weekdayClose":"23:59","weekendOpen":"00:00","weekendClose":"23:59","holidayOpen":"00:00","holidayClose":"23:59","feeInfo":"기본 15분 0원 / 추가 30분당 500원","phone":"043-740-3511","updatedAt":"2022-06-24","sido":"충청북도","sigungu":"영동군","dong":"영동읍"}]}