{"sido":"충청북도","sigungu":"진천군","totalCount":14,"validCount":14,"items":[{"name":"백곡천 하상주차장","type":"공영","category":"노외","address":"충청북도 진천군 진천읍 중앙동8길 27","lat":36.85781645,"lng":127.4474978,"totalSpaces":964,"isFree":true,"operatingDays":"평일+토요일+공휴일","weekdayOpen":"00:00","weekdayClose":"23:59","weekendOpen":"00:00","weekendClose":"23:59","holidayOpen":"00:00","holidayClose":"23:59","feeInfo":"무료","phone":"043-539-4332","updatedAt":"2025-08-07","sido":"충청북도","sigungu":"진천군","dong":"진천읍"},{"name":"읍내리 정자도로 노상주차장","type":"공영","category":"노상","address":"충청북도 진천군 진천읍 남산길 60","lat":36.85395363,"lng":127.4417656,"totalSpaces":105,"isFree":true,"operatingDays":"평일+토요일+공휴일","weekdayOpen":"00:00","weekdayClose":"23:59","weekendOpen":"00:00","weekendClose":"23:59","holidayOpen":"00:00","holidayClose":"23:59","feeInfo":"무료","phone":"043-539-4332","updatedAt":"2025-08-07","sido":"충청북도","sigungu":"진천군","dong":"진천읍"},{"name":"어울림광장 공영주차타워","type":"공영","category":"노외","address":"충청북도 진천군 진천읍 남산10길 27","lat":36.85705597,"lng":127.4471784,"totalSpaces":104,"isFree":true,"operatingDays":"평일+토요일+공휴일","weekdayOpen":"00:00","weekdayClose":"23:59","weekendOpen":"00:00","weekendClose":"23:59","holidayOpen":"00:00","holidayClose":"23:59","feeInfo":"무료","phone":"043-539-4332","updatedAt":"2025-08-07","sido":"충청북도","sigungu":"진천군","dong":"진천읍"},{"name":"용몽리 노상주차장","type":"공영","category":"노상","address":"충청북도 진천군 덕산읍 용몽3길 48","lat":36.91149602,"lng":127.5060407,"totalSpaces":89,"isFree":true,"operatingDays":"평일+토요일+공휴일","weekdayOpen":"00:00","weekdayClose":"23:59","weekendOpen":"00:00","weekendClose":"23:59","holidayOpen":"00:00","holidayClose":"23:59","feeInfo":"무료","phone":"043-539-4332","updatedAt":"2025-08-07","sido":"충청북도","sigungu":"진천군","dong":"덕산읍"},{"name":"교성리 노상주차장","type":"공영","category":"노상","address":"충청북도 진천군 진천읍 상산로 91","lat":36.8548169,"lng":127.4441785,"totalSpaces":74,"isFree":true,"operatingDays":"평일+토요일+공휴일","weekdayOpen":"00:00","weekdayClose":"23:59","weekendOpen":"00:00","weekendClose":"23:59","holidayOpen":"00:00","holidayClose":"23:59","feeInfo":"무료","phone":"043-539-4332","updatedAt":"2025-08-07","sido":"충청북도","sigungu":"진천군","dong":"진천읍"},{"name":"이월면소재지 공영주차장","type":"공영","category":"노외","address":"충청북도 진천군 이월면 장양길 3","lat":36.93241136,"lng":127.4310487,"totalSpaces":67,"isFree":true,"operatingDays":"평일+토요일+공휴일","weekdayOpen":"00:00","weekdayClose":"23:59","weekendOpen":"00:00","weekendClose":"23:59","holidayOpen":"00:00","holidayClose":"23:59","feeInfo":"무료","phone":"043-539-4332","updatedAt":"2025-08-07","sido":"충청북도","sigungu":"진천군","dong":"이월면"},{"name":"광혜원면 장기1안길 노상주차장","type":"공영","category":"노상","address":"충청북도 진천군 광혜원면 장기1안길 8","lat":36.98904315,"lng":127.4448711,"totalSpaces":61,"isFree":true,"operatingDays":"평일+토요일+공휴일","weekdayOpen":"00:00","weekdayClose":"23:59","weekendOpen":"00:00","weekendClose":"23:59","holidayOpen":"00:00","holidayClose":"23:59","feeInfo":"무료","phone":"043-539-4332","updatedAt":"2025-08-07","sido":"충청북도","sigungu":"진천군","dong":"광혜원면"},{"name":"광혜원면 화랑교 하부 공영주차장(상)","type":"공영","category":"노외","address":"충청북도 진천군 광혜원면 구암길 11","lat":36.98987997,"lng":127.4368402,"totalSpaces":56,"isFree":true,"operatingDays":"평일+토요일+공휴일","weekdayOpen":"00:00","weekdayClose":"23:59","weekendOpen":"00:00","weekendClose":"23:59","holidayOpen":"00:00","holidayClose":"23:59","feeInfo":"무료","phone":"043-539-4332","updatedAt":"2025-08-07","sido":"충청북도","sigungu":"진천군","dong":"광혜원면"},{"name":"읍내리 공영주차장","type":"공영","category":"노외","address":"충청북도 진천군 진천읍 중앙북로 31","lat":36.85909106,"lng":127.4408411,"totalSpaces":40,"isFree":true,"operatingDays":"평일+토요일+공휴일","weekdayOpen":"00:00","weekdayClose":"23:59","weekendOpen":"00:00","weekendClose":"23:59","holidayOpen":"00:00","holidayClose":"23:59","feeInfo":"무료","phone":"043-539-4332","updatedAt":"2025-08-07","sido":"충청북도","sigungu":"진천군","dong":"진천읍"},{"name":"만승초등학교 공영주차장","type":"공영","category":"노외","address":"충청북도 진천군 광혜원면 중리길 9-7","lat":36.99128259,"lng":127.4412974,"totalSpaces":40,"isFree":true,"operatingDays":"평일+토요일+공휴일","weekdayOpen":"00:00","weekdayClose":"23:59","weekendOpen":"00:00","weekendClose":"23:59","holidayOpen":"00:00","holidayClose":"23:59","feeInfo":"무료","phone":"043-539-4332","updatedAt":"2025-08-07","sido":"충청북도","sigungu":"진천군","dong":"광혜원면"},{"name":"광혜원 화랑 임시주차장","type":"공영","category":"노외","address":"충청북도 진천군 광혜원면 화랑길 86","lat":36.99360115,"lng":127.4354919,"totalSpaces":40,"isFree":true,"operatingDays":"평일+토요일+공휴일","weekdayOpen":"00:00","weekdayClose":"23:59","weekendOpen":"00:00","weekendClose":"23:59","holidayOpen":"00:00","holidayClose":"23:59","feeInfo":"무료","phone":"043-539-4332","updatedAt":"2025-08-07","sido":"충청북도","sigungu":"진천군","dong":"광혜원면"},{"name":"칠장천 하상주차장","type":"공영","category":"노외","address":"충청북도 진천군 광혜원면 장기1길 25-6","lat":36.99009646,"lng":127.4462089,"totalSpaces":40,"isFree":true,"operatingDays":"평일+토요일+공휴일","weekdayOpen":"00:00","weekdayClose":"23:59","weekendOpen":"00:00","weekendClose":"23:59","holidayOpen":"00:00","holidayClose":"23:59","feeInfo":"무료","phone":"043-539-4332","updatedAt":"2025-08-07","sido":"충청북도","sigungu":"진천군","dong":"광혜원면"},{"name":"광혜원면 화랑교 하부 공영주차장(하)","type":"공영","category":"노외","address":"충청북도 진천군 광혜원면 구암길 11","lat":36.98987997,"lng":127.4368402,"totalSpaces":39,"isFree":true,"operatingDays":"평일+토요일+공휴일","weekdayOpen":"00:00","weekdayClose":"23:59","weekendOpen":"00:00","weekendClose":"23:59","holidayOpen":"00:00","holidayClose":"23:59","feeInfo":"무료","phone":"043-539-4332","updatedAt":"2025-08-07","sido":"충청북도","sigungu":"진천군","dong":"광혜원면"},{"name":"사묵마을주차장","type":"공영","category":"노외","address":"충청북도 진천군 진천읍 송두4길 24","lat":36.88334708,"lng":127.4491666,"totalSpaces":10,"isFree":true,"operatingDays":"평일+토요일+공휴일","weekdayOpen":"00:00","weekdayClose":"23:59","weekendOpen":"00:00","weekendClose":"23:59","holidayOpen":"00:00","holidayClose":"23:59","feeInfo":"무료","phone":"043-539-4332","updatedAt":"2025-08-07","sido":"충청북도","sigungu":"진천군","dong":"진천읍"}]}