{"sido":"광주광역시","sigungu":"북구","totalCount":85,"validCount":85,"items":[{"name":"중흥3구역 주차장","type":"공영","category":"노외","address":"광주광역시 북구 중흥동 845","lat":35.16914056,"lng":126.9140621,"totalSpaces":79,"isFree":true,"operatingDays":"평일+토요일+공휴일","weekdayOpen":"00:00","weekdayClose":"23:59","weekendOpen":"00:00","weekendClose":"23:59","holidayOpen":"00:00","holidayClose":"23:59","feeInfo":"무료","phone":"062-524-0825","updatedAt":"2025-10-30","sido":"광주광역시","sigungu":"북구","dong":"중흥동"},{"name":"북구문화센터 공영주차장","type":"공영","category":"노외","address":"광주광역시 북구 양산동 343-1","lat":35.20145223,"lng":126.8733838,"totalSpaces":72,"isFree":true,"operatingDays":"평일+토요일+공휴일","weekdayOpen":"00:00","weekdayClose":"23:59","weekendOpen":"00:00","weekendClose":"23:59","holidayOpen":"00:00","holidayClose":"23:59","feeInfo":"무료","phone":"062-524-0825","updatedAt":"2025-10-30","sido":"광주광역시","sigungu":"북구","dong":"양산동"},{"name":"삼각동 일곡엘리체 공영주차장","type":"공영","category":"노외","address":"광주광역시 북구 삼각동 837","lat":35.19665034,"lng":126.8981828,"totalSpaces":44,"isFree":true,"operatingDays":"평일+토요일+공휴일","weekdayOpen":"00:00","weekdayClose":"23:59","weekendOpen":"00:00","weekendClose":"23:59","holidayOpen":"00:00","holidayClose":"23:59","feeInfo":"무료","phone":"062-524-0825","updatedAt":"2025-10-30","sido":"광주광역시","sigungu":"북구","dong":"삼각동"},{"name":"삼각동 공영주차장","type":"공영","category":"노외","address":"광주광역시 북구 삼각동 781-3","lat":35.201204,"lng":126.8985704,"totalSpaces":33,"isFree":true,"operatingDays":"평일+토요일+공휴일","weekdayOpen":"00:00","weekdayClose":"23:59","weekendOpen":"00:00","weekendClose":"23:59","holidayOpen":"00:00","holidayClose":"23:59","feeInfo":"무료","phone":"062-524-0825","updatedAt":"2025-10-30","sido":"광주광역시","sigungu":"북구","dong":"삼각동"},{"name":"양산동공영주차장","type":"공영","category":"노외","address":"광주광역시 북구 연제동 478-22","lat":35.20661787,"lng":126.8704034,"totalSpaces":30,"isFree":true,"operatingDays":"평일+토요일+공휴일","weekdayOpen":"00:00","weekdayClose":"23:59","weekendOpen":"00:00","weekendClose":"23:59","holidayOpen":"00:00","holidayClose":"23:59","feeInfo":"무료","phone":"062-524-0825","updatedAt":"2025-10-30","sido":"광주광역시","sigungu":"북구","dong":"연제동"},{"name":"태봉노인복지관 옆","type":"공영","category":"노외","address":"광주광역시 북구 신안동 234-1 외 2","lat":35.16921673,"lng":126.8985172,"totalSpaces":30,"isFree":true,"operatingDays":"평일+토요일+공휴일","weekdayOpen":"00:00","weekdayClose":"23:59","weekendOpen":"00:00","weekendClose":"23:59","holidayOpen":"00:00","holidayClose":"23:59","feeInfo":"무료","phone":"062-524-0825","updatedAt":"2025-10-30","sido":"광주광역시","sigungu":"북구","dong":"신안동"},{"name":"본촌동 공영주차장","type":"공영","category":"노외","address":"광주광역시 북구 용두택지로 66(본촌동)","lat":35.21652283,"lng":126.8788846,"totalSpaces":28,"isFree":true,"operatingDays":"평일+토요일+공휴일","weekdayOpen":"00:00","weekdayClose":"23:59","weekendOpen":"00:00","weekendClose":"23:59","holidayOpen":"00:00","holidayClose":"23:59","feeInfo":"무료","phone":"062-524-0825","updatedAt":"2025-10-30","sido":"광주광역시","sigungu":"북구","dong":"본촌동"},{"name":"밤실마을 공영주차장","type":"공영","category":"노외","address":"광주광역시 북구 두암동 210-6 외 1","lat":35.16352934,"lng":126.9410731,"totalSpaces":26,"isFree":true,"operatingDays":"평일+토요일+공휴일","weekdayOpen":"00:00","weekdayClose":"23:59","weekendOpen":"00:00","weekendClose":"23:59","holidayOpen":"00:00","holidayClose":"23:59","feeInfo":"무료","phone":"062-524-0825","updatedAt":"2025-10-30","sido":"광주광역시","sigungu":"북구","dong":"두암동"},{"name":"오치2동주민센터","type":"공영","category":"노외","address":"광주광역시 북구 서하로183번길 29(오치동)","lat":35.19004634,"lng":126.9004838,"totalSpaces":24,"isFree":true,"operatingDays":"평일+토요일+공휴일","weekdayOpen":"00:00","weekdayClose":"23:59","weekendOpen":"00:00","weekendClose":"23:59","holidayOpen":"00:00","holidayClose":"23:59","feeInfo":"무료","phone":"062-524-0825","updatedAt":"2025-10-30","sido":"광주광역시","sigungu":"북구","dong":"오치동"},{"name":"일곡동주민센터","type":"공영","category":"노외","address":"광주광역시 북구 설죽로 525(일곡동)","lat":35.20603007,"lng":126.8972795,"totalSpaces":22,"isFree":true,"operatingDays":"평일+토요일+공휴일","weekdayOpen":"00:00","weekdayClose":"23:59","weekendOpen":"00:00","weekendClose":"23:59","holidayOpen":"00:00","holidayClose":"23:59","feeInfo":"무료","phone":"062-524-0825","updatedAt":"2025-10-30","sido":"광주광역시","sigungu":"북구","dong":"일곡동"},{"name":"운암2동주민센터","type":"공영","category":"노외","address":"광주광역시 북구 죽봉대로 214(운암동)","lat":35.1725238,"lng":126.8850985,"totalSpaces":20,"isFree":true,"operatingDays":"평일+토요일+공휴일","weekdayOpen":"00:00","weekdayClose":"23:59","weekendOpen":"00:00","weekendClose":"23:59","holidayOpen":"00:00","holidayClose":"23:59","feeInfo":"무료","phone":"062-524-0825","updatedAt":"2025-10-30","sido":"광주광역시","sigungu":"북구","dong":"운암동"},{"name":"매곡동쌈지","type":"공영","category":"노외","address":"광주광역시 북구 매곡로69번길 37(매곡동)","lat":35.18843006,"lng":126.8921935,"totalSpaces":19,"isFree":true,"operatingDays":"평일+토요일+공휴일","weekdayOpen":"00:00","weekdayClose":"23:59","weekendOpen":"00:00","weekendClose":"23:59","holidayOpen":"00:00","holidayClose":"23:59","feeInfo":"무료","phone":"062-524-0825","updatedAt":"2025-10-30","sido":"광주광역시","sigungu":"북구","dong":"매곡동"},{"name":"두암3동쌈지","type":"공영","category":"노외","address":"광주광역시 북구 두암동 283-1번지","lat":35.164429,"lng":126.934089,"totalSpaces":18,"isFree":true,"operatingDays":"평일+토요일+공휴일","weekdayOpen":"00:00","weekdayClose":"23:59","weekendOpen":"00:00","weekendClose":"23:59","holidayOpen":"00:00","holidayClose":"23:59","feeInfo":"무료","phone":"062-524-0825","updatedAt":"2025-10-30","sido":"광주광역시","sigungu":"북구","dong":"두암동"},{"name":"오치2동쌈지","type":"공영","category":"노외","address":"광주광역시 북구 오치동 918-5","lat":35.19029592,"lng":126.9035226,"totalSpaces":18,"isFree":true,"operatingDays":"평일+토요일+공휴일","weekdayOpen":"00:00","weekdayClose":"23:59","weekendOpen":"00:00","weekendClose":"23:59","holidayOpen":"00:00","holidayClose":"23:59","feeInfo":"무료","phone":"062-524-0825","updatedAt":"2025-10-30","sido":"광주광역시","sigungu":"북구","dong":"오치동"},{"name":"건국동주민센터","type":"공영","category":"노외","address":"광주광역시 북구 본촌마을길 25(본촌동)","lat":35.22294676,"lng":126.8816343,"totalSpaces":18,"isFree":true,"operatingDays":"평일+토요일+공휴일","weekdayOpen":"00:00","weekdayClose":"23:59","weekendOpen":"00:00","weekendClose":"23:59","holidayOpen":"00:00","holidayClose":"23:59","feeInfo":"무료","phone":"062-524-0825","updatedAt":"2025-10-30","sido":"광주광역시","sigungu":"북구","dong":"본촌동"},{"name":"용봉동 제2공영주차장","type":"공영","category":"노외","address":"광주광역시 북구 용봉동 1231-1","lat":35.18046764,"lng":126.898695,"totalSpaces":17,"isFree":true,"operatingDays":"평일+토요일+공휴일","weekdayOpen":"00:00","weekdayClose":"23:59","weekendOpen":"00:00","weekendClose":"23:59","holidayOpen":"00:00","holidayClose":"23:59","feeInfo":"무료","phone":"062-524-0825","updatedAt":"2025-10-30","sido":"광주광역시","sigungu":"북구","dong":"용봉동"},{"name":"중흥동쌈지","type":"공영","category":"노외","address":"광주광역시 북구 중가로85번길 31(중흥동)","lat":35.15989391,"lng":126.9093626,"totalSpaces":17,"isFree":true,"operatingDays":"평일+토요일+공휴일","weekdayOpen":"00:00","weekdayClose":"23:59","weekendOpen":"00:00","weekendClose":"23:59","holidayOpen":"00:00","holidayClose":"23:59","feeInfo":"무료","phone":"062-524-0825","updatedAt":"2025-10-30","sido":"광주광역시","sigungu":"북구","dong":"중흥동"},{"name":"오치1동주민센터","type":"공영","category":"노외","address":"광주광역시 북구 우치로274번길 48(오치동)","lat":35.18910416,"lng":126.9081312,"totalSpaces":17,"isFree":true,"operatingDays":"평일+토요일+공휴일","weekdayOpen":"00:00","weekdayClose":"23:59","weekendOpen":"00:00","weekendClose":"23:59","holidayOpen":"00:00","holidayClose":"23:59","feeInfo":"무료","phone":"062-524-0825","updatedAt":"2025-10-30","sido":"광주광역시","sigungu":"북구","dong":"오치동"},{"name":"신안동주민센터","type":"공영","category":"노외","address":"광주광역시 북구 자산로 66(신안동)","lat":35.16744247,"lng":126.8987243,"totalSpaces":16,"isFree":true,"operatingDays":"평일+토요일+공휴일","weekdayOpen":"00:00","weekdayClose":"23:59","weekendOpen":"00:00","weekendClose":"23:59","holidayOpen":"00:00","holidayClose":"23:59","feeInfo":"무료","phone":"062-524-0825","updatedAt":"2025-10-30","sido":"광주광역시","sigungu":"북구","dong":"신안동"},{"name":"두암3동주민센터","type":"공영","category":"노외","address":"광주광역시 북구 삼정로3번길 25(두암동)","lat":35.16301813,"lng":126.9347535,"totalSpaces":16,"isFree":true,"operatingDays":"평일+토요일+공휴일","weekdayOpen":"00:00","weekdayClose":"23:59","weekendOpen":"00:00","weekendClose":"23:59","holidayOpen":"00:00","holidayClose":"23:59","feeInfo":"무료","phone":"062-524-0825","updatedAt":"2025-10-30","sido":"광주광역시","sigungu":"북구","dong":"두암동"},{"name":"중흥2동주민센터","type":"공영","category":"노외","address":"광주광역시 북구 우치로1번길 18-5(중흥동)","lat":35.16867599,"lng":126.9083649,"totalSpaces":15,"isFree":true,"operatingDays":"평일+토요일+공휴일","weekdayOpen":"00:00","weekdayClose":"23:59","weekendOpen":"00:00","weekendClose":"23:59","holidayOpen":"00:00","holidayClose":"23:59","feeInfo":"무료","phone":"062-524-0825","updatedAt":"2025-10-30","sido":"광주광역시","sigungu":"북구","dong":"중흥동"},{"name":"두암1동주민센터","type":"공영","category":"노외","address":"광주광역시 북구 동문대로110번길 77(두암동)","lat":35.17103696,"lng":126.9289643,"totalSpaces":15,"isFree":true,"operatingDays":"평일+토요일+공휴일","weekdayOpen":"00:00","weekdayClose":"23:59","weekendOpen":"00:00","weekendClose":"23:59","holidayOpen":"00:00","holidayClose":"23:59","feeInfo":"무료","phone":"062-524-0825","updatedAt":"2025-10-30","sido":"광주광역시","sigungu":"북구","dong":"두암동"},{"name":"두암2동주민센터","type":"공영","category":"노외","address":"광주광역시 북구 면앙로192번길 15(두암동)","lat":35.17460117,"lng":126.9325311,"totalSpaces":15,"isFree":true,"operatingDays":"평일+토요일+공휴일","weekdayOpen":"00:00","weekdayClose":"23:59","weekendOpen":"00:00","weekendClose":"23:59","holidayOpen":"00:00","holidayClose":"23:59","feeInfo":"무료","phone":"062-524-0825","updatedAt":"2025-10-30","sido":"광주광역시","sigungu":"북구","dong":"두암동"},{"name":"양산동주민센터","type":"공영","category":"노외","address":"광주광역시 북구 양산택지로 32(양산동)","lat":35.20916495,"lng":126.8796423,"totalSpaces":15,"isFree":true,"operatingDays":"평일+토요일+공휴일","weekdayOpen":"00:00","weekdayClose":"23:59","weekendOpen":"00:00","weekendClose":"23:59","holidayOpen":"00:00","holidayClose":"23:59","feeInfo":"무료","phone":"062-524-0825","updatedAt":"2025-10-30","sido":"광주광역시","sigungu":"북구","dong":"양산동"},{"name":"동림동주민센터","type":"공영","category":"노외","address":"광주광역시 북구 북문대로 236(동림동)","lat":35.18702848,"lng":126.8666052,"totalSpaces":15,"isFree":true,"operatingDays":"평일+토요일+공휴일","weekdayOpen":"00:00","weekdayClose":"23:59","weekendOpen":"00:00","weekendClose":"23:59","holidayOpen":"00:00","holidayClose":"23:59","feeInfo":"무료","phone":"062-524-0825","updatedAt":"2025-10-30","sido":"광주광역시","sigungu":"북구","dong":"동림동"},{"name":"용봉동 제3공영주차장","type":"공영","category":"노외","address":"광주광역시 북구 용봉동 1228-1","lat":35.18053765,"lng":126.9004506,"totalSpaces":14,"isFree":true,"operatingDays":"평일+토요일+공휴일","weekdayOpen":"00:00","weekdayClose":"23:59","weekendOpen":"00:00","weekendClose":"23:59","holidayOpen":"00:00","holidayClose":"23:59","feeInfo":"무료","phone":"062-524-0825","updatedAt":"2025-10-30","sido":"광주광역시","sigungu":"북구","dong":"용봉동"},{"name":"석곡동주민센터","type":"공영","category":"노외","address":"광주광역시 북구 석곡로 634(망월동)","lat":35.21501557,"lng":126.9500443,"totalSpaces":14,"isFree":true,"operatingDays":"평일+토요일+공휴일","weekdayOpen":"00:00","weekdayClose":"23:59","weekendOpen":"00:00","weekendClose":"23:59","holidayOpen":"00:00","holidayClose":"23:59","feeInfo":"무료","phone":"062-524-0825","updatedAt":"2025-10-30","sido":"광주광역시","sigungu":"북구","dong":"망월동"},{"name":"양산동쌈지","type":"공영","category":"노외","address":"광주광역시 북구 양산동 620-64","lat":35.19517263,"lng":126.8763425,"totalSpaces":12,"isFree":true,"operatingDays":"평일+토요일+공휴일","weekdayOpen":"00:00","weekdayClose":"23:59","weekendOpen":"00:00","weekendClose":"23:59","holidayOpen":"00:00","holidayClose":"23:59","feeInfo":"무료","phone":"062-524-0825","updatedAt":"2025-10-30","sido":"광주광역시","sigungu":"북구","dong":"양산동"},{"name":"임동쌈지","type":"공영","category":"노외","address":"광주광역시 북구 임동 31-16외 4필지","lat":35.16332097,"lng":126.898112,"totalSpaces":12,"isFree":true,"operatingDays":"평일+토요일+공휴일","weekdayOpen":"00:00","weekdayClose":"23:59","weekendOpen":"00:00","weekendClose":"23:59","holidayOpen":"00:00","holidayClose":"23:59","feeInfo":"무료","phone":"062-524-0825","updatedAt":"2025-10-30","sido":"광주광역시","sigungu":"북구","dong":"임동"},{"name":"신안동쌈지","type":"공영","category":"노외","address":"광주광역시 북구 중흥로83번길 17-8(신안동)","lat":35.16490798,"lng":126.9032892,"totalSpaces":12,"isFree":true,"operatingDays":"평일+토요일+공휴일","weekdayOpen":"00:00","weekdayClose":"23:59","weekendOpen":"00:00","weekendClose":"23:59","holidayOpen":"00:00","holidayClose":"23:59","feeInfo":"무료","phone":"062-524-0825","updatedAt":"2025-10-30","sido":"광주광역시","sigungu":"북구","dong":"신안동"},{"name":"운암1동주민센터","type":"공영","category":"노외","address":"광주광역시 북구 동운로201번길 55(운암동)","lat":35.17486494,"lng":126.8744368,"totalSpaces":12,"isFree":true,"operatingDays":"평일+토요일+공휴일","weekdayOpen":"00:00","weekdayClose":"23:59","weekendOpen":"00:00","weekendClose":"23:59","holidayOpen":"00:00","holidayClose":"23:59","feeInfo":"무료","phone":"062-524-0825","updatedAt":"2025-10-30","sido":"광주광역시","sigungu":"북구","dong":"운암동"},{"name":"임동주민센터","type":"공영","category":"노외","address":"광주광역시 북구 서림로 53(임동)","lat":35.16587389,"lng":126.8942478,"totalSpaces":11,"isFree":true,"operatingDays":"평일+토요일+공휴일","weekdayOpen":"00:00","weekdayClose":"23:59","weekendOpen":"00:00","weekendClose":"23:59","holidayOpen":"00:00","holidayClose":"23:59","feeInfo":"무료","phone":"062-524-0825","updatedAt":"2025-10-30","sido":"광주광역시","sigungu":"북구","dong":"임동"},{"name":"삼각동주민센터","type":"공영","category":"노외","address":"광주광역시 북구 설죽로 447(삼각동)","lat":35.19926457,"lng":126.8994886,"totalSpaces":11,"isFree":true,"operatingDays":"평일+토요일+공휴일","weekdayOpen":"00:00","weekdayClose":"23:59","weekendOpen":"00:00","weekendClose":"23:59","holidayOpen":"00:00","holidayClose":"23:59","feeInfo":"무료","phone":"062-524-0825","updatedAt":"2025-10-30","sido":"광주광역시","sigungu":"북구","dong":"삼각동"},{"name":"두암동 임시주차장","type":"공영","category":"노외","address":"광주광역시 북구 두암동 812-45","lat":35.17127819,"lng":126.9376246,"totalSpaces":10,"isFree":true,"operatingDays":"평일+토요일+공휴일","weekdayOpen":"00:00","weekdayClose":"23:59","weekendOpen":"00:00","weekendClose":"23:59","holidayOpen":"00:00","holidayClose":"23:59","feeInfo":"무료","phone":"062-524-0825","updatedAt":"2025-10-30","sido":"광주광역시","sigungu":"북구","dong":"두암동"},{"name":"중흥3동주민센터","type":"공영","category":"노외","address":"광주광역시 북구 중흥동 252-17","lat":35.17211102,"lng":126.9170463,"totalSpaces":10,"isFree":true,"operatingDays":"평일+토요일+공휴일","weekdayOpen":"00:00","weekdayClose":"23:59","weekendOpen":"00:00","weekendClose":"23:59","holidayOpen":"00:00","holidayClose":"23:59","feeInfo":"무료","phone":"062-524-0825","updatedAt":"2025-10-30","sido":"광주광역시","sigungu":"북구","dong":"중흥동"},{"name":"중앙동주민센터","type":"공영","category":"노외","address":"광주광역시 북구 금재로 30(북동)","lat":35.15732111,"lng":126.9065777,"totalSpaces":10,"isFree":true,"operatingDays":"평일+토요일+공휴일","weekdayOpen":"00:00","weekdayClose":"23:59","weekendOpen":"00:00","weekendClose":"23:59","holidayOpen":"00:00","holidayClose":"23:59","feeInfo":"무료","phone":"062-524-0825","updatedAt":"2025-10-30","sido":"광주광역시","sigungu":"북구","dong":"유동"},{"name":"중흥3동쌈지","type":"공영","category":"노외","address":"광주광역시 북구 서암대로289번길 21-2(중흥동)","lat":35.16695066,"lng":126.9156246,"totalSpaces":10,"isFree":true,"operatingDays":"평일+토요일+공휴일","weekdayOpen":"00:00","weekdayClose":"23:59","weekendOpen":"00:00","weekendClose":"23:59","holidayOpen":"00:00","holidayClose":"23:59","feeInfo":"무료","phone":"062-524-0825","updatedAt":"2025-10-30","sido":"광주광역시","sigungu":"북구","dong":"중흥동"},{"name":"임동쌈지","type":"공영","category":"노외","address":"광주광역시 북구 임동 191-3 외 1","lat":35.16416217,"lng":126.8994923,"totalSpaces":10,"isFree":true,"operatingDays":"평일+토요일+공휴일","weekdayOpen":"00:00","weekdayClose":"23:59","weekendOpen":"00:00","weekendClose":"23:59","holidayOpen":"00:00","holidayClose":"23:59","feeInfo":"무료","phone":"062-524-0825","updatedAt":"2025-10-30","sido":"광주광역시","sigungu":"북구","dong":"임동"},{"name":"문흥2동주민센터","type":"공영","category":"노외","address":"광주광역시 북구 문산로 25(문흥동)","lat":35.18432223,"lng":126.9219174,"totalSpaces":10,"isFree":true,"operatingDays":"평일+토요일+공휴일","weekdayOpen":"00:00","weekdayClose":"23:59","weekendOpen":"00:00","weekendClose":"23:59","holidayOpen":"00:00","holidayClose":"23:59","feeInfo":"무료","phone":"062-524-0825","updatedAt":"2025-10-30","sido":"광주광역시","sigungu":"북구","dong":"문흥동"},{"name":"문흥1동주민센터","type":"공영","category":"노외","address":"광주광역시 북구 대천로 140-3(문흥동)","lat":35.18676652,"lng":126.9216296,"totalSpaces":10,"isFree":true,"operatingDays":"평일+토요일+공휴일","weekdayOpen":"00:00","weekdayClose":"23:59","weekendOpen":"00:00","weekendClose":"23:59","holidayOpen":"00:00","holidayClose":"23:59","feeInfo":"무료","phone":"062-524-0825","updatedAt":"2025-10-30","sido":"광주광역시","sigungu":"북구","dong":"문흥동"},{"name":"중흥2동주민센터","type":"공영","category":"노외","address":"광주광역시 북구 중흥동 348-24","lat":35.16801795,"lng":126.9093803,"totalSpaces":9,"isFree":true,"operatingDays":"평일+토요일+공휴일","weekdayOpen":"00:00","weekdayClose":"23:59","weekendOpen":"00:00","weekendClose":"23:59","holidayOpen":"00:00","holidayClose":"23:59","feeInfo":"무료","phone":"062-524-0825","updatedAt":"2025-10-30","sido":"광주광역시","sigungu":"북구","dong":"중흥동"},{"name":"임동쌈지","type":"공영","category":"노외","address":"광주광역시 북구 임동 132-25","lat":35.16612975,"lng":126.8941004,"totalSpaces":9,"isFree":true,"operatingDays":"평일+토요일+공휴일","weekdayOpen":"00:00","weekdayClose":"23:59","weekendOpen":"00:00","weekendClose":"23:59","holidayOpen":"00:00","holidayClose":"23:59","feeInfo":"무료","phone":"062-524-0825","updatedAt":"2025-10-30","sido":"광주광역시","sigungu":"북구","dong":"임동"},{"name":"용봉동쌈지","type":"공영","category":"노외","address":"광주광역시 북구 용봉동 1205-36","lat":35.18177575,"lng":126.9052806,"totalSpaces":9,"isFree":true,"operatingDays":"평일+토요일+공휴일","weekdayOpen":"00:00","weekdayClose":"23:59","weekendOpen":"00:00","weekendClose":"23:59","holidayOpen":"00:00","holidayClose":"23:59","feeInfo":"무료","phone":"062-524-0825","updatedAt":"2025-10-30","sido":"광주광역시","sigungu":"북구","dong":"용봉동"},{"name":"중흥동쌈지","type":"공영","category":"노외","address":"광주광역시 북구 향토문화로 14(중흥동)","lat":35.16855896,"lng":126.9160269,"totalSpaces":9,"isFree":true,"operatingDays":"평일+토요일+공휴일","weekdayOpen":"00:00","weekdayClose":"23:59","weekendOpen":"00:00","weekendClose":"23:59","holidayOpen":"00:00","holidayClose":"23:59","feeInfo":"무료","phone":"062-524-0825","updatedAt":"2025-10-30","sido":"광주광역시","sigungu":"북구","dong":"중흥동"},{"name":"신안동쌈지","type":"공영","category":"노외","address":"광주광역시 북구 무등로164번길 24-9 (신안동)","lat":35.165103,"lng":126.9007337,"totalSpaces":9,"isFree":true,"operatingDays":"평일+토요일+공휴일","weekdayOpen":"00:00","weekdayClose":"23:59","weekendOpen":"00:00","weekendClose":"23:59","holidayOpen":"00:00","holidayClose":"23:59","feeInfo":"무료","phone":"062-524-0825","updatedAt":"2025-10-30","sido":"광주광역시","sigungu":"북구","dong":"신안동"},{"name":"운암동쌈지","type":"공영","category":"노외","address":"광주광역시 북구 비엔날레로13번길 28-13 (운암동)","lat":35.17556414,"lng":126.885057,"totalSpaces":9,"isFree":true,"operatingDays":"평일+토요일+공휴일","weekdayOpen":"00:00","weekdayClose":"23:59","weekendOpen":"00:00","weekendClose":"23:59","holidayOpen":"00:00","holidayClose":"23:59","feeInfo":"무료","phone":"062-524-0825","updatedAt":"2025-10-30","sido":"광주광역시","sigungu":"북구","dong":"운암동"},{"name":"양산동쌈지","type":"공영","category":"노외","address":"광주광역시 북구 효열로29번길 8-2 (양산동)","lat":35.20830285,"lng":126.872265,"totalSpaces":9,"isFree":true,"operatingDays":"평일+토요일+공휴일","weekdayOpen":"00:00","weekdayClose":"23:59","weekendOpen":"00:00","weekendClose":"23:59","holidayOpen":"00:00","holidayClose":"23:59","feeInfo":"무료","phone":"062-524-0825","updatedAt":"2025-10-30","sido":"광주광역시","sigungu":"북구","dong":"양산동"},{"name":"일곡동주민센터","type":"공영","category":"노외","address":"광주광역시 북구 설죽로 525","lat":35.20602282,"lng":126.8972795,"totalSpaces":9,"isFree":true,"operatingDays":"평일+토요일+공휴일","weekdayOpen":"00:00","weekdayClose":"23:59","weekendOpen":"00:00","weekendClose":"23:59","holidayOpen":"00:00","holidayClose":"23:59","feeInfo":"무료","phone":"062-524-0825","updatedAt":"2025-10-30","sido":"광주광역시","sigungu":"북구","dong":"일곡동"},{"name":"두암동쌈지","type":"공영","category":"노외","address":"광주광역시 북구 군왕로117번길 9-1 (두암동)","lat":35.17172023,"lng":126.9321866,"totalSpaces":8,"isFree":true,"operatingDays":"평일+토요일+공휴일","weekdayOpen":"00:00","weekdayClose":"23:59","weekendOpen":"00:00","weekendClose":"23:59","holidayOpen":"00:00","holidayClose":"23:59","feeInfo":"무료","phone":"062-524-0825","updatedAt":"2025-10-30","sido":"광주광역시","sigungu":"북구","dong":"두암동"},{"name":"삼각동쌈지","type":"공영","category":"노외","address":"광주광역시 북구 삼각동 820-2","lat":35.19938992,"lng":126.901967,"totalSpaces":8,"isFree":true,"operatingDays":"평일+토요일+공휴일","weekdayOpen":"00:00","weekdayClose":"23:59","weekendOpen":"00:00","weekendClose":"23:59","holidayOpen":"00:00","holidayClose":"23:59","feeInfo":"무료","phone":"062-524-0825","updatedAt":"2025-10-30","sido":"광주광역시","sigungu":"북구","dong":"삼각동"},{"name":"문흥1동쌈지","type":"공영","category":"노외","address":"광주광역시 북구 문흥동 987-2","lat":35.18752752,"lng":126.9278476,"totalSpaces":8,"isFree":true,"operatingDays":"평일+토요일+공휴일","weekdayOpen":"00:00","weekdayClose":"23:59","weekendOpen":"00:00","weekendClose":"23:59","holidayOpen":"00:00","holidayClose":"23:59","feeInfo":"무료","phone":"062-524-0825","updatedAt":"2025-10-30","sido":"광주광역시","sigungu":"북구","dong":"문흥동"},{"name":"유동 쌈지","type":"공영","category":"노외","address":"광주광역시 북구 유동 103-4","lat":35.160841,"lng":126.905949,"totalSpaces":8,"isFree":true,"operatingDays":"평일+토요일+공휴일","weekdayOpen":"00:00","weekdayClose":"23:59","weekendOpen":"00:00","weekendClose":"23:59","holidayOpen":"00:00","holidayClose":"23:59","feeInfo":"무료","phone":"062-524-0825","updatedAt":"2025-10-30","sido":"광주광역시","sigungu":"북구","dong":"유동"},{"name":"운암3동주민센터","type":"공영","category":"노외","address":"광주광역시 북구 서강로 129(운암동)","lat":35.18277507,"lng":126.8743149,"totalSpaces":8,"isFree":true,"operatingDays":"평일+토요일+공휴일","weekdayOpen":"00:00","weekdayClose":"23:59","weekendOpen":"00:00","weekendClose":"23:59","holidayOpen":"00:00","holidayClose":"23:59","feeInfo":"무료","phone":"062-524-0825","updatedAt":"2025-10-30","sido":"광주광역시","sigungu":"북구","dong":"운암동"},{"name":"풍향동주민센터","type":"공영","category":"노외","address":"광주광역시 북구 필문대로29번길 10(풍향동)","lat":35.16447448,"lng":126.9232702,"totalSpaces":8,"isFree":true,"operatingDays":"평일+토요일+공휴일","weekdayOpen":"00:00","weekdayClose":"23:59","weekendOpen":"00:00","weekendClose":"23:59","holidayOpen":"00:00","holidayClose":"23:59","feeInfo":"무료","phone":"062-524-0825","updatedAt":"2025-10-30","sido":"광주광역시","sigungu":"북구","dong":"풍향동"},{"name":"문화동주민센터","type":"공영","category":"노외","address":"광주광역시 북구 군왕로 233(각화동)","lat":35.18149708,"lng":126.9368598,"totalSpaces":8,"isFree":true,"operatingDays":"평일+토요일+공휴일","weekdayOpen":"00:00","weekdayClose":"23:59","weekendOpen":"00:00","weekendClose":"23:59","holidayOpen":"00:00","holidayClose":"23:59","feeInfo":"무료","phone":"062-524-0825","updatedAt":"2025-10-30","sido":"광주광역시","sigungu":"북구","dong":"각화동"},{"name":"중흥1동주민센터","type":"공영","category":"노외","address":"광주광역시 북구 중흥로183번길 7 (중흥동)","lat":35.16168543,"lng":126.9137773,"totalSpaces":7,"isFree":true,"operatingDays":"평일+토요일+공휴일","weekdayOpen":"00:00","weekdayClose":"23:59","weekendOpen":"00:00","weekendClose":"23:59","holidayOpen":"00:00","holidayClose":"23:59","feeInfo":"무료","phone":"062-524-0825","updatedAt":"2025-10-30","sido":"광주광역시","sigungu":"북구","dong":"중흥동"},{"name":"오치1동쌈지","type":"공영","category":"노외","address":"광주광역시 북구 오치동 926-18","lat":35.18986865,"lng":126.9083235,"totalSpaces":7,"isFree":true,"operatingDays":"평일+토요일+공휴일","weekdayOpen":"00:00","weekdayClose":"23:59","weekendOpen":"00:00","weekendClose":"23:59","holidayOpen":"00:00","holidayClose":"23:59","feeInfo":"무료","phone":"062-524-0825","updatedAt":"2025-10-30","sido":"광주광역시","sigungu":"북구","dong":"오치동"},{"name":"양산동쌈지","type":"공영","category":"노외","address":"광주광역시 북구 양산동 620-15외 2필지","lat":35.195634,"lng":126.875923,"totalSpaces":7,"isFree":true,"operatingDays":"평일+토요일+공휴일","weekdayOpen":"00:00","weekdayClose":"23:59","weekendOpen":"00:00","weekendClose":"23:59","holidayOpen":"00:00","holidayClose":"23:59","feeInfo":"무료","phone":"062-524-0825","updatedAt":"2025-10-30","sido":"광주광역시","sigungu":"북구","dong":"양산동"},{"name":"오치1동쌈지","type":"공영","category":"노외","address":"광주광역시 북구 오산정길7번길 36 (오치동)","lat":35.18788405,"lng":126.906296,"totalSpaces":7,"isFree":true,"operatingDays":"평일+토요일+공휴일","weekdayOpen":"00:00","weekdayClose":"23:59","weekendOpen":"00:00","weekendClose":"23:59","holidayOpen":"00:00","holidayClose":"23:59","feeInfo":"무료","phone":"062-524-0825","updatedAt":"2025-10-30","sido":"광주광역시","sigungu":"북구","dong":""},{"name":"매곡동주민센터","type":"공영","category":"노외","address":"광주광역시 북구 매곡로69번길 25(매곡동)","lat":35.18963533,"lng":126.8920694,"totalSpaces":7,"isFree":true,"operatingDays":"평일+토요일+공휴일","weekdayOpen":"00:00","weekdayClose":"23:59","weekendOpen":"00:00","weekendClose":"23:59","holidayOpen":"00:00","holidayClose":"23:59","feeInfo":"무료","phone":"062-524-0825","updatedAt":"2025-10-30","sido":"광주광역시","sigungu":"북구","dong":"매곡동"},{"name":"건국동 쌈지주차장","type":"공영","category":"노외","address":"광주광역시 북구 본촌동 3034","lat":35.21412582,"lng":126.8788884,"totalSpaces":7,"isFree":true,"operatingDays":"평일+토요일+공휴일","weekdayOpen":"00:00","weekdayClose":"23:59","weekendOpen":"00:00","weekendClose":"23:59","holidayOpen":"00:00","holidayClose":"23:59","feeInfo":"무료","phone":"062-524-0825","updatedAt":"2025-10-30","sido":"광주광역시","sigungu":"북구","dong":"본촌동"},{"name":"두암2동쌈지","type":"공영","category":"노외","address":"광주광역시 북구 두리봉길6번길 14 (두암동)","lat":35.17585918,"lng":126.932013,"totalSpaces":6,"isFree":true,"operatingDays":"평일+토요일+공휴일","weekdayOpen":"00:00","weekdayClose":"23:59","weekendOpen":"00:00","weekendClose":"23:59","holidayOpen":"00:00","holidayClose":"23:59","feeInfo":"무료","phone":"062-524-0825","updatedAt":"2025-10-30","sido":"광주광역시","sigungu":"북구","dong":"두암동"},{"name":"오치1동쌈지","type":"공영","category":"노외","address":"광주광역시 북구 오치동 939-3","lat":35.18854572,"lng":126.9086544,"totalSpaces":5,"isFree":true,"operatingDays":"평일+토요일+공휴일","weekdayOpen":"00:00","weekdayClose":"23:59","weekendOpen":"00:00","weekendClose":"23:59","holidayOpen":"00:00","holidayClose":"23:59","feeInfo":"무료","phone":"062-524-0825","updatedAt":"2025-10-30","sido":"광주광역시","sigungu":"북구","dong":"오치동"},{"name":"석곡동쌈지","type":"공영","category":"노외","address":"광주광역시 북구 망월동 570+1566-2+1155-3","lat":35.20431907,"lng":126.9529001,"totalSpaces":4,"isFree":true,"operatingDays":"평일+토요일+공휴일","weekdayOpen":"00:00","weekdayClose":"23:59","weekendOpen":"00:00","weekendClose":"23:59","holidayOpen":"00:00","holidayClose":"23:59","feeInfo":"무료","phone":"062-524-0825","updatedAt":"2025-10-30","sido":"광주광역시","sigungu":"북구","dong":"망월동"},{"name":"효죽공영주차장","type":"공영","category":"노외","address":"광주광역시 북구 용봉로138번길 11(중흥동)","lat":35.17300906,"lng":126.9117196,"totalSpaces":201,"isFree":false,"operatingDays":"평일+토요일+공휴일","weekdayOpen":"00:00","weekdayClose":"23:59","weekendOpen":"00:00","weekendClose":"23:59","holidayOpen":"00:00","holidayClose":"23:59","feeInfo":"기본 10분 200원 / 추가 10분당 150원","phone":"062-524-0825","updatedAt":"2025-10-30","sido":"광주광역시","sigungu":"북구","dong":"중흥동"},{"name":"첨단산단 완충녹지주차장","type":"공영","category":"노외","address":"광주광역시 북구 연제동 1026-1","lat":35.2060269,"lng":126.860231,"totalSpaces":110,"isFree":false,"operatingDays":"평일+토요일+공휴일","weekdayOpen":"00:00","weekdayClose":"23:59","weekendOpen":"00:00","weekendClose":"23:59","holidayOpen":"00:00","holidayClose":"23:59","feeInfo":"기본 10분 200원 / 추가 10분당 100원","phone":"062-524-0825","updatedAt":"2025-10-30","sido":"광주광역시","sigungu":"북구","dong":"연제동"},{"name":"광주역경양천","type":"공영","category":"노상","address":"광주광역시 북구 자미로6번길","lat":35.16585365,"lng":126.905604,"totalSpaces":82,"isFree":false,"operatingDays":"평일+토요일+공휴일","weekdayOpen":"08:00","weekdayClose":"22:00","weekendOpen":"08:00","weekendClose":"22:00","holidayOpen":"08:00","holidayClose":"22:00","feeInfo":"기본 30분 700원 / 추가 15분당 350원","phone":"062-524-0825","updatedAt":"2025-10-30","sido":"광주광역시","sigungu":"북구","dong":"신안동"},{"name":"일곡지구킴스마트 옆","type":"공영","category":"노외","address":"광주광역시 북구 설죽로 495-6(일곡동)","lat":35.20322895,"lng":126.8976125,"totalSpaces":79,"isFree":false,"operatingDays":"평일+토요일+공휴일","weekdayOpen":"08:00","weekdayClose":"23:59","weekendOpen":"08:00","weekendClose":"23:59","holidayOpen":"08:00","holidayClose":"23:59","feeInfo":"기본 30분 400원 / 추가 15분당 200원","phone":"062-524-0825","updatedAt":"2025-10-30","sido":"광주광역시","sigungu":"북구","dong":"일곡동"},{"name":"북구청 앞 용봉천복개지","type":"공영","category":"노상","address":"광주광역시 북구 중흥동 2 외 3필지","lat":35.17482016,"lng":126.913983,"totalSpaces":69,"isFree":false,"operatingDays":"평일+토요일+공휴일","weekdayOpen":"08:00","weekdayClose":"22:00","weekendOpen":"08:00","weekendClose":"22:00","holidayOpen":"08:00","holidayClose":"22:00","feeInfo":"기본 30분 400원 / 추가 15분당 200원","phone":"062-524-0825","updatedAt":"2025-10-30","sido":"광주광역시","sigungu":"북구","dong":"중흥동"},{"name":"북부소방서 옆","type":"공영","category":"노외","address":"광주광역시 북구 송월로 31(오치동)","lat":35.18652271,"lng":126.9130616,"totalSpaces":64,"isFree":false,"operatingDays":"평일+토요일+공휴일","weekdayOpen":"06:00","weekdayClose":"23:59","weekendOpen":"06:00","weekendClose":"23:59","holidayOpen":"06:00","holidayClose":"23:59","feeInfo":"기본 30분 300원 / 추가 15분당 150원","phone":"062-524-0825","updatedAt":"2025-10-30","sido":"광주광역시","sigungu":"북구","dong":"오치동"},{"name":"우산공영주차장","type":"공영","category":"노외","address":"광주광역시 북구 우산동 264-18","lat":35.17165486,"lng":126.9200554,"totalSpaces":62,"isFree":false,"operatingDays":"평일+토요일+공휴일","weekdayOpen":"00:00","weekdayClose":"23:59","weekendOpen":"00:00","weekendClose":"23:59","holidayOpen":"00:00","holidayClose":"23:59","feeInfo":"기본 30분 300원 / 추가 15분당 150원","phone":"062-524-0825","updatedAt":"2025-10-30","sido":"광주광역시","sigungu":"북구","dong":"우산동"},{"name":"동운고가밑","type":"공영","category":"노상","address":"광주광역시 북구 운암동 99","lat":35.17539064,"lng":126.8811186,"totalSpaces":62,"isFree":false,"operatingDays":"평일+토요일+공휴일","weekdayOpen":"08:00","weekdayClose":"22:00","weekendOpen":"08:00","weekendClose":"22:00","holidayOpen":"08:00","holidayClose":"22:00","feeInfo":"기본 30분 700원 / 추가 15분당 350원","phone":"062-524-0825","updatedAt":"2025-10-30","sido":"광주광역시","sigungu":"북구","dong":"운암동"},{"name":"운암어린이공원 지하공영주차장","type":"공영","category":"노외","address":"광주광역시 북구 북문대로33번길 27-11","lat":35.17397818,"lng":126.8814556,"totalSpaces":57,"isFree":false,"operatingDays":"평일+토요일+공휴일","weekdayOpen":"08:00","weekdayClose":"23:59","weekendOpen":"08:00","weekendClose":"23:59","holidayOpen":"08:00","holidayClose":"23:59","feeInfo":"기본 30분 700원 / 추가 15분당 350원","phone":"062-524-0825","updatedAt":"2025-10-30","sido":"광주광역시","sigungu":"북구","dong":"운암동"},{"name":"문흥2동주민센터 앞","type":"공영","category":"노외","address":"광주광역시 북구 문산로 27-3(문흥동)","lat":35.18454562,"lng":126.921702,"totalSpaces":49,"isFree":false,"operatingDays":"평일+토요일+공휴일","weekdayOpen":"08:00","weekdayClose":"23:59","weekendOpen":"08:00","weekendClose":"23:59","holidayOpen":"08:00","holidayClose":"23:59","feeInfo":"기본 30분 400원 / 추가 15분당 200원","phone":"062-524-0825","updatedAt":"2025-10-30","sido":"광주광역시","sigungu":"북구","dong":"문흥동"},{"name":"북구우산생활체육관","type":"공영","category":"노외","address":"광주광역시 북구 우산동 230-1","lat":35.17515995,"lng":126.9253674,"totalSpaces":48,"isFree":false,"operatingDays":"평일+토요일+공휴일","weekdayOpen":"00:00","weekdayClose":"23:59","weekendOpen":"00:00","weekendClose":"23:59","holidayOpen":"00:00","holidayClose":"23:59","feeInfo":"기본 30분 300원 / 추가 15분당 150원","phone":"062-524-0825","updatedAt":"2025-10-30","sido":"광주광역시","sigungu":"북구","dong":"우산동"},{"name":"우산중학교앞","type":"공영","category":"노외","address":"광주광역시 북구 송월로40번길 1(오치동)","lat":35.18755779,"lng":126.913504,"totalSpaces":47,"isFree":false,"operatingDays":"평일+토요일+공휴일","weekdayOpen":"08:00","weekdayClose":"22:00","weekendOpen":"08:00","weekendClose":"22:00","holidayOpen":"08:00","holidayClose":"22:00","feeInfo":"기본 30분 300원 / 추가 15분당 150원","phone":"062-524-0825","updatedAt":"2025-10-30","sido":"광주광역시","sigungu":"북구","dong":"오치동"},{"name":"건축자재의거리","type":"공영","category":"노외","address":"광주광역시 북구 중흥동 651-3","lat":35.16141184,"lng":126.9136898,"totalSpaces":46,"isFree":false,"operatingDays":"평일+토요일+공휴일","weekdayOpen":"08:00","weekdayClose":"20:00","weekendOpen":"08:00","weekendClose":"20:00","holidayOpen":"08:00","holidayClose":"20:00","feeInfo":"기본 30분 700원 / 추가 15분당 350원","phone":"062-524-0825","updatedAt":"2025-10-30","sido":"광주광역시","sigungu":"북구","dong":"중흥동"},{"name":"광주역관사앞","type":"공영","category":"노상","address":"광주광역시 북구 중흥동 740-4 외 1필지","lat":35.16433316,"lng":126.9106572,"totalSpaces":45,"isFree":false,"operatingDays":"평일+토요일+공휴일","weekdayOpen":"08:00","weekdayClose":"22:00","weekendOpen":"08:00","weekendClose":"22:00","holidayOpen":"08:00","holidayClose":"22:00","feeInfo":"기본 30분 700원 / 추가 15분당 350원","phone":"062-524-0825","updatedAt":"2025-10-30","sido":"광주광역시","sigungu":"북구","dong":"중흥동"},{"name":"문정초교 앞","type":"공영","category":"노외","address":"광주광역시 북구 대천로157번길 11","lat":35.18833108,"lng":126.9213294,"totalSpaces":40,"isFree":false,"operatingDays":"평일+토요일+공휴일","weekdayOpen":"06:00","weekdayClose":"23:59","weekendOpen":"06:00","weekendClose":"23:59","holidayOpen":"06:00","holidayClose":"23:59","feeInfo":"기본 30분 300원 / 추가 15분당 150원","phone":"062-524-0825","updatedAt":"2025-10-30","sido":"광주광역시","sigungu":"북구","dong":"문흥동"},{"name":"임동공영주차장","type":"공영","category":"노외","address":"광주광역시 북구 임동 94-68","lat":35.16209807,"lng":126.8973611,"totalSpaces":28,"isFree":false,"operatingDays":"평일+토요일+공휴일","weekdayOpen":"08:00","weekdayClose":"22:00","weekendOpen":"08:00","weekendClose":"22:00","holidayOpen":"08:00","holidayClose":"22:00","feeInfo":"기본 30분 400원 / 추가 15분당 200원","phone":"062-524-0825","updatedAt":"2025-10-30","sido":"광주광역시","sigungu":"북구","dong":"임동"},{"name":"삼각초교 앞","type":"공영","category":"노외","address":"광주광역시 북구 송해로 21(삼각동)","lat":35.20064247,"lng":126.9002512,"totalSpaces":21,"isFree":false,"operatingDays":"평일+토요일+공휴일","weekdayOpen":"07:00","weekdayClose":"22:00","weekendOpen":"07:00","weekendClose":"22:00","holidayOpen":"07:00","holidayClose":"22:00","feeInfo":"기본 30분 300원 / 추가 15분당 150원","phone":"062-524-0825","updatedAt":"2025-10-30","sido":"광주광역시","sigungu":"북구","dong":"삼각동"},{"name":"용봉동주민센터","type":"공영","category":"노외","address":"광주광역시 북구 반룡로27번길 36(용봉동)","lat":35.18062296,"lng":126.9019444,"totalSpaces":21,"isFree":false,"operatingDays":"평일+토요일+공휴일","weekdayOpen":"00:00","weekdayClose":"23:59","weekendOpen":"00:00","weekendClose":"23:59","holidayOpen":"00:00","holidayClose":"23:59","feeInfo":"기본 30분 400원 / 추가 15분당 200원","phone":"062-524-0825","updatedAt":"2025-10-30","sido":"광주광역시","sigungu":"북구","dong":"용봉동"},{"name":"국제도덕협회앞","type":"공영","category":"노상","address":"광주광역시 북구 누문동 300 외 1필지","lat":35.15603645,"lng":126.9051304,"totalSpaces":18,"isFree":false,"operatingDays":"평일+토요일+공휴일","weekdayOpen":"08:00","weekdayClose":"22:00","weekendOpen":"08:00","weekendClose":"22:00","holidayOpen":"08:00","holidayClose":"22:00","feeInfo":"기본 30분 700원 / 추가 15분당 350원","phone":"062-524-0825","updatedAt":"2025-10-30","sido":"광주광역시","sigungu":"북구","dong":"누문동"},{"name":"용봉동 제1공영주차장","type":"공영","category":"노외","address":"광주광역시 북구 용봉동 1377-2","lat":35.17915238,"lng":126.8938272,"totalSpaces":17,"isFree":false,"operatingDays":"평일+토요일+공휴일","weekdayOpen":"00:00","weekdayClose":"23:59","weekendOpen":"00:00","weekendClose":"23:59","holidayOpen":"00:00","holidayClose":"23:59","feeInfo":"기본 30분 400원 / 추가 15분당 200원","phone":"062-524-0825","updatedAt":"2025-10-30","sido":"광주광역시","sigungu":"북구","dong":"용봉동"},{"name":"신안동 공영주차장","type":"공영","category":"노외","address":"광주광역시 북구 신안동 120-2","lat":35.16420202,"lng":126.9049754,"totalSpaces":17,"isFree":false,"operatingDays":"평일+토요일+공휴일","weekdayOpen":"08:00","weekdayClose":"23:59","weekendOpen":"08:00","weekendClose":"23:59","holidayOpen":"08:00","holidayClose":"23:59","feeInfo":"기본 30분 700원 / 추가 15분당 350원","phone":"062-524-0825","updatedAt":"2025-10-30","sido":"광주광역시","sigungu":"북구","dong":"신안동"}]}