{"sido":"광주광역시","sigungu":"서구","totalCount":71,"validCount":68,"items":[{"name":"상무시민공원 공영주차장","type":"공영","category":"노외","address":"광주광역시 서구 상무자유로 59","lat":35.15221868,"lng":126.8422202,"totalSpaces":219,"isFree":true,"operatingDays":"평일+토요일+공휴일","weekdayOpen":"09:00","weekdayClose":"23:59","weekendOpen":"09:00","weekendClose":"23:59","holidayOpen":"09:00","holidayClose":"23:59","feeInfo":"무료","phone":"062-350-4938","updatedAt":"2025-12-03","sido":"광주광역시","sigungu":"서구","dong":"치평동"},{"name":"서구청주차장(지하)","type":"공영","category":"노외","address":"광주광역시 서구 경열로 33","lat":35.15203177,"lng":126.8901112,"totalSpaces":197,"isFree":true,"operatingDays":"평일+토요일+공휴일","weekdayOpen":"09:00","weekdayClose":"23:59","weekendOpen":"09:00","weekendClose":"23:59","holidayOpen":"09:00","holidayClose":"23:59","feeInfo":"무료","phone":"062-360-7773","updatedAt":"2025-12-03","sido":"광주광역시","sigungu":"서구","dong":"농성동"},{"name":"풍암호수공원","type":"공영","category":"노외","address":"광주광역시 서구 풍암동 857-1","lat":35.12596351,"lng":126.8695967,"totalSpaces":182,"isFree":true,"operatingDays":"평일+토요일+공휴일","weekdayOpen":"09:00","weekdayClose":"23:59","weekendOpen":"09:00","weekendClose":"23:59","holidayOpen":"09:00","holidayClose":"23:59","feeInfo":"무료","phone":"062-360-7810","updatedAt":"2025-12-03","sido":"광주광역시","sigungu":"서구","dong":"풍암동"},{"name":"농성동 공영주차장","type":"공영","category":"노외","address":"광주광역시 서구 농성동 109","lat":35.15270475,"lng":126.8917483,"totalSpaces":171,"isFree":true,"operatingDays":"평일+토요일+공휴일","weekdayOpen":"09:00","weekdayClose":"23:59","weekendOpen":"09:00","weekendClose":"23:59","holidayOpen":"09:00","holidayClose":"23:59","feeInfo":"무료","phone":"062-360-7810","updatedAt":"2025-12-03","sido":"광주광역시","sigungu":"서구","dong":"농성동"},{"name":"서구청주차장(타워)","type":"공영","category":"노외","address":"광주광역시 서구 경열로 33","lat":35.15203177,"lng":126.8901112,"totalSpaces":143,"isFree":true,"operatingDays":"평일+토요일+공휴일","weekdayOpen":"09:00","weekdayClose":"23:59","weekendOpen":"09:00","weekendClose":"23:59","holidayOpen":"09:00","holidayClose":"23:59","feeInfo":"무료","phone":"062-360-7773","updatedAt":"2025-12-03","sido":"광주광역시","sigungu":"서구","dong":"농성동"},{"name":"서구청주차장(지상)","type":"공영","category":"노외","address":"광주광역시 서구 경열로 33","lat":35.15203177,"lng":126.8901112,"totalSpaces":118,"isFree":true,"operatingDays":"평일+토요일+공휴일","weekdayOpen":"09:00","weekdayClose":"23:59","weekendOpen":"09:00","weekendClose":"23:59","holidayOpen":"09:00","holidayClose":"23:59","feeInfo":"무료","phone":"062-360-7773","updatedAt":"2025-12-03","sido":"광주광역시","sigungu":"서구","dong":"농성동"},{"name":"풍암생활체육공원 공영주차장","type":"공영","category":"노외","address":"광주광역시 서구 회재로 1113","lat":35.12937717,"lng":126.8839229,"totalSpaces":65,"isFree":true,"operatingDays":"평일+토요일+공휴일","weekdayOpen":"09:00","weekdayClose":"23:59","weekendOpen":"09:00","weekendClose":"23:59","holidayOpen":"09:00","holidayClose":"23:59","feeInfo":"무료","phone":"062-350-4938","updatedAt":"2025-12-03","sido":"광주광역시","sigungu":"서구","dong":"풍암동"},{"name":"어린이생태학습도서관 옥외주차장","type":"공영","category":"노외","address":"광주광역시 서구 풍암공원로 8","lat":35.12979981,"lng":126.8818544,"totalSpaces":62,"isFree":true,"operatingDays":"평일+토요일+공휴일","weekdayOpen":"09:00","weekdayClose":"23:59","weekendOpen":"09:00","weekendClose":"23:59","holidayOpen":"09:00","holidayClose":"23:59","feeInfo":"무료","phone":"062-350-4579","updatedAt":"2025-12-03","sido":"광주광역시","sigungu":"서구","dong":"풍암동"},{"name":"유덕동주민센터","type":"공영","category":"노외","address":"광주광역시 서구 유덕로 24","lat":35.16510605,"lng":126.8518226,"totalSpaces":40,"isFree":true,"operatingDays":"평일+토요일+공휴일","weekdayOpen":"09:00","weekdayClose":"23:59","weekendOpen":"09:00","weekendClose":"23:59","holidayOpen":"09:00","holidayClose":"23:59","feeInfo":"무료","phone":"062-350-4307","updatedAt":"2025-12-03","sido":"광주광역시","sigungu":"서구","dong":"유촌동"},{"name":"농성1동 주거환경개선지구","type":"공영","category":"노외","address":"광주광역시 서구 농성동 30-10","lat":35.15648811,"lng":126.8913076,"totalSpaces":37,"isFree":true,"operatingDays":"평일+토요일+공휴일","weekdayOpen":"09:00","weekdayClose":"23:59","weekendOpen":"09:00","weekendClose":"23:59","holidayOpen":"09:00","holidayClose":"23:59","feeInfo":"무료","phone":"062-360-7810","updatedAt":"2025-12-03","sido":"광주광역시","sigungu":"서구","dong":"농성동"},{"name":"화정4동 공영주차장","type":"공영","category":"노외","address":"광주광역시 서구 화정동 916-9","lat":35.14252868,"lng":126.8732198,"totalSpaces":31,"isFree":true,"operatingDays":"평일+토요일+공휴일","weekdayOpen":"09:00","weekdayClose":"23:59","weekendOpen":"09:00","weekendClose":"23:59","holidayOpen":"09:00","holidayClose":"23:59","feeInfo":"무료","phone":"062-360-7810","updatedAt":"2025-12-03","sido":"광주광역시","sigungu":"서구","dong":"화정동"},{"name":"상무2동 공영주차장","type":"공영","category":"노외","address":"광주광역시 서구 쌍촌동 511","lat":35.14713704,"lng":126.8618748,"totalSpaces":30,"isFree":true,"operatingDays":"평일+토요일+공휴일","weekdayOpen":"09:00","weekdayClose":"23:59","weekendOpen":"09:00","weekendClose":"23:59","holidayOpen":"09:00","holidayClose":"23:59","feeInfo":"무료","phone":"062-360-7810","updatedAt":"2025-12-03","sido":"광주광역시","sigungu":"서구","dong":"쌍촌동"},{"name":"농성1동주민센터","type":"공영","category":"노외","address":"광주광역시 서구 월산로225번길 10-36","lat":35.15661505,"lng":126.889588,"totalSpaces":28,"isFree":true,"operatingDays":"평일+토요일+공휴일","weekdayOpen":"09:00","weekdayClose":"23:59","weekendOpen":"09:00","weekendClose":"23:59","holidayOpen":"09:00","holidayClose":"23:59","feeInfo":"무료","phone":"062-350-4247","updatedAt":"2025-12-03","sido":"광주광역시","sigungu":"서구","dong":"농성동"},{"name":"화정2동주민센터","type":"공영","category":"노외","address":"광주광역시 서구 화운로 94","lat":35.14836711,"lng":126.8806458,"totalSpaces":27,"isFree":true,"operatingDays":"평일+토요일+공휴일","weekdayOpen":"09:00","weekdayClose":"23:59","weekendOpen":"09:00","weekendClose":"23:59","holidayOpen":"09:00","holidayClose":"23:59","feeInfo":"무료","phone":"062-350-4406","updatedAt":"2025-12-03","sido":"광주광역시","sigungu":"서구","dong":"화정동"},{"name":"농성1동주거환경개선지구","type":"공영","category":"노외","address":"광주광역시 서구 농성동 74-12","lat":35.15335928,"lng":126.8923541,"totalSpaces":26,"isFree":true,"operatingDays":"평일+토요일+공휴일","weekdayOpen":"09:00","weekdayClose":"23:59","weekendOpen":"09:00","weekendClose":"23:59","holidayOpen":"09:00","holidayClose":"23:59","feeInfo":"무료","phone":"062-360-7810","updatedAt":"2025-12-03","sido":"광주광역시","sigungu":"서구","dong":"농성동"},{"name":"덕흥동 주거환경개선지구","type":"공영","category":"노외","address":"광주광역시 서구 덕흥1길 32","lat":35.16570378,"lng":126.8376324,"totalSpaces":25,"isFree":true,"operatingDays":"평일+토요일+공휴일","weekdayOpen":"09:00","weekdayClose":"23:59","weekendOpen":"09:00","weekendClose":"23:59","holidayOpen":"09:00","holidayClose":"23:59","feeInfo":"무료","phone":"062-360-7810","updatedAt":"2025-12-03","sido":"광주광역시","sigungu":"서구","dong":"덕흥동"},{"name":"쌍촌동 공영주차장","type":"공영","category":"노외","address":"광주광역시 서구 쌍촌동 896","lat":35.14479013,"lng":126.8547187,"totalSpaces":25,"isFree":true,"operatingDays":"평일+토요일+공휴일","weekdayOpen":"09:00","weekdayClose":"23:59","weekendOpen":"09:00","weekendClose":"23:59","holidayOpen":"09:00","holidayClose":"23:59","feeInfo":"무료","phone":"062-360-7810","updatedAt":"2025-12-03","sido":"광주광역시","sigungu":"서구","dong":"쌍촌동"},{"name":"화정3동 공영주차장","type":"공영","category":"노외","address":"광주광역시 서구 월드컵4강로42번길 23-8","lat":35.14172876,"lng":126.8783335,"totalSpaces":24,"isFree":true,"operatingDays":"평일+토요일+공휴일","weekdayOpen":"09:00","weekdayClose":"23:59","weekendOpen":"09:00","weekendClose":"23:59","holidayOpen":"09:00","holidayClose":"23:59","feeInfo":"무료","phone":"062-360-7810","updatedAt":"2025-12-03","sido":"광주광역시","sigungu":"서구","dong":"화정동"},{"name":"광천동주민센터","type":"공영","category":"노외","address":"광주광역시 서구 광천동 122-13","lat":35.16448764,"lng":126.880162,"totalSpaces":20,"isFree":true,"operatingDays":"평일+토요일+공휴일","weekdayOpen":"09:00","weekdayClose":"23:59","weekendOpen":"09:00","weekendClose":"23:59","holidayOpen":"09:00","holidayClose":"23:59","feeInfo":"무료","phone":"062-350-5283","updatedAt":"2025-12-03","sido":"광주광역시","sigungu":"서구","dong":"광천동"},{"name":"농성2동주민센터","type":"공영","category":"노외","address":"광주광역시 서구 화정로 314","lat":35.15037423,"lng":126.8902215,"totalSpaces":20,"isFree":true,"operatingDays":"평일+토요일+공휴일","weekdayOpen":"09:00","weekdayClose":"23:59","weekendOpen":"09:00","weekendClose":"23:59","holidayOpen":"09:00","holidayClose":"23:59","feeInfo":"무료","phone":"062-350-4266","updatedAt":"2025-12-03","sido":"광주광역시","sigungu":"서구","dong":"농성동"},{"name":"상무1동주민센터","type":"공영","category":"노외","address":"광주광역시 서구 쌍촌동 328-25","lat":35.15377578,"lng":126.8674199,"totalSpaces":19,"isFree":true,"operatingDays":"평일+토요일+공휴일","weekdayOpen":"09:00","weekdayClose":"23:59","weekendOpen":"09:00","weekendClose":"23:59","holidayOpen":"09:00","holidayClose":"23:59","feeInfo":"무료","phone":"062-350-4351","updatedAt":"2025-12-03","sido":"광주광역시","sigungu":"서구","dong":"쌍촌동"},{"name":"향토문화마을","type":"공영","category":"노외","address":"광주광역시 서구 세하동 682-5","lat":35.11562592,"lng":126.8300941,"totalSpaces":19,"isFree":true,"operatingDays":"평일+토요일+공휴일","weekdayOpen":"09:00","weekdayClose":"23:59","weekendOpen":"09:00","weekendClose":"23:59","holidayOpen":"09:00","holidayClose":"23:59","feeInfo":"무료","phone":"062-360-7810","updatedAt":"2025-12-03","sido":"광주광역시","sigungu":"서구","dong":"세하동"},{"name":"덕흥동 주거환경개선지구","type":"공영","category":"노외","address":"광주광역시 서구 덕흥동 808-1","lat":35.16675456,"lng":126.8352236,"totalSpaces":17,"isFree":true,"operatingDays":"평일+토요일+공휴일","weekdayOpen":"09:00","weekdayClose":"23:59","weekendOpen":"09:00","weekendClose":"23:59","holidayOpen":"09:00","holidayClose":"23:59","feeInfo":"무료","phone":"062-360-7810","updatedAt":"2025-12-03","sido":"광주광역시","sigungu":"서구","dong":"덕흥동"},{"name":"영화아파트 앞 공영주차장","type":"공영","category":"노외","address":"광주광역시 서구 화운로 203","lat":35.15705533,"lng":126.8767076,"totalSpaces":17,"isFree":true,"operatingDays":"평일+토요일+공휴일","weekdayOpen":"09:00","weekdayClose":"23:59","weekendOpen":"09:00","weekendClose":"23:59","holidayOpen":"09:00","holidayClose":"23:59","feeInfo":"무료","phone":"062-360-4937","updatedAt":"2025-12-03","sido":"광주광역시","sigungu":"서구","dong":"화정동"},{"name":"금호1동주민센터","type":"공영","category":"노외","address":"광주광역시 서구 금호동 772","lat":35.13518075,"lng":126.8571483,"totalSpaces":16,"isFree":true,"operatingDays":"평일+토요일+공휴일","weekdayOpen":"09:00","weekdayClose":"23:59","weekendOpen":"09:00","weekendClose":"23:59","holidayOpen":"09:00","holidayClose":"23:59","feeInfo":"무료","phone":"062-350-4494","updatedAt":"2025-12-03","sido":"광주광역시","sigungu":"서구","dong":"금호동"},{"name":"화정4동주민센터","type":"공영","category":"노외","address":"광주광역시 서구 화정동 919-21","lat":35.14182727,"lng":126.8737654,"totalSpaces":16,"isFree":true,"operatingDays":"평일+토요일+공휴일","weekdayOpen":"09:00","weekdayClose":"23:59","weekendOpen":"09:00","weekendClose":"23:59","holidayOpen":"09:00","holidayClose":"23:59","feeInfo":"무료","phone":"062-350-4446","updatedAt":"2025-12-03","sido":"광주광역시","sigungu":"서구","dong":"화정동"},{"name":"계수마을 공영주차장","type":"공영","category":"노외","address":"광주광역시 서구 상무민주로123번길 9-5","lat":35.1612474,"lng":126.8584296,"totalSpaces":16,"isFree":true,"operatingDays":"평일+토요일+공휴일","weekdayOpen":"09:00","weekdayClose":"23:59","weekendOpen":"09:00","weekendClose":"23:59","holidayOpen":"09:00","holidayClose":"23:59","feeInfo":"무료","phone":"062-360-7810","updatedAt":"2025-12-03","sido":"광주광역시","sigungu":"서구","dong":"쌍촌동"},{"name":"동천동주민센터","type":"공영","category":"노외","address":"광주광역시 서구 유림로98번길 8","lat":35.17087029,"lng":126.864739,"totalSpaces":15,"isFree":true,"operatingDays":"평일+토요일+공휴일","weekdayOpen":"09:00","weekdayClose":"23:59","weekendOpen":"09:00","weekendClose":"23:59","holidayOpen":"09:00","holidayClose":"23:59","feeInfo":"무료","phone":"062-350-4608","updatedAt":"2025-12-03","sido":"광주광역시","sigungu":"서구","dong":"동천동"},{"name":"화정2동 공영주차장","type":"공영","category":"노외","address":"광주광역시 서구 화정동 950","lat":35.14342115,"lng":126.8866293,"totalSpaces":15,"isFree":true,"operatingDays":"평일+토요일+공휴일","weekdayOpen":"09:00","weekdayClose":"23:59","weekendOpen":"09:00","weekendClose":"23:59","holidayOpen":"09:00","holidayClose":"23:59","feeInfo":"무료","phone":"062-360-7810","updatedAt":"2025-12-03","sido":"광주광역시","sigungu":"서구","dong":"화정동"},{"name":"농성1동 공영주차장","type":"공영","category":"노외","address":"광주광역시 서구 농성동 125-13","lat":35.15257397,"lng":126.8932208,"totalSpaces":14,"isFree":true,"operatingDays":"평일+토요일+공휴일","weekdayOpen":"09:00","weekdayClose":"23:59","weekendOpen":"09:00","weekendClose":"23:59","holidayOpen":"09:00","holidayClose":"23:59","feeInfo":"무료","phone":"062-360-7810","updatedAt":"2025-12-03","sido":"광주광역시","sigungu":"서구","dong":"농성동"},{"name":"서창동 주거환경개선지구","type":"공영","category":"노외","address":"광주광역시 서구 서창동 555-1","lat":35.10850556,"lng":126.8216293,"totalSpaces":14,"isFree":true,"operatingDays":"평일+토요일+공휴일","weekdayOpen":"09:00","weekdayClose":"23:59","weekendOpen":"09:00","weekendClose":"23:59","holidayOpen":"09:00","holidayClose":"23:59","feeInfo":"무료","phone":"062-360-7810","updatedAt":"2025-12-03","sido":"광주광역시","sigungu":"서구","dong":"서창동"},{"name":"화정3동주민센터","type":"공영","category":"노외","address":"광주광역시 서구 화정동 818-9","lat":35.14345532,"lng":126.8769162,"totalSpaces":13,"isFree":true,"operatingDays":"평일+토요일+공휴일","weekdayOpen":"09:00","weekdayClose":"23:59","weekendOpen":"09:00","weekendClose":"23:59","holidayOpen":"09:00","holidayClose":"23:59","feeInfo":"무료","phone":"062-350-4431","updatedAt":"2025-12-03","sido":"광주광역시","sigungu":"서구","dong":"화정동"},{"name":"발산마을 공영주차장","type":"공영","category":"노외","address":"광주광역시 서구 천변좌로 112-2","lat":35.16030872,"lng":126.891338,"totalSpaces":13,"isFree":true,"operatingDays":"평일+토요일+공휴일","weekdayOpen":"09:00","weekdayClose":"23:59","weekendOpen":"09:00","weekendClose":"23:59","holidayOpen":"09:00","holidayClose":"23:59","feeInfo":"무료","phone":"062-360-4967","updatedAt":"2025-12-03","sido":"광주광역시","sigungu":"서구","dong":"양동"},{"name":"상무2동주민센터","type":"공영","category":"노외","address":"광주광역시 서구 쌍촌로20번길 9-1","lat":35.14680667,"lng":126.8660606,"totalSpaces":12,"isFree":true,"operatingDays":"평일+토요일+공휴일","weekdayOpen":"09:00","weekdayClose":"23:59","weekendOpen":"09:00","weekendClose":"23:59","holidayOpen":"09:00","holidayClose":"23:59","feeInfo":"무료","phone":"062-350-4379","updatedAt":"2025-12-03","sido":"광주광역시","sigungu":"서구","dong":"쌍촌동"},{"name":"양동주민센터","type":"공영","category":"노외","address":"광주광역시 서구 양동 307-9","lat":35.15489274,"lng":126.9008763,"totalSpaces":12,"isFree":true,"operatingDays":"평일+토요일+공휴일","weekdayOpen":"09:00","weekdayClose":"23:59","weekendOpen":"09:00","weekendClose":"23:59","holidayOpen":"09:00","holidayClose":"23:59","feeInfo":"무료","phone":"062-350-4210","updatedAt":"2025-12-03","sido":"광주광역시","sigungu":"서구","dong":"양동"},{"name":"유촌동 주거환경개선지구","type":"공영","category":"노외","address":"광주광역시 서구 유촌동 525-2","lat":35.16646584,"lng":126.8526378,"totalSpaces":12,"isFree":true,"operatingDays":"평일+토요일+공휴일","weekdayOpen":"09:00","weekdayClose":"23:59","weekendOpen":"09:00","weekendClose":"23:59","holidayOpen":"09:00","holidayClose":"23:59","feeInfo":"무료","phone":"062-360-7810","updatedAt":"2025-12-03","sido":"광주광역시","sigungu":"서구","dong":"유촌동"},{"name":"양동현장민원실 공영주차장","type":"공영","category":"노외","address":"광주광역시 서구 독립로200번길 7","lat":35.15009304,"lng":126.9069069,"totalSpaces":11,"isFree":true,"operatingDays":"평일+토요일+공휴일","weekdayOpen":"09:00","weekdayClose":"23:59","weekendOpen":"09:00","weekendClose":"23:59","holidayOpen":"09:00","holidayClose":"23:59","feeInfo":"무료","phone":"062-360-7810","updatedAt":"2025-12-03","sido":"광주광역시","sigungu":"서구","dong":"양동"},{"name":"양3동주민센터","type":"공영","category":"노외","address":"광주광역시 서구 독립로185번길 5","lat":35.15752068,"lng":126.8940007,"totalSpaces":10,"isFree":true,"operatingDays":"평일+토요일+공휴일","weekdayOpen":"09:00","weekdayClose":"23:59","weekendOpen":"09:00","weekendClose":"23:59","holidayOpen":"09:00","holidayClose":"23:59","feeInfo":"무료","phone":"062-350-4225","updatedAt":"2025-12-03","sido":"광주광역시","sigungu":"서구","dong":"양동"},{"name":"유촌동 주거환경개선지구","type":"공영","category":"노외","address":"광주광역시 서구 유촌동 556-2","lat":35.16667956,"lng":126.8526003,"totalSpaces":10,"isFree":true,"operatingDays":"평일+토요일+공휴일","weekdayOpen":"09:00","weekdayClose":"23:59","weekendOpen":"09:00","weekendClose":"23:59","holidayOpen":"09:00","holidayClose":"23:59","feeInfo":"무료","phone":"062-360-7810","updatedAt":"2025-12-03","sido":"광주광역시","sigungu":"서구","dong":"유촌동"},{"name":"신학대 공영주차장","type":"공영","category":"노외","address":"광주광역시 서구 쌍촌동 452-34","lat":35.14878557,"lng":126.8665819,"totalSpaces":10,"isFree":true,"operatingDays":"평일+토요일+공휴일","weekdayOpen":"09:00","weekdayClose":"23:59","weekendOpen":"09:00","weekendClose":"23:59","holidayOpen":"09:00","holidayClose":"23:59","feeInfo":"무료","phone":"062-360-7810","updatedAt":"2025-12-03","sido":"광주광역시","sigungu":"서구","dong":"쌍촌동"},{"name":"금호2동주민센터","type":"공영","category":"노외","address":"광주광역시 서구 금호동 812","lat":35.12899182,"lng":126.8571559,"totalSpaces":9,"isFree":true,"operatingDays":"평일+토요일+공휴일","weekdayOpen":"09:00","weekdayClose":"23:59","weekendOpen":"09:00","weekendClose":"23:59","holidayOpen":"09:00","holidayClose":"23:59","feeInfo":"무료","phone":"062-350-4507","updatedAt":"2025-12-03","sido":"광주광역시","sigungu":"서구","dong":"금호동"},{"name":"서창동주민센터","type":"공영","category":"노외","address":"광주광역시 서구 눌재로 412","lat":35.11445067,"lng":126.8302906,"totalSpaces":9,"isFree":true,"operatingDays":"평일+토요일+공휴일","weekdayOpen":"09:00","weekdayClose":"23:59","weekendOpen":"09:00","weekendClose":"23:59","holidayOpen":"09:00","holidayClose":"23:59","feeInfo":"무료","phone":"062-350-4470","updatedAt":"2025-12-03","sido":"광주광역시","sigungu":"서구","dong":"세하동"},{"name":"신암근린공원 공영주차장","type":"공영","category":"노외","address":"광주광역시 서구 풍암2로 26","lat":35.12487156,"lng":126.8791788,"totalSpaces":9,"isFree":true,"operatingDays":"평일+토요일+공휴일","weekdayOpen":"09:00","weekdayClose":"23:59","weekendOpen":"09:00","weekendClose":"23:59","holidayOpen":"09:00","holidayClose":"23:59","feeInfo":"무료","phone":"062-350-4938","updatedAt":"2025-12-03","sido":"광주광역시","sigungu":"서구","dong":"풍암동"},{"name":"유촌동 주거환경개선지구","type":"공영","category":"노외","address":"광주광역시 서구 유촌동 441","lat":35.1640376,"lng":126.8521721,"totalSpaces":9,"isFree":true,"operatingDays":"평일+토요일+공휴일","weekdayOpen":"09:00","weekdayClose":"23:59","weekendOpen":"09:00","weekendClose":"23:59","holidayOpen":"09:00","holidayClose":"23:59","feeInfo":"무료","phone":"062-360-7810","updatedAt":"2025-12-03","sido":"광주광역시","sigungu":"서구","dong":"유촌동"},{"name":"오천마을 재생프로젝트","type":"공영","category":"노외","address":"광주광역시 서구 양동 374-1","lat":35.15763319,"lng":126.896456,"totalSpaces":9,"isFree":true,"operatingDays":"평일+토요일+공휴일","weekdayOpen":"09:00","weekdayClose":"23:59","weekendOpen":"09:00","weekendClose":"23:59","holidayOpen":"09:00","holidayClose":"23:59","feeInfo":"무료","phone":"062-360-7810","updatedAt":"2025-12-03","sido":"광주광역시","sigungu":"서구","dong":"양동"},{"name":"상록도서관 옥외주차장","type":"공영","category":"노외","address":"광주광역시 서구 농성동 374-2","lat":35.15522263,"lng":126.8889178,"totalSpaces":9,"isFree":true,"operatingDays":"평일+토요일+공휴일","weekdayOpen":"09:00","weekdayClose":"23:59","weekendOpen":"09:00","weekendClose":"23:59","holidayOpen":"09:00","holidayClose":"23:59","feeInfo":"무료","phone":"062-350-4579","updatedAt":"2025-12-03","sido":"광주광역시","sigungu":"서구","dong":"농성동"},{"name":"덕흥동 공영주차장","type":"공영","category":"노외","address":"광주광역시 서구 덕흥동 899-2","lat":35.16667956,"lng":126.8526003,"totalSpaces":8,"isFree":true,"operatingDays":"평일+토요일+공휴일","weekdayOpen":"09:00","weekdayClose":"23:59","weekendOpen":"09:00","weekendClose":"23:59","holidayOpen":"09:00","holidayClose":"23:59","feeInfo":"무료","phone":"062-360-7810","updatedAt":"2025-12-03","sido":"광주광역시","sigungu":"서구","dong":"덕흥동"},{"name":"양동공영주차장","type":"공영","category":"노외","address":"광주광역시 서구 독립로194번길 2-1","lat":35.14994043,"lng":126.9059761,"totalSpaces":8,"isFree":true,"operatingDays":"평일+토요일+공휴일","weekdayOpen":"09:00","weekdayClose":"23:59","weekendOpen":"09:00","weekendClose":"23:59","holidayOpen":"09:00","holidayClose":"23:59","feeInfo":"무료","phone":"062-360-7810","updatedAt":"2025-12-03","sido":"광주광역시","sigungu":"서구","dong":"양동"},{"name":"유덕동 공영주차장","type":"공영","category":"노외","address":"광주광역시 서구 유촌동 148","lat":35.16558333,"lng":126.852727,"totalSpaces":7,"isFree":true,"operatingDays":"평일+토요일+공휴일","weekdayOpen":"09:00","weekdayClose":"23:59","weekendOpen":"09:00","weekendClose":"23:59","holidayOpen":"09:00","holidayClose":"23:59","feeInfo":"무료","phone":"062-360-7810","updatedAt":"2025-12-03","sido":"광주광역시","sigungu":"서구","dong":"유촌동"},{"name":"농성1동주거환경개선지구","type":"공영","category":"노외","address":"광주광역시 서구 농성동 69-1","lat":35.15396863,"lng":126.8909739,"totalSpaces":7,"isFree":true,"operatingDays":"평일+토요일+공휴일","weekdayOpen":"09:00","weekdayClose":"23:59","weekendOpen":"09:00","weekendClose":"23:59","holidayOpen":"09:00","holidayClose":"23:59","feeInfo":"무료","phone":"062-360-7810","updatedAt":"2025-12-03","sido":"광주광역시","sigungu":"서구","dong":"농성동"},{"name":"풍암동주민센터","type":"공영","category":"노외","address":"광주광역시 서구 풍암1로 27","lat":35.12474963,"lng":126.8786648,"totalSpaces":7,"isFree":true,"operatingDays":"평일+토요일+공휴일","weekdayOpen":"09:00","weekdayClose":"23:59","weekendOpen":"09:00","weekendClose":"23:59","holidayOpen":"09:00","holidayClose":"23:59","feeInfo":"무료","phone":"062-350-4528","updatedAt":"2025-12-03","sido":"광주광역시","sigungu":"서구","dong":"풍암동"},{"name":"치평동주민센터","type":"공영","category":"노외","address":"광주광역시 서구 상무공원로 62","lat":35.14994536,"lng":126.8433434,"totalSpaces":6,"isFree":true,"operatingDays":"평일+토요일+공휴일","weekdayOpen":"09:00","weekdayClose":"23:59","weekendOpen":"09:00","weekendClose":"23:59","holidayOpen":"09:00","holidayClose":"23:59","feeInfo":"무료","phone":"062-350-4325","updatedAt":"2025-12-03","sido":"광주광역시","sigungu":"서구","dong":"치평동"},{"name":"양동 주거환경개선지구","type":"공영","category":"노외","address":"광주광역시 서구 양동 287-7","lat":35.15329648,"lng":126.8981335,"totalSpaces":6,"isFree":true,"operatingDays":"평일+토요일+공휴일","weekdayOpen":"09:00","weekdayClose":"23:59","weekendOpen":"09:00","weekendClose":"23:59","holidayOpen":"09:00","holidayClose":"23:59","feeInfo":"무료","phone":"062-360-7810","updatedAt":"2025-12-03","sido":"광주광역시","sigungu":"서구","dong":"양동"},{"name":"상무2동 우리마을 공영주차장","type":"공영","category":"노외","address":"광주광역시 서구 쌍촌동 524-2","lat":35.16667956,"lng":126.8526003,"totalSpaces":5,"isFree":true,"operatingDays":"평일+토요일+공휴일","weekdayOpen":"09:00","weekdayClose":"23:59","weekendOpen":"09:00","weekendClose":"23:59","holidayOpen":"09:00","holidayClose":"23:59","feeInfo":"무료","phone":"062-360-7810","updatedAt":"2025-12-03","sido":"광주광역시","sigungu":"서구","dong":"쌍촌동"},{"name":"화정1동주민센터","type":"공영","category":"노외","address":"광주광역시 서구 내방로338번길 11","lat":35.15634355,"lng":126.8777162,"totalSpaces":4,"isFree":true,"operatingDays":"평일+토요일+공휴일","weekdayOpen":"09:00","weekdayClose":"23:59","weekendOpen":"09:00","weekendClose":"23:59","holidayOpen":"09:00","holidayClose":"23:59","feeInfo":"무료","phone":"062-350-4385","updatedAt":"2025-12-03","sido":"광주광역시","sigungu":"서구","dong":"화정동"},{"name":"양3동 공영주차장","type":"공영","category":"노외","address":"광주광역시 서구 양동 437-11","lat":35.15847243,"lng":126.8926032,"totalSpaces":4,"isFree":true,"operatingDays":"평일+토요일+공휴일","weekdayOpen":"09:00","weekdayClose":"23:59","weekendOpen":"09:00","weekendClose":"23:59","holidayOpen":"09:00","holidayClose":"23:59","feeInfo":"무료","phone":"062-360-7810","updatedAt":"2025-12-03","sido":"광주광역시","sigungu":"서구","dong":"양동"},{"name":"양동복개상가상하부주차장","type":"공영","category":"노외","address":"광주광역시 서구 천변좌로 243","lat":35.15509075,"lng":126.9013634,"totalSpaces":249,"isFree":false,"operatingDays":"평일+토요일+공휴일","weekdayOpen":"00:00","weekdayClose":"23:59","weekendOpen":"00:00","weekendClose":"23:59","holidayOpen":"00:00","holidayClose":"23:59","feeInfo":"기본 30분 700원 / 추가 15분당 350원","phone":"062-360-7352","updatedAt":"2025-12-03","sido":"광주광역시","sigungu":"서구","dong":"양동"},{"name":"양동전통시장 연합 공영주차장","type":"공영","category":"노외","address":"광주광역시 서구 양동시장3길 21-1","lat":35.15509075,"lng":126.9013634,"totalSpaces":148,"isFree":false,"operatingDays":"평일+토요일+공휴일","weekdayOpen":"00:00","weekdayClose":"23:59","weekendOpen":"00:00","weekendClose":"23:59","holidayOpen":"00:00","holidayClose":"23:59","feeInfo":"기본 30분 700원 / 추가 15분당 350원","phone":"062-360-7352","updatedAt":"2025-12-03","sido":"광주광역시","sigungu":"서구","dong":"양동"},{"name":"화정동 공영주차장","type":"공영","category":"노외","address":"광주광역시 서구 화정동 1705","lat":35.14855087,"lng":126.8772085,"totalSpaces":96,"isFree":false,"operatingDays":"평일+토요일+공휴일","weekdayOpen":"09:00","weekdayClose":"23:59","weekendOpen":"09:00","weekendClose":"23:59","holidayOpen":"09:00","holidayClose":"23:59","feeInfo":"기본 30분 700원 / 추가 15분당 350원","phone":"062-360-7810","updatedAt":"2025-12-03","sido":"광주광역시","sigungu":"서구","dong":"화정동"},{"name":"양동닭전길시장공영주차장","type":"공영","category":"노외","address":"광주광역시 서구 양동시장2길 32","lat":35.15223195,"lng":126.9032017,"totalSpaces":82,"isFree":false,"operatingDays":"평일+토요일+공휴일","weekdayOpen":"00:00","weekdayClose":"23:59","weekendOpen":"00:00","weekendClose":"23:59","holidayOpen":"00:00","holidayClose":"23:59","feeInfo":"기본 30분 700원 / 추가 15분당 350원","phone":"062-360-7352","updatedAt":"2025-12-03","sido":"광주광역시","sigungu":"서구","dong":"양동"},{"name":"치평동 공영주차장","type":"공영","category":"노외","address":"광주광역시 서구 치평동 1308-1","lat":35.14572556,"lng":126.8438925,"totalSpaces":54,"isFree":false,"operatingDays":"평일+토요일+공휴일","weekdayOpen":"00:00","weekdayClose":"23:59","weekendOpen":"00:00","weekendClose":"23:59","holidayOpen":"00:00","holidayClose":"23:59","feeInfo":"기본 30분 700원 / 추가 15분당 350원","phone":"062-360-7810","updatedAt":"2025-12-03","sido":"광주광역시","sigungu":"서구","dong":"치평동"},{"name":"금호동 공영주차장","type":"공영","category":"노외","address":"광주광역시 서구 금호동 764","lat":35.132465,"lng":126.8573497,"totalSpaces":50,"isFree":false,"operatingDays":"평일+토요일+공휴일","weekdayOpen":"00:00","weekdayClose":"23:59","weekendOpen":"00:00","weekendClose":"23:59","holidayOpen":"00:00","holidayClose":"23:59","feeInfo":"기본 30분 700원 / 추가 15분당 350원","phone":"062-360-7810","updatedAt":"2025-12-03","sido":"광주광역시","sigungu":"서구","dong":"금호동"},{"name":"효사어린이공원 공영주차장","type":"공영","category":"노외","address":"광주광역시 서구 쌍촌로47번길 41-1","lat":35.15982792,"lng":126.8465404,"totalSpaces":48,"isFree":false,"operatingDays":"평일+토요일+공휴일","weekdayOpen":"00:00","weekdayClose":"23:59","weekendOpen":"00:00","weekendClose":"23:59","holidayOpen":"00:00","holidayClose":"23:59","feeInfo":"기본 30분 700원 / 추가 15분당 350원","phone":"062-360-7810","updatedAt":"2025-12-03","sido":"광주광역시","sigungu":"서구","dong":"쌍촌동"},{"name":"동천동 공영주차장","type":"공영","category":"노외","address":"광주광역시 서구 동천동 650","lat":35.15982792,"lng":126.8465404,"totalSpaces":44,"isFree":false,"operatingDays":"평일+토요일+공휴일","weekdayOpen":"00:00","weekdayClose":"23:59","weekendOpen":"00:00","weekendClose":"23:59","holidayOpen":"00:00","holidayClose":"23:59","feeInfo":"기본 30분 700원 / 추가 15분당 350원","phone":"062-360-7810","updatedAt":"2025-12-03","sido":"광주광역시","sigungu":"서구","dong":"동천동"},{"name":"양동산업용품주차장","type":"공영","category":"노외","address":"광주광역시 서구 천변좌로298번길 5","lat":35.15015682,"lng":126.9069829,"totalSpaces":40,"isFree":false,"operatingDays":"평일+토요일+공휴일","weekdayOpen":"00:00","weekdayClose":"23:59","weekendOpen":"00:00","weekendClose":"23:59","holidayOpen":"00:00","holidayClose":"23:59","feeInfo":"기본 30분 700원 / 추가 15분당 350원","phone":"062-360-7352","updatedAt":"2025-12-03","sido":"광주광역시","sigungu":"서구","dong":"양동"},{"name":"서부시장 공영주차장","type":"공영","category":"노외","address":"광주광역시 서구 화정동 779-1","lat":35.15385914,"lng":126.8797736,"totalSpaces":39,"isFree":false,"operatingDays":"평일+토요일+공휴일","weekdayOpen":"00:00","weekdayClose":"23:59","weekendOpen":"00:00","weekendClose":"23:59","holidayOpen":"00:00","holidayClose":"23:59","feeInfo":"기본 30분 700원 / 추가 15분당 350원","phone":"062-360-7352","updatedAt":"2025-12-03","sido":"광주광역시","sigungu":"서구","dong":"화정동"},{"name":"느티나무어린이공원 공영주차장","type":"공영","category":"노외","address":"광주광역시 서구 시청서편로12번길 8","lat":35.15982792,"lng":126.8465404,"totalSpaces":33,"isFree":false,"operatingDays":"평일+토요일+공휴일","weekdayOpen":"00:00","weekdayClose":"23:59","weekendOpen":"00:00","weekendClose":"23:59","holidayOpen":"00:00","holidayClose":"23:59","feeInfo":"기본 30분 700원 / 추가 15분당 350원","phone":"062-360-7810","updatedAt":"2025-12-03","sido":"광주광역시","sigungu":"서구","dong":"치평동"},{"name":"화정2동공영주차장","type":"공영","category":"노외","address":"광주광역시 서구 화정동 1551","lat":35.14507754,"lng":126.8856842,"totalSpaces":19,"isFree":false,"operatingDays":"평일+토요일+공휴일","weekdayOpen":"00:00","weekdayClose":"23:59","weekendOpen":"00:00","weekendClose":"23:59","holidayOpen":"00:00","holidayClose":"23:59","feeInfo":"기본 30분 700원 / 추가 15분당 350원","phone":"062-360-7810","updatedAt":"2025-12-03","sido":"광주광역시","sigungu":"서구","dong":"화정동"}]}