{"sido":"서울특별시","sigungu":"서대문구","totalCount":33,"validCount":33,"items":[{"name":"북성초등학교 공영","type":"공영","category":"노외","address":"서울특별시 서대문구 북아현동 215","lat":37.55963212,"lng":126.9518349,"totalSpaces":100,"isFree":false,"operatingDays":"평일+토요일+공휴일","weekdayOpen":"00:00","weekdayClose":"23:59","weekendOpen":"00:00","weekendClose":"23:59","holidayOpen":"00:00","holidayClose":"23:59","feeInfo":"유료","phone":"02-360-8542","updatedAt":"2025-10-31","sido":"서울특별시","sigungu":"서대문구","dong":"북아현동"},{"name":"홍은1동 제4공영","type":"공영","category":"노외","address":"서울특별시 서대문구 홍은중앙로 125","lat":37.60152713,"lng":126.9491809,"totalSpaces":98,"isFree":false,"operatingDays":"평일+토요일+공휴일","weekdayOpen":"10:00","weekdayClose":"19:00","weekendOpen":"10:00","weekendClose":"19:00","holidayOpen":"10:00","holidayClose":"19:00","feeInfo":"유료","phone":"02-360-8542","updatedAt":"2025-10-31","sido":"서울특별시","sigungu":"서대문구","dong":"홍은동"},{"name":"남가좌2동 제2공영","type":"공영","category":"노외","address":"서울특별시 서대문구 남가좌2동 3-75","lat":37.583036,"lng":126.923098,"totalSpaces":95,"isFree":false,"operatingDays":"평일+토요일+공휴일","weekdayOpen":"10:00","weekdayClose":"19:00","weekendOpen":"10:00","weekendClose":"19:00","holidayOpen":"10:00","holidayClose":"19:00","feeInfo":"유료","phone":"02-360-8542","updatedAt":"2025-10-31","sido":"서울특별시","sigungu":"서대문구","dong":"남가좌2동"},{"name":"홍연초등학교 공영","type":"공영","category":"노외","address":"서울특별시 서대문구 백련사길 55","lat":37.58211871,"lng":126.9306604,"totalSpaces":89,"isFree":false,"operatingDays":"평일+토요일+공휴일","weekdayOpen":"00:00","weekdayClose":"23:59","weekendOpen":"00:00","weekendClose":"23:59","holidayOpen":"00:00","holidayClose":"23:59","feeInfo":"유료","phone":"02-360-8542","updatedAt":"2025-10-31","sido":"서울특별시","sigungu":"서대문구","dong":"홍은동"},{"name":"홍은1동 제1공영","type":"공영","category":"노외","address":"서울특별시 서대문구 포방터2길 10","lat":37.598662,"lng":126.949577,"totalSpaces":72,"isFree":false,"operatingDays":"평일+토요일+공휴일","weekdayOpen":"00:00","weekdayClose":"23:59","weekendOpen":"00:00","weekendClose":"23:59","holidayOpen":"00:00","holidayClose":"23:59","feeInfo":"유료","phone":"02-360-8542","updatedAt":"2025-10-31","sido":"서울특별시","sigungu":"서대문구","dong":"홍은동"},{"name":"남가좌2동 제1공영","type":"공영","category":"노외","address":"서울특별시 서대문구 가재울로14길 22","lat":37.57701887,"lng":126.9217979,"totalSpaces":71,"isFree":false,"operatingDays":"평일+토요일+공휴일","weekdayOpen":"00:00","weekdayClose":"23:59","weekendOpen":"00:00","weekendClose":"23:59","holidayOpen":"00:00","holidayClose":"23:59","feeInfo":"유료","phone":"02-360-8542","updatedAt":"2025-10-31","sido":"서울특별시","sigungu":"서대문구","dong":"남가좌동"},{"name":"유진상가/인왕시장 앞 공영","type":"공영","category":"노상","address":"서울특별시 서대문구 홍제3동 294-4","lat":37.590854,"lng":126.942279,"totalSpaces":64,"isFree":false,"operatingDays":"평일+토요일+공휴일","weekdayOpen":"10:00","weekdayClose":"19:00","weekendOpen":"10:00","weekendClose":"15:00","holidayOpen":"00:00","holidayClose":"23:59","feeInfo":"유료","phone":"02-360-8542","updatedAt":"2025-10-31","sido":"서울특별시","sigungu":"서대문구","dong":"홍제3동"},{"name":"충현동 제1공영","type":"공영","category":"노외","address":"서울특별시 서대문구 경기대로 72","lat":37.565118,"lng":126.964418,"totalSpaces":63,"isFree":false,"operatingDays":"평일+토요일+공휴일","weekdayOpen":"10:00","weekdayClose":"19:00","weekendOpen":"10:00","weekendClose":"19:00","holidayOpen":"10:00","holidayClose":"19:00","feeInfo":"유료","phone":"02-360-8542","updatedAt":"2025-10-31","sido":"서울특별시","sigungu":"서대문구","dong":"충정로2가"},{"name":"홍은2동 제3공영","type":"공영","category":"노외","address":"서울특별시 서대문구 연희로39길 12","lat":37.586759,"lng":126.9342219,"totalSpaces":54,"isFree":false,"operatingDays":"평일+토요일+공휴일","weekdayOpen":"00:00","weekdayClose":"23:59","weekendOpen":"00:00","weekendClose":"23:59","holidayOpen":"00:00","holidayClose":"23:59","feeInfo":"유료","phone":"02-360-8542","updatedAt":"2025-10-31","sido":"서울특별시","sigungu":"서대문구","dong":"홍은동"},{"name":"연희맛로 공영","type":"공영","category":"노상","address":"서울특별시 서대문구 연희동 131-1","lat":37.567117,"lng":126.929661,"totalSpaces":54,"isFree":false,"operatingDays":"평일+토요일+공휴일","weekdayOpen":"10:00","weekdayClose":"20:00","weekendOpen":"10:00","weekendClose":"20:00","holidayOpen":"00:00","holidayClose":"23:59","feeInfo":"유료","phone":"02-360-8542","updatedAt":"2025-10-31","sido":"서울특별시","sigungu":"서대문구","dong":"연희동"},{"name":"북아현동 제2공영","type":"공영","category":"노외","address":"서울특별시 서대문구 북아현로6길 60","lat":37.56005012,"lng":126.9582929,"totalSpaces":50,"isFree":false,"operatingDays":"평일+토요일+공휴일","weekdayOpen":"00:00","weekdayClose":"23:59","weekendOpen":"00:00","weekendClose":"23:59","holidayOpen":"00:00","holidayClose":"23:59","feeInfo":"유료","phone":"02-360-8542","updatedAt":"2025-10-31","sido":"서울특별시","sigungu":"서대문구","dong":"북아현동"},{"name":"연희동 제6공영","type":"공영","category":"노외","address":"서울특별시 서대문구 홍연길 16","lat":37.574957,"lng":126.927991,"totalSpaces":43,"isFree":false,"operatingDays":"평일+토요일+공휴일","weekdayOpen":"00:00","weekdayClose":"23:59","weekendOpen":"00:00","weekendClose":"23:59","holidayOpen":"00:00","holidayClose":"23:59","feeInfo":"유료","phone":"02-360-8542","updatedAt":"2025-10-31","sido":"서울특별시","sigungu":"서대문구","dong":"연희동"},{"name":"연희동 제2공영","type":"공영","category":"노외","address":"서울특별시 서대문구 연희동 105-8","lat":37.57237112,"lng":126.9276771,"totalSpaces":39,"isFree":false,"operatingDays":"평일+토요일+공휴일","weekdayOpen":"00:00","weekdayClose":"23:59","weekendOpen":"00:00","weekendClose":"23:59","holidayOpen":"00:00","holidayClose":"23:59","feeInfo":"유료","phone":"02-360-8542","updatedAt":"2025-10-31","sido":"서울특별시","sigungu":"서대문구","dong":"연희동"},{"name":"충현동 제2공영","type":"공영","category":"노외","address":"서울특별시 서대문구 북아현로14길 24","lat":37.562837,"lng":126.9567878,"totalSpaces":38,"isFree":false,"operatingDays":"평일+토요일+공휴일","weekdayOpen":"00:00","weekdayClose":"23:59","weekendOpen":"00:00","weekendClose":"23:59","holidayOpen":"00:00","holidayClose":"23:59","feeInfo":"유료","phone":"02-360-8542","updatedAt":"2025-10-31","sido":"서울특별시","sigungu":"서대문구","dong":"북아현동"},{"name":"연희동 제3공영","type":"공영","category":"노외","address":"서울특별시 서대문구 연희동 50-3","lat":37.56752792,"lng":126.9344644,"totalSpaces":35,"isFree":false,"operatingDays":"평일+토요일+공휴일","weekdayOpen":"00:00","weekdayClose":"23:59","weekendOpen":"00:00","weekendClose":"23:59","holidayOpen":"00:00","holidayClose":"23:59","feeInfo":"유료","phone":"02-360-8542","updatedAt":"2025-10-31","sido":"서울특별시","sigungu":"서대문구","dong":"연희동"},{"name":"신촌동 제1공영","type":"공영","category":"노외","address":"서울특별시 서대문구 성산로22길 40","lat":37.55912779,"lng":126.9343532,"totalSpaces":33,"isFree":false,"operatingDays":"평일+토요일+공휴일","weekdayOpen":"00:00","weekdayClose":"23:59","weekendOpen":"00:00","weekendClose":"23:59","holidayOpen":"00:00","holidayClose":"23:59","feeInfo":"유료","phone":"02-360-8542","updatedAt":"2025-10-31","sido":"서울특별시","sigungu":"서대문구","dong":"창천동"},{"name":"남가좌1동 제2공영","type":"공영","category":"노외","address":"서울특별시 서대문구 남가좌1동 152-83","lat":37.569735,"lng":126.916373,"totalSpaces":32,"isFree":false,"operatingDays":"평일+토요일+공휴일","weekdayOpen":"00:00","weekdayClose":"23:59","weekendOpen":"00:00","weekendClose":"23:59","holidayOpen":"00:00","holidayClose":"23:59","feeInfo":"유료","phone":"02-360-8542","updatedAt":"2025-10-31","sido":"서울특별시","sigungu":"서대문구","dong":"남가좌1동"},{"name":"홍제1동 제1공영","type":"공영","category":"노외","address":"서울특별시 서대문구 홍제1동 361-36","lat":37.584928,"lng":126.936114,"totalSpaces":30,"isFree":false,"operatingDays":"평일+토요일+공휴일","weekdayOpen":"00:00","weekdayClose":"23:59","weekendOpen":"00:00","weekendClose":"23:59","holidayOpen":"00:00","holidayClose":"23:59","feeInfo":"유료","phone":"02-360-8542","updatedAt":"2025-10-31","sido":"서울특별시","sigungu":"서대문구","dong":"홍제1동"},{"name":"신촌역동측광장 공영","type":"공영","category":"노외","address":"서울특별시 서대문구 대현동 121-19","lat":37.559263,"lng":126.943231,"totalSpaces":30,"isFree":false,"operatingDays":"평일+토요일+공휴일","weekdayOpen":"00:00","weekdayClose":"23:59","weekendOpen":"00:00","weekendClose":"23:59","holidayOpen":"00:00","holidayClose":"23:59","feeInfo":"유료","phone":"02-360-8542","updatedAt":"2025-10-31","sido":"서울특별시","sigungu":"서대문구","dong":"대현동"},{"name":"홍은2동 제1공영","type":"공영","category":"노외","address":"서울특별시 서대문구 증가로10길 60-23","lat":37.578957,"lng":126.925681,"totalSpaces":29,"isFree":false,"operatingDays":"평일+토요일+공휴일","weekdayOpen":"00:00","weekdayClose":"23:59","weekendOpen":"00:00","weekendClose":"23:59","holidayOpen":"00:00","holidayClose":"23:59","feeInfo":"유료","phone":"02-360-8542","updatedAt":"2025-10-31","sido":"서울특별시","sigungu":"서대문구","dong":"홍은동"},{"name":"홍제3동 제2공영","type":"공영","category":"노외","address":"서울특별시 서대문구 홍제3동 8-173","lat":37.592975,"lng":126.950711,"totalSpaces":27,"isFree":false,"operatingDays":"평일+토요일+공휴일","weekdayOpen":"00:00","weekdayClose":"23:59","weekendOpen":"00:00","weekendClose":"23:59","holidayOpen":"00:00","holidayClose":"23:59","feeInfo":"유료","phone":"02-360-8542","updatedAt":"2025-10-31","sido":"서울특별시","sigungu":"서대문구","dong":"홍제3동"},{"name":"미근동","type":"공영","category":"노외","address":"서울특별시 서대문구 미근동 267-3","lat":37.5622132,"lng":126.9661279,"totalSpaces":27,"isFree":false,"operatingDays":"평일+토요일+공휴일","weekdayOpen":"09:00","weekdayClose":"19:00","weekendOpen":"09:00","weekendClose":"15:00","holidayOpen":"00:00","holidayClose":"00:00","feeInfo":"기본 5분 0원","phone":"","updatedAt":"2021-07-30","sido":"서울특별시","sigungu":"서대문구","dong":"미근동"},{"name":"미근동 공영","type":"공영","category":"노외","address":"서울특별시 서대문구 미근동 267-3","lat":37.562169,"lng":126.9684152,"totalSpaces":27,"isFree":false,"operatingDays":"평일+토요일+공휴일","weekdayOpen":"00:00","weekdayClose":"23:59","weekendOpen":"00:00","weekendClose":"23:59","holidayOpen":"00:00","holidayClose":"23:59","feeInfo":"유료","phone":"02-360-8542","updatedAt":"2025-10-31","sido":"서울특별시","sigungu":"서대문구","dong":"미근동"},{"name":"홍제3동 제1공영","type":"공영","category":"노외","address":"서울특별시 서대문구 홍제3동 278-41","lat":37.595031,"lng":126.948166,"totalSpaces":24,"isFree":false,"operatingDays":"평일+토요일+공휴일","weekdayOpen":"00:00","weekdayClose":"23:59","weekendOpen":"00:00","weekendClose":"23:59","holidayOpen":"00:00","holidayClose":"23:59","feeInfo":"유료","phone":"02-360-8542","updatedAt":"2025-10-31","sido":"서울특별시","sigungu":"서대문구","dong":"홍제3동"},{"name":"홍은2동 제2공영","type":"공영","category":"노외","address":"서울특별시 서대문구 연희로39나길 25","lat":37.58757262,"lng":126.9319203,"totalSpaces":24,"isFree":false,"operatingDays":"평일+토요일+공휴일","weekdayOpen":"00:00","weekdayClose":"23:59","weekendOpen":"00:00","weekendClose":"23:59","holidayOpen":"00:00","holidayClose":"23:59","feeInfo":"유료","phone":"02-360-8542","updatedAt":"2025-10-31","sido":"서울특별시","sigungu":"서대문구","dong":"홍은동"},{"name":"연희동 제1공영","type":"공영","category":"노외","address":"서울특별시 서대문구 연희동 151-32","lat":37.57672649,"lng":126.934308,"totalSpaces":24,"isFree":false,"operatingDays":"평일+토요일+공휴일","weekdayOpen":"00:00","weekdayClose":"23:59","weekendOpen":"00:00","weekendClose":"23:59","holidayOpen":"00:00","holidayClose":"23:59","feeInfo":"유료","phone":"02-360-8542","updatedAt":"2025-10-31","sido":"서울특별시","sigungu":"서대문구","dong":"연희동"},{"name":"북가좌2동 제1공영","type":"공영","category":"노외","address":"서울특별시 서대문구 북가좌2동 73-16","lat":37.578673,"lng":126.913443,"totalSpaces":22,"isFree":false,"operatingDays":"평일+토요일+공휴일","weekdayOpen":"00:00","weekdayClose":"23:59","weekendOpen":"00:00","weekendClose":"23:59","holidayOpen":"00:00","holidayClose":"23:59","feeInfo":"유료","phone":"02-360-8542","updatedAt":"2025-10-31","sido":"서울특별시","sigungu":"서대문구","dong":"북가좌2동"},{"name":"홍제2동 제1공영","type":"공영","category":"노외","address":"서울특별시 서대문구 홍제2동 192-14","lat":37.588295,"lng":126.947704,"totalSpaces":17,"isFree":false,"operatingDays":"평일+토요일+공휴일","weekdayOpen":"00:00","weekdayClose":"23:59","weekendOpen":"00:00","weekendClose":"23:59","holidayOpen":"00:00","holidayClose":"23:59","feeInfo":"유료","phone":"02-360-8542","updatedAt":"2025-10-31","sido":"서울특별시","sigungu":"서대문구","dong":"홍제2동"},{"name":"북아현가구단지 공영","type":"공영","category":"노외","address":"서울특별시 서대문구 북아현동 915","lat":37.55829247,"lng":126.960347,"totalSpaces":15,"isFree":false,"operatingDays":"평일+토요일+공휴일","weekdayOpen":"10:00","weekdayClose":"21:00","weekendOpen":"10:00","weekendClose":"21:00","holidayOpen":"10:00","holidayClose":"21:00","feeInfo":"유료","phone":"02-360-8542","updatedAt":"2025-10-31","sido":"서울특별시","sigungu":"서대문구","dong":"북아현동"},{"name":"정원단지 회차 주차시설","type":"공영","category":"노외","address":"서울특별시 서대문구 홍은2동 265-220","lat":37.587733,"lng":126.930636,"totalSpaces":9,"isFree":false,"operatingDays":"평일+토요일+공휴일","weekdayOpen":"00:00","weekdayClose":"23:59","weekendOpen":"00:00","weekendClose":"23:59","holidayOpen":"00:00","holidayClose":"23:59","feeInfo":"유료","phone":"02-360-8542","updatedAt":"2025-10-31","sido":"서울특별시","sigungu":"서대문구","dong":"홍은2동"},{"name":"북가좌2동 제2공영","type":"공영","category":"노외","address":"서울특별시 서대문구 북가좌2동 346-20","lat":37.580808,"lng":126.908329,"totalSpaces":9,"isFree":false,"operatingDays":"평일+토요일+공휴일","weekdayOpen":"00:00","weekdayClose":"23:59","weekendOpen":"00:00","weekendClose":"23:59","holidayOpen":"00:00","holidayClose":"23:59","feeInfo":"유료","phone":"02-360-8542","updatedAt":"2025-10-31","sido":"서울특별시","sigungu":"서대문구","dong":"북가좌2동"},{"name":"홍은1동 제3공영","type":"공영","category":"노외","address":"서울특별시 서대문구 홍은1동 8-1262","lat":37.605768,"lng":126.949863,"totalSpaces":8,"isFree":false,"operatingDays":"평일+토요일+공휴일","weekdayOpen":"00:00","weekdayClose":"23:59","weekendOpen":"00:00","weekendClose":"23:59","holidayOpen":"00:00","holidayClose":"23:59","feeInfo":"유료","phone":"02-360-8542","updatedAt":"2025-10-31","sido":"서울특별시","sigungu":"서대문구","dong":"홍은1동"},{"name":"증가로","type":"공영","category":"노상","address":"서울특별시 서대문구 증가로 261","lat":37.5838124,"lng":126.9088061,"totalSpaces":7,"isFree":false,"operatingDays":"평일+토요일+공휴일","weekdayOpen":"09:00","weekdayClose":"19:00","weekendOpen":"09:00","weekendClose":"15:00","holidayOpen":"00:00","holidayClose":"00:00","feeInfo":"기본 5분 0원","phone":"","updatedAt":"2021-07-30","sido":"서울특별시","sigungu":"서대문구","dong":"북가좌동"}]}