{"sido":"서울특별시","sigungu":"성북구","totalCount":14,"validCount":14,"items":[{"name":"구청사부설","type":"공영","category":"부설","address":"서울특별시 성북구 보문로 168","lat":37.58945628,"lng":127.0168496,"totalSpaces":200,"isFree":false,"operatingDays":"평일+토요일+공휴일","weekdayOpen":"06:00","weekdayClose":"22:00","weekendOpen":"06:00","weekendClose":"22:00","holidayOpen":"06:00","holidayClose":"22:00","feeInfo":"기본 30분 1,000원 / 추가 5분당 250원","phone":"02-6925-0023","updatedAt":"2025-08-11","sido":"서울특별시","sigungu":"성북구","dong":"삼선동5가"},{"name":"길음환승","type":"공영","category":"노외","address":"서울특별시 성북구 동소문로 260","lat":37.60410063,"lng":127.0258353,"totalSpaces":146,"isFree":false,"operatingDays":"평일+토요일+공휴일","weekdayOpen":"00:00","weekdayClose":"23:59","weekendOpen":"00:00","weekendClose":"23:59","holidayOpen":"00:00","holidayClose":"23:59","feeInfo":"기본 5분 150원 / 추가 5분당 150원","phone":"02-6925-0023","updatedAt":"2025-08-11","sido":"서울특별시","sigungu":"성북구","dong":"하월곡동"},{"name":"삼선동","type":"공영","category":"노외","address":"서울특별시 성북구 삼선동1가 278-5","lat":37.5847177,"lng":127.007389,"totalSpaces":133,"isFree":false,"operatingDays":"평일+토요일+공휴일","weekdayOpen":"00:00","weekdayClose":"23:59","weekendOpen":"00:00","weekendClose":"23:59","holidayOpen":"00:00","holidayClose":"23:59","feeInfo":"기본 5분 150원 / 추가 5분당 150원","phone":"02-6925-0023","updatedAt":"2025-08-11","sido":"서울특별시","sigungu":"성북구","dong":"삼선동1가"},{"name":"경동고","type":"공영","category":"노외","address":"서울특별시 성북구 보문로29길 49","lat":37.58660133,"lng":127.0163213,"totalSpaces":123,"isFree":false,"operatingDays":"평일+토요일+공휴일","weekdayOpen":"00:00","weekdayClose":"23:59","weekendOpen":"00:00","weekendClose":"23:59","holidayOpen":"00:00","holidayClose":"23:59","feeInfo":"기본 5분 150원 / 추가 5분당 150원","phone":"02-6925-0023","updatedAt":"2025-08-11","sido":"서울특별시","sigungu":"성북구","dong":"삼선동3가"},{"name":"시네마부설주차장","type":"공영","category":"부설","address":"서울특별시 성북구 아리랑로12길 4","lat":37.59915465,"lng":127.0147755,"totalSpaces":100,"isFree":false,"operatingDays":"평일+토요일+공휴일","weekdayOpen":"00:00","weekdayClose":"23:59","weekendOpen":"00:00","weekendClose":"23:59","holidayOpen":"00:00","holidayClose":"23:59","feeInfo":"기본 5분 150원 / 추가 5분당 150원","phone":"02-6906-9624","updatedAt":"2025-08-11","sido":"서울특별시","sigungu":"성북구","dong":"돈암동"},{"name":"마을공원","type":"공영","category":"노외","address":"서울특별시 성북구 장위동 270-134","lat":37.61734643,"lng":127.0529242,"totalSpaces":98,"isFree":false,"operatingDays":"평일+토요일+공휴일","weekdayOpen":"00:00","weekdayClose":"23:59","weekendOpen":"00:00","weekendClose":"23:59","holidayOpen":"00:00","holidayClose":"23:59","feeInfo":"기본 5분 150원 / 추가 5분당 150원","phone":"02-6925-0023","updatedAt":"2025-08-11","sido":"서울특별시","sigungu":"성북구","dong":"장위동"},{"name":"석관동","type":"공영","category":"노외","address":"서울특별시 성북구 석관동 332-166","lat":37.6070744,"lng":127.0601254,"totalSpaces":77,"isFree":false,"operatingDays":"평일+토요일+공휴일","weekdayOpen":"00:00","weekdayClose":"23:59","weekendOpen":"00:00","weekendClose":"23:59","holidayOpen":"00:00","holidayClose":"23:59","feeInfo":"기본 5분 150원 / 추가 5분당 150원","phone":"02-6925-0023","updatedAt":"2025-08-11","sido":"서울특별시","sigungu":"성북구","dong":"석관동"},{"name":"동방고개","type":"공영","category":"노외","address":"서울특별시 성북구 장위로13길 9","lat":37.61460901,"lng":127.0409876,"totalSpaces":64,"isFree":false,"operatingDays":"평일+토요일+공휴일","weekdayOpen":"00:00","weekdayClose":"23:59","weekendOpen":"00:00","weekendClose":"23:59","holidayOpen":"00:00","holidayClose":"23:59","feeInfo":"기본 5분 150원 / 추가 5분당 150원","phone":"02-6925-0023","updatedAt":"2025-08-11","sido":"서울특별시","sigungu":"성북구","dong":"장위동"},{"name":"벤처빌딩","type":"공영","category":"노외","address":"서울특별시 성북구 화랑로 211","lat":37.60935675,"lng":127.0530356,"totalSpaces":49,"isFree":false,"operatingDays":"평일+토요일+공휴일","weekdayOpen":"00:00","weekdayClose":"23:59","weekendOpen":"00:00","weekendClose":"23:59","holidayOpen":"00:00","holidayClose":"23:59","feeInfo":"기본 5분 150원 / 추가 5분당 150원","phone":"02-6925-0023","updatedAt":"2025-08-11","sido":"서울특별시","sigungu":"성북구","dong":"장위동"},{"name":"성북초교","type":"공영","category":"노상","address":"서울특별시 성북구 성북로 87","lat":37.5929305,"lng":126.9971267,"totalSpaces":26,"isFree":false,"operatingDays":"평일+토요일+공휴일","weekdayOpen":"00:00","weekdayClose":"00:00","weekendOpen":"00:00","weekendClose":"00:00","holidayOpen":"00:00","holidayClose":"00:00","feeInfo":"기본 5분 0원","phone":"","updatedAt":"2021-07-30","sido":"서울특별시","sigungu":"성북구","dong":"성북동"},{"name":"성북동길","type":"공영","category":"노외","address":"서울특별시 성북구 성북동 237-3","lat":37.59483642,"lng":126.9938746,"totalSpaces":26,"isFree":false,"operatingDays":"평일+토요일+공휴일","weekdayOpen":"00:00","weekdayClose":"23:59","weekendOpen":"00:00","weekendClose":"23:59","holidayOpen":"00:00","holidayClose":"23:59","feeInfo":"기본 5분 150원 / 추가 5분당 150원","phone":"02-6925-0023","updatedAt":"2025-08-11","sido":"서울특별시","sigungu":"성북구","dong":"성북동"},{"name":"종암1동","type":"공영","category":"노외","address":"서울특별시 성북구 종암동 133-8","lat":37.5992474,"lng":127.0288379,"totalSpaces":21,"isFree":false,"operatingDays":"평일+토요일+공휴일","weekdayOpen":"09:00","weekdayClose":"22:00","weekendOpen":"09:00","weekendClose":"14:00","holidayOpen":"00:00","holidayClose":"00:00","feeInfo":"기본 5분 0원","phone":"","updatedAt":"2021-07-30","sido":"서울특별시","sigungu":"성북구","dong":"종암동"},{"name":"정릉시장","type":"공영","category":"노외","address":"서울특별시 성북구 정릉로23길 56","lat":37.60820115,"lng":127.0093728,"totalSpaces":18,"isFree":false,"operatingDays":"평일+토요일+공휴일","weekdayOpen":"00:00","weekdayClose":"23:59","weekendOpen":"00:00","weekendClose":"23:59","holidayOpen":"00:00","holidayClose":"23:59","feeInfo":"기본 5분 150원 / 추가 5분당 150원","phone":"02-6925-0023","updatedAt":"2025-08-11","sido":"서울특별시","sigungu":"성북구","dong":"정릉동"},{"name":"장위시장2","type":"공영","category":"노외","address":"서울특별시 성북구 장위로40길 62","lat":37.61110175,"lng":127.052485,"totalSpaces":6,"isFree":false,"operatingDays":"평일+토요일+공휴일","weekdayOpen":"00:00","weekdayClose":"23:59","weekendOpen":"00:00","weekendClose":"23:59","holidayOpen":"00:00","holidayClose":"23:59","feeInfo":"기본 5분 150원 / 추가 5분당 150원","phone":"02-6925-0023","updatedAt":"2025-08-11","sido":"서울특별시","sigungu":"성북구","dong":"장위동"}]}