{"sido":"충청북도","sigungu":"옥천군","totalCount":20,"validCount":20,"items":[{"name":"옥천공영주차타워","type":"공영","category":"노외","address":"충청북도 옥천군 옥천읍 금장로 14","lat":36.30169995,"lng":127.565821,"totalSpaces":138,"isFree":true,"operatingDays":"평일+토요일+공휴일","weekdayOpen":"00:00","weekdayClose":"23:59","weekendOpen":"00:00","weekendClose":"23:59","holidayOpen":"00:00","holidayClose":"23:59","feeInfo":"무료","phone":"043-730-3533","updatedAt":"2025-08-22","sido":"충청북도","sigungu":"옥천군","dong":"옥천읍"},{"name":"가화 공영주차타워","type":"공영","category":"노상","address":"충청북도 옥천군 옥천읍 금구리 230-21","lat":36.30518291,"lng":127.5619457,"totalSpaces":136,"isFree":true,"operatingDays":"평일+토요일+공휴일","weekdayOpen":"00:00","weekdayClose":"23:59","weekendOpen":"00:00","weekendClose":"23:59","holidayOpen":"00:00","holidayClose":"23:59","feeInfo":"무료","phone":"043-730-3533","updatedAt":"2025-08-22","sido":"충청북도","sigungu":"옥천군","dong":"옥천읍"},{"name":"금구천 하상주차장","type":"공영","category":"노외","address":"충청북도 옥천군 옥천읍 금구리 263-3","lat":36.2998623,"lng":127.5669454,"totalSpaces":136,"isFree":true,"operatingDays":"평일+토요일+공휴일","weekdayOpen":"00:00","weekdayClose":"23:59","weekendOpen":"00:00","weekendClose":"23:59","holidayOpen":"00:00","holidayClose":"23:59","feeInfo":"무료","phone":"043-730-3533","updatedAt":"2025-08-22","sido":"충청북도","sigungu":"옥천군","dong":"옥천읍"},{"name":"죽향 공영주차장","type":"공영","category":"노상","address":"충청북도 옥천군 옥천읍 죽향리 157-1번지","lat":36.315493,"lng":127.578707,"totalSpaces":114,"isFree":true,"operatingDays":"평일+토요일+공휴일","weekdayOpen":"00:00","weekdayClose":"23:59","weekendOpen":"00:00","weekendClose":"23:59","holidayOpen":"00:00","holidayClose":"23:59","feeInfo":"무료","phone":"043-730-3533","updatedAt":"2025-08-22","sido":"충청북도","sigungu":"옥천군","dong":"옥천읍"},{"name":"청산 공영주차장","type":"공영","category":"노외","address":"충청북도 옥천군 청산면 교평리 257-3","lat":36.3442363,"lng":127.7956816,"totalSpaces":57,"isFree":true,"operatingDays":"평일+토요일+공휴일","weekdayOpen":"00:00","weekdayClose":"23:59","weekendOpen":"00:00","weekendClose":"23:59","holidayOpen":"00:00","holidayClose":"23:59","feeInfo":"무료","phone":"043-730-3533","updatedAt":"2025-08-22","sido":"충청북도","sigungu":"옥천군","dong":"청산면"},{"name":"시외버스터미널 공영주차장","type":"공영","category":"노외","address":"충청북도 옥천군 옥천읍 삼양리 43-1","lat":36.307761,"lng":127.5633678,"totalSpaces":54,"isFree":true,"operatingDays":"평일+토요일+공휴일","weekdayOpen":"00:00","weekdayClose":"23:59","weekendOpen":"00:00","weekendClose":"23:59","holidayOpen":"00:00","holidayClose":"23:59","feeInfo":"무료","phone":"043-730-3533","updatedAt":"2025-08-22","sido":"충청북도","sigungu":"옥천군","dong":"옥천읍"},{"name":"선관위 일원 주차장","type":"공영","category":"노외","address":"충청북도 옥천군 옥천읍 금구리 108-4","lat":36.29691929,"lng":127.5669624,"totalSpaces":42,"isFree":true,"operatingDays":"평일+토요일+공휴일","weekdayOpen":"00:00","weekdayClose":"23:59","weekendOpen":"00:00","weekendClose":"23:59","holidayOpen":"00:00","holidayClose":"23:59","feeInfo":"무료","phone":"043-730-3533","updatedAt":"2025-08-22","sido":"충청북도","sigungu":"옥천군","dong":"옥천읍"},{"name":"문정리 주거지 주차장","type":"공영","category":"노상","address":"충청북도 옥천군 옥천읍 금장로 48","lat":36.30090705,"lng":127.5691887,"totalSpaces":36,"isFree":true,"operatingDays":"평일+토요일+공휴일","weekdayOpen":"00:00","weekdayClose":"23:59","weekendOpen":"00:00","weekendClose":"23:59","holidayOpen":"00:00","holidayClose":"23:59","feeInfo":"무료","phone":"043-730-3533","updatedAt":"2025-08-22","sido":"충청북도","sigungu":"옥천군","dong":"옥천읍"},{"name":"옥천농협~가화교","type":"공영","category":"노상","address":"충청북도 옥천군 옥천읍 금구리 166-5","lat":36.30058937,"lng":127.5665081,"totalSpaces":25,"isFree":true,"operatingDays":"평일+토요일+공휴일","weekdayOpen":"00:00","weekdayClose":"23:59","weekendOpen":"00:00","weekendClose":"23:59","holidayOpen":"00:00","holidayClose":"23:59","feeInfo":"무료","phone":"043-730-3533","updatedAt":"2025-08-22","sido":"충청북도","sigungu":"옥천군","dong":"옥천읍"},{"name":"옥천교회 앞 주차장","type":"공영","category":"노상","address":"충청북도 옥천군 옥천읍 금구리 188-4","lat":36.30094247,"lng":127.5657179,"totalSpaces":25,"isFree":true,"operatingDays":"평일+토요일+공휴일","weekdayOpen":"00:00","weekdayClose":"23:59","weekendOpen":"00:00","weekendClose":"23:59","holidayOpen":"00:00","holidayClose":"23:59","feeInfo":"무료","phone":"043-730-3533","updatedAt":"2025-08-22","sido":"충청북도","sigungu":"옥천군","dong":"옥천읍"},{"name":"(구)채소시장 주차장","type":"공영","category":"노외","address":"충청북도 옥천군 옥천읍 중앙로6길 6-6","lat":36.30197032,"lng":127.5690047,"totalSpaces":25,"isFree":true,"operatingDays":"평일+토요일+공휴일","weekdayOpen":"00:00","weekdayClose":"23:59","weekendOpen":"00:00","weekendClose":"23:59","holidayOpen":"00:00","holidayClose":"23:59","feeInfo":"무료","phone":"043-730-3533","updatedAt":"2025-08-22","sido":"충청북도","sigungu":"옥천군","dong":"옥천읍"},{"name":"충혼탑 옆 공영주차장","type":"공영","category":"노외","address":"충청북도 옥천군 옥천읍 금구리 104","lat":36.2963592,"lng":127.5720167,"totalSpaces":24,"isFree":true,"operatingDays":"평일+토요일+공휴일","weekdayOpen":"00:00","weekdayClose":"23:59","weekendOpen":"00:00","weekendClose":"23:59","holidayOpen":"00:00","holidayClose":"23:59","feeInfo":"무료","phone":"043-730-3533","updatedAt":"2025-08-22","sido":"충청북도","sigungu":"옥천군","dong":"옥천읍"},{"name":"새터 주차장","type":"공영","category":"노외","address":"충청북도 옥천군 옥천읍 중앙로2길 1-2","lat":36.30008357,"lng":127.5686086,"totalSpaces":23,"isFree":true,"operatingDays":"평일+토요일+공휴일","weekdayOpen":"00:00","weekdayClose":"23:59","weekendOpen":"00:00","weekendClose":"23:59","holidayOpen":"00:00","holidayClose":"23:59","feeInfo":"무료","phone":"043-730-3533","updatedAt":"2025-08-22","sido":"충청북도","sigungu":"옥천군","dong":"옥천읍"},{"name":"옥천여중 옆 공영주차장","type":"공영","category":"노외","address":"충청북도 옥천군 옥천읍 문정리 464-8","lat":36.303716,"lng":127.5710565,"totalSpaces":11,"isFree":true,"operatingDays":"평일+토요일+공휴일","weekdayOpen":"00:00","weekdayClose":"23:59","weekendOpen":"00:00","weekendClose":"23:59","holidayOpen":"00:00","holidayClose":"23:59","feeInfo":"무료","phone":"043-730-3533","updatedAt":"2025-08-22","sido":"충청북도","sigungu":"옥천군","dong":"옥천읍"},{"name":"구 옥천신협 옆 공영주차장","type":"공영","category":"노외","address":"충청북도 옥천군 옥천읍 금구리 23-73","lat":36.301235,"lng":127.570709,"totalSpaces":4,"isFree":true,"operatingDays":"평일+토요일+공휴일","weekdayOpen":"00:00","weekdayClose":"23:59","weekendOpen":"00:00","weekendClose":"23:59","holidayOpen":"00:00","holidayClose":"23:59","feeInfo":"무료","phone":"043-730-3533","updatedAt":"2025-08-22","sido":"충청북도","sigungu":"옥천군","dong":"옥천읍"},{"name":"금구 공영주차타워","type":"공영","category":"노상","address":"충청북도 옥천군 옥천읍 금구리 23-1","lat":36.30161811,"lng":127.570116,"totalSpaces":160,"isFree":false,"operatingDays":"평일+토요일+공휴일","weekdayOpen":"08:00","weekdayClose":"19:00","weekendOpen":"00:00","weekendClose":"23:59","holidayOpen":"00:00","holidayClose":"23:59","feeInfo":"기본 90분 500원 / 추가 30분당 500원","phone":"043-730-3533","updatedAt":"2025-08-22","sido":"충청북도","sigungu":"옥천군","dong":"옥천읍"},{"name":"옥천농협 공영주차장","type":"공영","category":"노상","address":"충청북도 옥천군 옥천읍 삼금로 21","lat":36.30125522,"lng":127.5669257,"totalSpaces":113,"isFree":false,"operatingDays":"평일+토요일+공휴일","weekdayOpen":"08:00","weekdayClose":"19:00","weekendOpen":"00:00","weekendClose":"23:59","holidayOpen":"00:00","holidayClose":"23:59","feeInfo":"기본 90분 500원 / 추가 30분당 500원","phone":"043-730-3533","updatedAt":"2025-08-22","sido":"충청북도","sigungu":"옥천군","dong":"옥천읍"},{"name":"옥천 공설시장 공영주차타워","type":"공영","category":"노외","address":"충청북도 옥천군 옥천읍 삼양로 7길 9-5","lat":36.3033773,"lng":127.5680306,"totalSpaces":102,"isFree":false,"operatingDays":"평일+토요일+공휴일","weekdayOpen":"08:00","weekdayClose":"19:00","weekendOpen":"00:00","weekendClose":"23:59","holidayOpen":"00:00","holidayClose":"23:59","feeInfo":"기본 90분 500원 / 추가 30분당 500원","phone":"043-730-3533","updatedAt":"2025-08-22","sido":"충청북도","sigungu":"옥천군","dong":"옥천읍"},{"name":"창의어울림센터 주차장","type":"공영","category":"노외","address":"충청북도 옥천군 옥천읍 금구리 23-4","lat":36.3010066,"lng":127.5703536,"totalSpaces":49,"isFree":false,"operatingDays":"평일+토요일+공휴일","weekdayOpen":"08:00","weekdayClose":"19:00","weekendOpen":"00:00","weekendClose":"23:59","holidayOpen":"00:00","holidayClose":"23:59","feeInfo":"기본 90분 500원 / 추가 30분당 500원","phone":"043-730-3533","updatedAt":"2025-08-22","sido":"충청북도","sigungu":"옥천군","dong":"옥천읍"},{"name":"보건소 앞 주차장","type":"공영","category":"노외","address":"충청북도 옥천군 옥천읍 삼양리 161-108","lat":36.30405057,"lng":127.5694229,"totalSpaces":43,"isFree":false,"operatingDays":"평일+토요일+공휴일","weekdayOpen":"08:00","weekdayClose":"19:00","weekendOpen":"00:00","weekendClose":"23:59","holidayOpen":"00:00","holidayClose":"23:59","feeInfo":"기본 90분 500원 / 추가 30분당 500원","phone":"043-730-3533","updatedAt":"2025-08-22","sido":"충청북도","sigungu":"옥천군","dong":"옥천읍"}]}