{"sido":"경상남도","sigungu":"사천시","totalCount":9,"validCount":9,"items":[{"name":"제일의원노상주차장","type":"공영","category":"노상","address":"경상남도 사천시 진삼로","lat":35.08430637,"lng":128.085497,"totalSpaces":44,"isFree":false,"operatingDays":"평일+토요일+공휴일","weekdayOpen":"08:00","weekdayClose":"20:00","weekendOpen":"08:00","weekendClose":"20:00","holidayOpen":"08:00","holidayClose":"20:00","feeInfo":"기본 30분 500원 / 추가 15분당 250원","phone":"055-831-2114","updatedAt":"2025-08-14","sido":"경상남도","sigungu":"사천시","dong":"사천읍"},{"name":"사천읍시장노상주차장","type":"공영","category":"노상","address":"경상남도 사천시 정의길","lat":35.08481588,"lng":128.0890157,"totalSpaces":37,"isFree":false,"operatingDays":"평일+토요일+공휴일","weekdayOpen":"08:00","weekdayClose":"20:00","weekendOpen":"08:00","weekendClose":"20:00","holidayOpen":"08:00","holidayClose":"20:00","feeInfo":"기본 30분 500원 / 추가 15분당 250원","phone":"055-831-2114","updatedAt":"2025-08-14","sido":"경상남도","sigungu":"사천시","dong":"사천읍"},{"name":"농협공판장노상주차장","type":"공영","category":"노상","address":"경상남도 사천시 중앙시장2길","lat":34.92920301,"lng":128.0769967,"totalSpaces":30,"isFree":false,"operatingDays":"평일+토요일+공휴일","weekdayOpen":"08:00","weekdayClose":"20:00","weekendOpen":"08:00","weekendClose":"20:00","holidayOpen":"08:00","holidayClose":"20:00","feeInfo":"기본 30분 500원 / 추가 15분당 250원","phone":"055-831-2114","updatedAt":"2025-08-14","sido":"경상남도","sigungu":"사천시","dong":"선구동"},{"name":"평화지구노상주차장","type":"공영","category":"노상","address":"경상남도 사천시 평화1길","lat":35.0819688,"lng":128.087941,"totalSpaces":25,"isFree":false,"operatingDays":"평일+토요일+공휴일","weekdayOpen":"08:00","weekdayClose":"20:00","weekendOpen":"08:00","weekendClose":"20:00","holidayOpen":"08:00","holidayClose":"20:00","feeInfo":"기본 30분 500원 / 추가 15분당 250원","phone":"055-831-2114","updatedAt":"2025-08-14","sido":"경상남도","sigungu":"사천시","dong":"사천읍"},{"name":"축협삼천포지소앞노상주차장","type":"공영","category":"노상","address":"경상남도 사천시 동금로","lat":34.93183789,"lng":128.076815,"totalSpaces":24,"isFree":false,"operatingDays":"평일+토요일+공휴일","weekdayOpen":"08:00","weekdayClose":"20:00","weekendOpen":"08:00","weekendClose":"20:00","holidayOpen":"08:00","holidayClose":"20:00","feeInfo":"기본 30분 500원 / 추가 15분당 250원","phone":"055-831-2114","updatedAt":"2025-08-14","sido":"경상남도","sigungu":"사천시","dong":"동금동"},{"name":"평화복개노상주차장","type":"공영","category":"노상","address":"경상남도 사천시 평화길 43","lat":35.08032871,"lng":128.090285,"totalSpaces":22,"isFree":false,"operatingDays":"평일+토요일+공휴일","weekdayOpen":"08:00","weekdayClose":"20:00","weekendOpen":"08:00","weekendClose":"20:00","holidayOpen":"08:00","holidayClose":"20:00","feeInfo":"기본 30분 500원 / 추가 15분당 250원","phone":"055-831-2114","updatedAt":"2025-08-14","sido":"경상남도","sigungu":"사천시","dong":"사천읍"},{"name":"동동복개천노상주차장","type":"공영","category":"노상","address":"경상남도 사천시 수남길 65","lat":34.928301,"lng":128.0705933,"totalSpaces":21,"isFree":false,"operatingDays":"평일+토요일+공휴일","weekdayOpen":"08:00","weekdayClose":"20:00","weekendOpen":"08:00","weekendClose":"20:00","holidayOpen":"08:00","holidayClose":"20:00","feeInfo":"기본 30분 500원 / 추가 15분당 250원","phone":"055-831-2114","updatedAt":"2025-08-14","sido":"경상남도","sigungu":"사천시","dong":"동동"},{"name":"햐얀피부과앞노상주차장","type":"공영","category":"노상","address":"경상남도 사천시 남일로 72-7","lat":34.93191429,"lng":128.0847863,"totalSpaces":18,"isFree":false,"operatingDays":"평일+토요일+공휴일","weekdayOpen":"08:00","weekdayClose":"20:00","weekendOpen":"08:00","weekendClose":"20:00","holidayOpen":"08:00","holidayClose":"20:00","feeInfo":"기본 30분 500원 / 추가 15분당 250원","phone":"055-831-2114","updatedAt":"2025-08-14","sido":"경상남도","sigungu":"사천시","dong":"동금동"},{"name":"삼천포농협앞노상주차장","type":"공영","category":"노상","address":"경상남도 사천시 중앙로","lat":34.92858357,"lng":128.0735763,"totalSpaces":14,"isFree":false,"operatingDays":"평일+토요일+공휴일","weekdayOpen":"08:00","weekdayClose":"20:00","weekendOpen":"08:00","weekendClose":"20:00","holidayOpen":"08:00","holidayClose":"20:00","feeInfo":"기본 30분 500원 / 추가 15분당 250원","phone":"055-831-2114","updatedAt":"2025-08-14","sido":"경상남도","sigungu":"사천시","dong":"선구동"}]}