{"sido":"경상남도","sigungu":"양산시","totalCount":103,"validCount":103,"items":[{"name":"양산역 공영주차장","type":"공영","category":"노외","address":"경상남도 양산시 중부동 721","lat":35.34105833,"lng":129.0281202,"totalSpaces":396,"isFree":true,"operatingDays":"평일+토요일+공휴일","weekdayOpen":"00:00","weekdayClose":"23:59","weekendOpen":"00:00","weekendClose":"23:59","holidayOpen":"00:00","holidayClose":"23:59","feeInfo":"무료","phone":"055-392-2883","updatedAt":"2025-11-17","sido":"경상남도","sigungu":"양산시","dong":"중부동"},{"name":"양산시노상웅상제1공영주차장","type":"공영","category":"노상","address":"경상남도 양산시 서창로 114","lat":35.410843,"lng":129.167343,"totalSpaces":169,"isFree":true,"operatingDays":"평일+토요일+공휴일","weekdayOpen":"00:00","weekdayClose":"23:59","weekendOpen":"00:00","weekendClose":"23:59","holidayOpen":"00:00","holidayClose":"23:59","feeInfo":"무료","phone":"055-392-6083","updatedAt":"2025-11-17","sido":"경상남도","sigungu":"양산시","dong":"삼호동"},{"name":"양산시노상웅상제10공영주차장","type":"공영","category":"노상","address":"경상남도 양산시 평산동 587-9","lat":35.3840632,"lng":129.1398976,"totalSpaces":136,"isFree":true,"operatingDays":"평일+토요일+공휴일","weekdayOpen":"00:00","weekdayClose":"23:59","weekendOpen":"00:00","weekendClose":"23:59","holidayOpen":"00:00","holidayClose":"23:59","feeInfo":"무료","phone":"055-392-6083","updatedAt":"2025-11-17","sido":"경상남도","sigungu":"양산시","dong":"평산동"},{"name":"양산시노상웅상제2공영주차장","type":"공영","category":"노상","address":"경상남도 양산시 덕계로 32","lat":35.371201,"lng":129.149043,"totalSpaces":130,"isFree":true,"operatingDays":"평일+토요일+공휴일","weekdayOpen":"00:00","weekdayClose":"23:59","weekendOpen":"00:00","weekendClose":"23:59","holidayOpen":"00:00","holidayClose":"23:59","feeInfo":"무료","phone":"055-392-6083","updatedAt":"2025-11-17","sido":"경상남도","sigungu":"양산시","dong":"덕계동"},{"name":"양산시노상웅상제7공영주차장","type":"공영","category":"노상","address":"경상남도 양산시 소주동 12-6","lat":35.41562488,"lng":129.1523717,"totalSpaces":120,"isFree":true,"operatingDays":"평일+토요일+공휴일","weekdayOpen":"00:00","weekdayClose":"23:59","weekendOpen":"00:00","weekendClose":"23:59","holidayOpen":"00:00","holidayClose":"23:59","feeInfo":"무료","phone":"055-392-6083","updatedAt":"2025-11-17","sido":"경상남도","sigungu":"양산시","dong":"소주동"},{"name":"양산시노상웅상제6공영주차장","type":"공영","category":"노상","address":"경상남도 양산시 소주동 12-3","lat":35.41774357,"lng":129.1528027,"totalSpaces":115,"isFree":true,"operatingDays":"평일+토요일+공휴일","weekdayOpen":"00:00","weekdayClose":"23:59","weekendOpen":"00:00","weekendClose":"23:59","holidayOpen":"00:00","holidayClose":"23:59","feeInfo":"무료","phone":"055-392-6083","updatedAt":"2025-11-17","sido":"경상남도","sigungu":"양산시","dong":"소주동"},{"name":"양산시노상제32공영주차장","type":"공영","category":"노상","address":"경상남도 양산시 산막동 358","lat":35.36896574,"lng":129.0592458,"totalSpaces":98,"isFree":true,"operatingDays":"평일+토요일+공휴일","weekdayOpen":"00:00","weekdayClose":"23:59","weekendOpen":"00:00","weekendClose":"23:59","holidayOpen":"00:00","holidayClose":"23:59","feeInfo":"무료","phone":"055-392-2883","updatedAt":"2025-11-17","sido":"경상남도","sigungu":"양산시","dong":"산막동"},{"name":"양산시노상웅상제3공영주차장","type":"공영","category":"노상","address":"경상남도 양산시 번영로 37","lat":35.37526979,"lng":129.149311,"totalSpaces":96,"isFree":true,"operatingDays":"평일+토요일+공휴일","weekdayOpen":"00:00","weekdayClose":"23:59","weekendOpen":"00:00","weekendClose":"23:59","holidayOpen":"00:00","holidayClose":"23:59","feeInfo":"무료","phone":"055-392-6083","updatedAt":"2025-11-17","sido":"경상남도","sigungu":"양산시","dong":"덕계동"},{"name":"부산대양산캠퍼스역 주차장","type":"공영","category":"노외","address":"경상남도 양산시 물금읍 범어리 2806","lat":35.3157773,"lng":129.0132134,"totalSpaces":93,"isFree":true,"operatingDays":"평일+토요일+공휴일","weekdayOpen":"00:00","weekdayClose":"23:59","weekendOpen":"00:00","weekendClose":"23:59","holidayOpen":"00:00","holidayClose":"23:59","feeInfo":"무료","phone":"055-392-2883","updatedAt":"2025-11-17","sido":"경상남도","sigungu":"양산시","dong":"물금읍"},{"name":"양산시노상웅상제8공영주차장","type":"공영","category":"노상","address":"경상남도 양산시 소주동 1112-28","lat":35.41904505,"lng":129.1436433,"totalSpaces":91,"isFree":true,"operatingDays":"평일+토요일+공휴일","weekdayOpen":"00:00","weekdayClose":"23:59","weekendOpen":"00:00","weekendClose":"23:59","holidayOpen":"00:00","holidayClose":"23:59","feeInfo":"무료","phone":"055-392-6083","updatedAt":"2025-11-17","sido":"경상남도","sigungu":"양산시","dong":"소주동"},{"name":"양산시노상웅상제4공영주차장","type":"공영","category":"노상","address":"경상남도 양산시 주남동 554-1","lat":35.42032256,"lng":129.1560769,"totalSpaces":86,"isFree":true,"operatingDays":"평일+토요일+공휴일","weekdayOpen":"00:00","weekdayClose":"23:59","weekendOpen":"00:00","weekendClose":"23:59","holidayOpen":"00:00","holidayClose":"23:59","feeInfo":"무료","phone":"055-392-6083","updatedAt":"2025-11-17","sido":"경상남도","sigungu":"양산시","dong":"주남동"},{"name":"양산시노상웅상제5공영주차장","type":"공영","category":"노상","address":"경상남도 양산시 주남동 554-2","lat":35.42086203,"lng":129.1512158,"totalSpaces":82,"isFree":true,"operatingDays":"평일+토요일+공휴일","weekdayOpen":"00:00","weekdayClose":"23:59","weekendOpen":"00:00","weekendClose":"23:59","holidayOpen":"00:00","holidayClose":"23:59","feeInfo":"무료","phone":"055-392-6083","updatedAt":"2025-11-17","sido":"경상남도","sigungu":"양산시","dong":"주남동"},{"name":"양산시립박물관주차장","type":"공영","category":"노외","address":"경상남도 양산시 북정로 78","lat":35.3584941,"lng":129.0490325,"totalSpaces":78,"isFree":true,"operatingDays":"평일+토요일+공휴일","weekdayOpen":"00:00","weekdayClose":"23:59","weekendOpen":"00:00","weekendClose":"23:59","holidayOpen":"00:00","holidayClose":"23:59","feeInfo":"무료","phone":"055-392-3315","updatedAt":"2025-11-17","sido":"경상남도","sigungu":"양산시","dong":"북정동"},{"name":"양산시노상제28공영주차장","type":"공영","category":"노상","address":"경상남도 양산시 물금읍 범어리 865","lat":35.33316854,"lng":129.0009362,"totalSpaces":78,"isFree":true,"operatingDays":"평일+토요일+공휴일","weekdayOpen":"00:00","weekdayClose":"23:59","weekendOpen":"00:00","weekendClose":"23:59","holidayOpen":"00:00","holidayClose":"23:59","feeInfo":"무료","phone":"055-392-2883","updatedAt":"2025-11-17","sido":"경상남도","sigungu":"양산시","dong":"물금읍"},{"name":"양산시노상제36공영주차장","type":"공영","category":"노상","address":"경상남도 양산시 상북면 석계리 153","lat":35.4142126,"lng":129.0590178,"totalSpaces":73,"isFree":true,"operatingDays":"평일+토요일+공휴일","weekdayOpen":"00:00","weekdayClose":"23:59","weekendOpen":"00:00","weekendClose":"23:59","holidayOpen":"00:00","holidayClose":"23:59","feeInfo":"무료","phone":"055-392-2883","updatedAt":"2025-11-17","sido":"경상남도","sigungu":"양산시","dong":"상북면"},{"name":"증산역 공영주차장","type":"공영","category":"노외","address":"경상남도 양산시 물금읍 증산리 1830","lat":35.30642288,"lng":129.0093864,"totalSpaces":72,"isFree":true,"operatingDays":"평일+토요일+공휴일","weekdayOpen":"00:00","weekdayClose":"23:59","weekendOpen":"00:00","weekendClose":"23:59","holidayOpen":"00:00","holidayClose":"23:59","feeInfo":"무료","phone":"055-392-2883","updatedAt":"2025-11-17","sido":"경상남도","sigungu":"양산시","dong":"물금읍"},{"name":"남양산역 주차장","type":"공영","category":"노외","address":"경상남도 양산시 물금읍 범어리 2822","lat":35.32300484,"lng":129.0191763,"totalSpaces":72,"isFree":true,"operatingDays":"평일+토요일+공휴일","weekdayOpen":"00:00","weekdayClose":"23:59","weekendOpen":"00:00","weekendClose":"23:59","holidayOpen":"00:00","holidayClose":"23:59","feeInfo":"무료","phone":"055-392-2883","updatedAt":"2025-11-17","sido":"경상남도","sigungu":"양산시","dong":"물금읍"},{"name":"양산시노상제29공영주차장","type":"공영","category":"노상","address":"경상남도 양산시 물금읍 범어리 890","lat":35.3268742,"lng":128.9966136,"totalSpaces":70,"isFree":true,"operatingDays":"평일+토요일+공휴일","weekdayOpen":"00:00","weekdayClose":"23:59","weekendOpen":"00:00","weekendClose":"23:59","holidayOpen":"00:00","holidayClose":"23:59","feeInfo":"무료","phone":"055-392-2883","updatedAt":"2025-11-17","sido":"경상남도","sigungu":"양산시","dong":"물금읍"},{"name":"하북정 공영주차장","type":"공영","category":"노외","address":"경상남도 양산시 북정동 671","lat":35.35862703,"lng":129.0481082,"totalSpaces":64,"isFree":true,"operatingDays":"평일+토요일+공휴일","weekdayOpen":"00:00","weekdayClose":"23:59","weekendOpen":"00:00","weekendClose":"23:59","holidayOpen":"00:00","holidayClose":"23:59","feeInfo":"무료","phone":"055-392-2883","updatedAt":"2025-11-17","sido":"경상남도","sigungu":"양산시","dong":"북정동"},{"name":"물금동중공영주차장","type":"공영","category":"노외","address":"경상남도 양산시 물금읍 동중5길 40","lat":35.33238277,"lng":129.0028636,"totalSpaces":58,"isFree":true,"operatingDays":"평일+토요일+공휴일","weekdayOpen":"00:00","weekdayClose":"23:59","weekendOpen":"00:00","weekendClose":"23:59","holidayOpen":"00:00","holidayClose":"23:59","feeInfo":"무료","phone":"055-392-2883","updatedAt":"2025-11-17","sido":"경상남도","sigungu":"양산시","dong":"물금읍"},{"name":"양산시노상제38공영주차장","type":"공영","category":"노상","address":"경상남도 양산시 물금읍 범어리 2808","lat":35.33586181,"lng":129.0211586,"totalSpaces":55,"isFree":true,"operatingDays":"평일+토요일+공휴일","weekdayOpen":"00:00","weekdayClose":"23:59","weekendOpen":"00:00","weekendClose":"23:59","holidayOpen":"00:00","holidayClose":"23:59","feeInfo":"무료","phone":"055-392-2883","updatedAt":"2025-11-17","sido":"경상남도","sigungu":"양산시","dong":"물금읍"},{"name":"양산시노상제30공영주차장","type":"공영","category":"노상","address":"경상남도 양산시 원동면 원리 1239","lat":35.36511553,"lng":128.9182294,"totalSpaces":54,"isFree":true,"operatingDays":"평일+토요일+공휴일","weekdayOpen":"00:00","weekdayClose":"23:59","weekendOpen":"00:00","weekendClose":"23:59","holidayOpen":"00:00","holidayClose":"23:59","feeInfo":"무료","phone":"055-392-2883","updatedAt":"2025-11-17","sido":"경상남도","sigungu":"양산시","dong":"원동면"},{"name":"상북소토 공영주차장","type":"공영","category":"노외","address":"경상남도 양산시 상북면 소토리 245-6","lat":35.3803646,"lng":129.0569719,"totalSpaces":48,"isFree":true,"operatingDays":"평일+토요일+공휴일","weekdayOpen":"00:00","weekdayClose":"23:59","weekendOpen":"00:00","weekendClose":"23:59","holidayOpen":"00:00","holidayClose":"23:59","feeInfo":"무료","phone":"055-392-2883","updatedAt":"2025-11-17","sido":"경상남도","sigungu":"양산시","dong":"상북면"},{"name":"동면사송 제2공영주차장","type":"공영","category":"노외","address":"경상남도 양산시 동면 내송리 873","lat":35.31978767,"lng":129.0650965,"totalSpaces":45,"isFree":true,"operatingDays":"평일+토요일+공휴일","weekdayOpen":"00:00","weekdayClose":"23:59","weekendOpen":"00:00","weekendClose":"23:59","holidayOpen":"00:00","holidayClose":"23:59","feeInfo":"무료","phone":"055-392-2883","updatedAt":"2025-11-17","sido":"경상남도","sigungu":"양산시","dong":"동면"},{"name":"양산시노상제26공영주차장","type":"공영","category":"노상","address":"경상남도 양산시 어곡동 157-3","lat":35.37283645,"lng":129.0267843,"totalSpaces":44,"isFree":true,"operatingDays":"평일+토요일+공휴일","weekdayOpen":"00:00","weekdayClose":"23:59","weekendOpen":"00:00","weekendClose":"23:59","holidayOpen":"00:00","holidayClose":"23:59","feeInfo":"무료","phone":"055-392-2883","updatedAt":"2025-11-17","sido":"경상남도","sigungu":"양산시","dong":"어곡동"},{"name":"동면사송 제1공영주차장","type":"공영","category":"노외","address":"경상남도 양산시 동면 내송리 892","lat":35.3193241,"lng":129.067697,"totalSpaces":41,"isFree":true,"operatingDays":"평일+토요일+공휴일","weekdayOpen":"00:00","weekdayClose":"23:59","weekendOpen":"00:00","weekendClose":"23:59","holidayOpen":"00:00","holidayClose":"23:59","feeInfo":"무료","phone":"055-392-2883","updatedAt":"2025-11-17","sido":"경상남도","sigungu":"양산시","dong":"동면"},{"name":"교동 제2공영주차장","type":"공영","category":"노외","address":"경상남도 양산시 교동 62","lat":35.354387,"lng":129.0303768,"totalSpaces":40,"isFree":true,"operatingDays":"평일+토요일+공휴일","weekdayOpen":"00:00","weekdayClose":"23:59","weekendOpen":"00:00","weekendClose":"23:59","holidayOpen":"00:00","holidayClose":"23:59","feeInfo":"무료","phone":"055-392-2883","updatedAt":"2025-11-17","sido":"경상남도","sigungu":"양산시","dong":"교동"},{"name":"양산시노상제21공영주차장","type":"공영","category":"노상","address":"경상남도 양산시 중부동 608","lat":35.3399405,"lng":129.0348579,"totalSpaces":40,"isFree":true,"operatingDays":"평일+토요일+공휴일","weekdayOpen":"00:00","weekdayClose":"23:59","weekendOpen":"00:00","weekendClose":"23:59","holidayOpen":"00:00","holidayClose":"23:59","feeInfo":"무료","phone":"055-392-2883","updatedAt":"2025-11-17","sido":"경상남도","sigungu":"양산시","dong":"중부동"},{"name":"양산시노상제31공영주차장","type":"공영","category":"노상","address":"경상남도 양산시 동면 석산리 1429","lat":35.32728628,"lng":129.0333479,"totalSpaces":37,"isFree":true,"operatingDays":"평일+토요일+공휴일","weekdayOpen":"00:00","weekdayClose":"23:59","weekendOpen":"00:00","weekendClose":"23:59","holidayOpen":"00:00","holidayClose":"23:59","feeInfo":"무료","phone":"055-392-2883","updatedAt":"2025-11-17","sido":"경상남도","sigungu":"양산시","dong":"동면"},{"name":"중부동 제1공영주차장","type":"공영","category":"노외","address":"경상남도 양산시 중부동 605-6","lat":35.339818,"lng":129.035406,"totalSpaces":36,"isFree":true,"operatingDays":"평일+토요일+공휴일","weekdayOpen":"00:00","weekdayClose":"23:59","weekendOpen":"00:00","weekendClose":"23:59","holidayOpen":"00:00","holidayClose":"23:59","feeInfo":"무료","phone":"055-392-2883","updatedAt":"2025-11-17","sido":"경상남도","sigungu":"양산시","dong":"중부동"},{"name":"사송제3공영주차장","type":"공영","category":"노상","address":"경상남도 양산시 사송리1125","lat":35.316003,"lng":129.067462,"totalSpaces":35,"isFree":true,"operatingDays":"평일+토요일+공휴일","weekdayOpen":"00:00","weekdayClose":"23:59","weekendOpen":"00:00","weekendClose":"23:59","holidayOpen":"00:00","holidayClose":"23:59","feeInfo":"무료","phone":"055-392-2882","updatedAt":"2025-11-17","sido":"경상남도","sigungu":"양산시","dong":""},{"name":"양산시노상제37공영주차장","type":"공영","category":"노상","address":"경상남도 양산시 상북면 석계리 300-23","lat":35.41398417,"lng":129.0616236,"totalSpaces":35,"isFree":true,"operatingDays":"평일+토요일+공휴일","weekdayOpen":"00:00","weekdayClose":"23:59","weekendOpen":"00:00","weekendClose":"23:59","holidayOpen":"00:00","holidayClose":"23:59","feeInfo":"무료","phone":"055-392-2883","updatedAt":"2025-11-17","sido":"경상남도","sigungu":"양산시","dong":"상북면"},{"name":"삼호동 제2공영주차장","type":"공영","category":"노외","address":"경상남도 양산시 삼호동 567-25","lat":35.41456428,"lng":129.1718978,"totalSpaces":34,"isFree":true,"operatingDays":"평일+토요일+공휴일","weekdayOpen":"00:00","weekdayClose":"23:59","weekendOpen":"00:00","weekendClose":"23:59","holidayOpen":"00:00","holidayClose":"23:59","feeInfo":"무료","phone":"055-392-6083","updatedAt":"2025-11-17","sido":"경상남도","sigungu":"양산시","dong":"삼호동"},{"name":"어곡동 제2공영주차장","type":"공영","category":"노외","address":"경상남도 양산시 어곡동 157-6","lat":35.37322405,"lng":129.0272848,"totalSpaces":32,"isFree":true,"operatingDays":"평일+토요일+공휴일","weekdayOpen":"00:00","weekdayClose":"23:59","weekendOpen":"00:00","weekendClose":"23:59","holidayOpen":"00:00","holidayClose":"23:59","feeInfo":"무료","phone":"055-392-2883","updatedAt":"2025-11-17","sido":"경상남도","sigungu":"양산시","dong":"어곡동"},{"name":"덕계동 공영주차장","type":"공영","category":"노외","address":"경상남도 양산시 덕계동 741","lat":35.37209211,"lng":129.149848,"totalSpaces":32,"isFree":true,"operatingDays":"평일+토요일+공휴일","weekdayOpen":"00:00","weekdayClose":"23:59","weekendOpen":"00:00","weekendClose":"23:59","holidayOpen":"00:00","holidayClose":"23:59","feeInfo":"무료","phone":"055-392-6083","updatedAt":"2025-11-17","sido":"경상남도","sigungu":"양산시","dong":"덕계동"},{"name":"양산시노상제17공영주차장","type":"공영","category":"노상","address":"경상남도 양산시 남부동 506","lat":35.33968248,"lng":129.0364198,"totalSpaces":32,"isFree":true,"operatingDays":"평일+토요일+공휴일","weekdayOpen":"00:00","weekdayClose":"23:59","weekendOpen":"00:00","weekendClose":"23:59","holidayOpen":"00:00","holidayClose":"23:59","feeInfo":"무료","phone":"055-392-2883","updatedAt":"2025-11-17","sido":"경상남도","sigungu":"양산시","dong":"남부동"},{"name":"양산시노상제11공영주차장","type":"공영","category":"노상","address":"경상남도 양산시 북부동 706","lat":35.34820133,"lng":129.0384773,"totalSpaces":30,"isFree":true,"operatingDays":"평일+토요일+공휴일","weekdayOpen":"00:00","weekdayClose":"23:59","weekendOpen":"00:00","weekendClose":"23:59","holidayOpen":"00:00","holidayClose":"23:59","feeInfo":"무료","phone":"055-392-2883","updatedAt":"2025-11-17","sido":"경상남도","sigungu":"양산시","dong":"북부동"},{"name":"양산시노상제3공영주차장","type":"공영","category":"노상","address":"경상남도 양산시 남부동 506","lat":35.33968248,"lng":129.0364198,"totalSpaces":29,"isFree":true,"operatingDays":"평일+토요일+공휴일","weekdayOpen":"00:00","weekdayClose":"23:59","weekendOpen":"00:00","weekendClose":"23:59","holidayOpen":"00:00","holidayClose":"23:59","feeInfo":"무료","phone":"055-392-2883","updatedAt":"2025-11-17","sido":"경상남도","sigungu":"양산시","dong":"남부동"},{"name":"양산시노상제10공영주차장","type":"공영","category":"노상","address":"경상남도 양산시 북부동 707","lat":35.34768871,"lng":129.0374442,"totalSpaces":29,"isFree":true,"operatingDays":"평일+토요일+공휴일","weekdayOpen":"00:00","weekdayClose":"23:59","weekendOpen":"00:00","weekendClose":"23:59","holidayOpen":"00:00","holidayClose":"23:59","feeInfo":"무료","phone":"055-392-2883","updatedAt":"2025-11-17","sido":"경상남도","sigungu":"양산시","dong":"북부동"},{"name":"양산시노상제16공영주차장","type":"공영","category":"노상","address":"경상남도 양산시 중부동 287-2","lat":35.34343439,"lng":129.0406517,"totalSpaces":29,"isFree":true,"operatingDays":"평일+토요일+공휴일","weekdayOpen":"00:00","weekdayClose":"23:59","weekendOpen":"00:00","weekendClose":"23:59","holidayOpen":"00:00","holidayClose":"23:59","feeInfo":"무료","phone":"055-392-2883","updatedAt":"2025-11-17","sido":"경상남도","sigungu":"양산시","dong":"중부동"},{"name":"양산시노상제1공영주차장","type":"공영","category":"노상","address":"경상남도 양산시 북부동 493-1","lat":35.34564246,"lng":129.0357951,"totalSpaces":27,"isFree":true,"operatingDays":"평일+토요일+공휴일","weekdayOpen":"00:00","weekdayClose":"23:59","weekendOpen":"00:00","weekendClose":"23:59","holidayOpen":"00:00","holidayClose":"23:59","feeInfo":"무료","phone":"055-392-2883","updatedAt":"2025-11-17","sido":"경상남도","sigungu":"양산시","dong":"북부동"},{"name":"신동중 공영주차장","type":"공영","category":"노상","address":"경상남도 양산시 물금읍 범어리 650-4","lat":35.3312314353,"lng":129.001409,"totalSpaces":26,"isFree":true,"operatingDays":"평일+토요일+공휴일","weekdayOpen":"00:00","weekdayClose":"23:59","weekendOpen":"00:00","weekendClose":"23:59","holidayOpen":"00:00","holidayClose":"23:59","feeInfo":"무료","phone":"055-392-2882","updatedAt":"2025-11-17","sido":"경상남도","sigungu":"양산시","dong":"물금읍"},{"name":"양산시노상제27공영주차장","type":"공영","category":"노상","address":"경상남도 양산시 어곡동 8-2","lat":35.381331,"lng":129.027681,"totalSpaces":26,"isFree":true,"operatingDays":"평일+토요일+공휴일","weekdayOpen":"00:00","weekdayClose":"23:59","weekendOpen":"00:00","weekendClose":"23:59","holidayOpen":"00:00","holidayClose":"23:59","feeInfo":"무료","phone":"055-392-2883","updatedAt":"2025-11-17","sido":"경상남도","sigungu":"양산시","dong":"어곡동"},{"name":"북정동 공영주차장","type":"공영","category":"노외","address":"경상남도 양산시 북정동 586","lat":35.3599614,"lng":129.0478092,"totalSpaces":25,"isFree":true,"operatingDays":"평일+토요일+공휴일","weekdayOpen":"00:00","weekdayClose":"23:59","weekendOpen":"00:00","weekendClose":"23:59","holidayOpen":"00:00","holidayClose":"23:59","feeInfo":"무료","phone":"055-392-2883","updatedAt":"2025-11-17","sido":"경상남도","sigungu":"양산시","dong":"북정동"},{"name":"교동 공영주차장","type":"공영","category":"노외","address":"경상남도 양산시 교동 252","lat":35.3437588,"lng":129.025279,"totalSpaces":25,"isFree":true,"operatingDays":"평일+토요일+공휴일","weekdayOpen":"00:00","weekdayClose":"23:59","weekendOpen":"00:00","weekendClose":"23:59","holidayOpen":"00:00","holidayClose":"23:59","feeInfo":"무료","phone":"055-392-2883","updatedAt":"2025-11-17","sido":"경상남도","sigungu":"양산시","dong":"교동"},{"name":"양산시노상제24공영주차장","type":"공영","category":"노상","address":"경상남도 양산시 북정동 476","lat":35.36049067,"lng":129.044077,"totalSpaces":25,"isFree":true,"operatingDays":"평일+토요일+공휴일","weekdayOpen":"00:00","weekdayClose":"23:59","weekendOpen":"00:00","weekendClose":"23:59","holidayOpen":"00:00","holidayClose":"23:59","feeInfo":"무료","phone":"055-392-2883","updatedAt":"2025-11-17","sido":"경상남도","sigungu":"양산시","dong":"북정동"},{"name":"양산시노상제20공영주차장","type":"공영","category":"노상","address":"경상남도 양산시 남부동 506","lat":35.33968248,"lng":129.0364198,"totalSpaces":24,"isFree":true,"operatingDays":"평일+토요일+공휴일","weekdayOpen":"00:00","weekdayClose":"23:59","weekendOpen":"00:00","weekendClose":"23:59","holidayOpen":"00:00","holidayClose":"23:59","feeInfo":"무료","phone":"055-392-2883","updatedAt":"2025-11-17","sido":"경상남도","sigungu":"양산시","dong":"남부동"},{"name":"중부동 제3공영주차장","type":"공영","category":"노외","address":"경상남도 양산시 중부동 600-7","lat":35.34135795,"lng":129.0355625,"totalSpaces":23,"isFree":true,"operatingDays":"평일+토요일+공휴일","weekdayOpen":"00:00","weekdayClose":"23:59","weekendOpen":"00:00","weekendClose":"23:59","holidayOpen":"00:00","holidayClose":"23:59","feeInfo":"무료","phone":"055-392-2883","updatedAt":"2025-11-17","sido":"경상남도","sigungu":"양산시","dong":"중부동"},{"name":"신동중1 공영주차장","type":"공영","category":"노외","address":"경상남도 양산시 물금읍 범어리 671-4","lat":35.332817,"lng":129.000937,"totalSpaces":22,"isFree":true,"operatingDays":"평일+토요일+공휴일","weekdayOpen":"00:00","weekdayClose":"23:59","weekendOpen":"00:00","weekendClose":"23:59","holidayOpen":"00:00","holidayClose":"23:59","feeInfo":"무료","phone":"055-392-2883","updatedAt":"2025-11-17","sido":"경상남도","sigungu":"양산시","dong":"물금읍"},{"name":"중부동 제2공영주차장","type":"공영","category":"노외","address":"경상남도 양산시 중부동 412-1","lat":35.34227083,"lng":129.0389576,"totalSpaces":22,"isFree":true,"operatingDays":"평일+토요일+공휴일","weekdayOpen":"00:00","weekdayClose":"23:59","weekendOpen":"00:00","weekendClose":"23:59","holidayOpen":"00:00","holidayClose":"23:59","feeInfo":"무료","phone":"055-392-2883","updatedAt":"2025-11-17","sido":"경상남도","sigungu":"양산시","dong":"중부동"},{"name":"어곡동 제1공영주차장","type":"공영","category":"노외","address":"경상남도 양산시 어곡동 138-8","lat":35.3747754,"lng":129.0301407,"totalSpaces":20,"isFree":true,"operatingDays":"평일+토요일+공휴일","weekdayOpen":"00:00","weekdayClose":"23:59","weekendOpen":"00:00","weekendClose":"23:59","holidayOpen":"00:00","holidayClose":"23:59","feeInfo":"무료","phone":"055-392-2883","updatedAt":"2025-11-17","sido":"경상남도","sigungu":"양산시","dong":"어곡동"},{"name":"양산시노상제15공영주차장","type":"공영","category":"노상","address":"경상남도 양산시 북부동 703","lat":35.34986783,"lng":129.0372636,"totalSpaces":20,"isFree":true,"operatingDays":"평일+토요일+공휴일","weekdayOpen":"00:00","weekdayClose":"23:59","weekendOpen":"00:00","weekendClose":"23:59","holidayOpen":"00:00","holidayClose":"23:59","feeInfo":"무료","phone":"055-392-2883","updatedAt":"2025-11-17","sido":"경상남도","sigungu":"양산시","dong":"북부동"},{"name":"양산시노상웅상제12공영주차장","type":"공영","category":"노상","address":"경상남도 양산시 평산동 197-9","lat":35.376551,"lng":129.149646,"totalSpaces":19,"isFree":true,"operatingDays":"평일+토요일+공휴일","weekdayOpen":"00:00","weekdayClose":"23:59","weekendOpen":"00:00","weekendClose":"23:59","holidayOpen":"00:00","holidayClose":"23:59","feeInfo":"무료","phone":"055-392-6083","updatedAt":"2025-11-17","sido":"경상남도","sigungu":"양산시","dong":"평산동"},{"name":"교동마을 제2공영주차장","type":"공영","category":"노상","address":"경상남도 양산시 교동 202","lat":35.345277,"lng":129.025878,"totalSpaces":19,"isFree":true,"operatingDays":"평일+토요일+공휴일","weekdayOpen":"00:00","weekdayClose":"23:59","weekendOpen":"00:00","weekendClose":"23:59","holidayOpen":"00:00","holidayClose":"23:59","feeInfo":"무료","phone":"055-392-2882","updatedAt":"2025-11-17","sido":"경상남도","sigungu":"양산시","dong":"교동"},{"name":"교동마을 공영주차장","type":"공영","category":"노외","address":"경상남도 양산시 교동 224","lat":35.3447502,"lng":129.0268615,"totalSpaces":19,"isFree":true,"operatingDays":"평일+토요일+공휴일","weekdayOpen":"00:00","weekdayClose":"23:59","weekendOpen":"00:00","weekendClose":"23:59","holidayOpen":"00:00","holidayClose":"23:59","feeInfo":"무료","phone":"055-392-2883","updatedAt":"2025-11-17","sido":"경상남도","sigungu":"양산시","dong":"교동"},{"name":"양산시노상제7공영주차장","type":"공영","category":"노상","address":"경상남도 양산시 북부동 493-4","lat":35.34659129,"lng":129.0369557,"totalSpaces":18,"isFree":true,"operatingDays":"평일+토요일+공휴일","weekdayOpen":"00:00","weekdayClose":"23:59","weekendOpen":"00:00","weekendClose":"23:59","holidayOpen":"00:00","holidayClose":"23:59","feeInfo":"무료","phone":"055-392-2883","updatedAt":"2025-11-17","sido":"경상남도","sigungu":"양산시","dong":"북부동"},{"name":"양산시노상제23공영주차장","type":"공영","category":"노상","address":"경상남도 양산시 북정동 476","lat":35.36049067,"lng":129.044077,"totalSpaces":17,"isFree":true,"operatingDays":"평일+토요일+공휴일","weekdayOpen":"00:00","weekdayClose":"23:59","weekendOpen":"00:00","weekendClose":"23:59","holidayOpen":"00:00","holidayClose":"23:59","feeInfo":"무료","phone":"055-392-2883","updatedAt":"2025-11-17","sido":"경상남도","sigungu":"양산시","dong":"북정동"},{"name":"양산시노상제5공영주차장","type":"공영","category":"노상","address":"경상남도 양산시 북부동 706","lat":35.34820133,"lng":129.0384773,"totalSpaces":17,"isFree":true,"operatingDays":"평일+토요일+공휴일","weekdayOpen":"00:00","weekdayClose":"23:59","weekendOpen":"00:00","weekendClose":"23:59","holidayOpen":"00:00","holidayClose":"23:59","feeInfo":"무료","phone":"055-392-2883","updatedAt":"2025-11-17","sido":"경상남도","sigungu":"양산시","dong":"북부동"},{"name":"양산시노상웅상제13공영주차장","type":"공영","category":"노상","address":"경상남도 양산시 평산동 산10-18","lat":35.3854765,"lng":129.1503119,"totalSpaces":16,"isFree":true,"operatingDays":"평일+토요일+공휴일","weekdayOpen":"00:00","weekdayClose":"23:59","weekendOpen":"00:00","weekendClose":"23:59","holidayOpen":"00:00","holidayClose":"23:59","feeInfo":"무료","phone":"055-392-6083","updatedAt":"2025-11-17","sido":"경상남도","sigungu":"양산시","dong":"평산동"},{"name":"양산시노상웅상제15공영주차장","type":"공영","category":"노상","address":"경상남도 양산시 덕계동 1034","lat":35.375394426,"lng":129.1491588765,"totalSpaces":16,"isFree":true,"operatingDays":"평일+토요일+공휴일","weekdayOpen":"00:00","weekdayClose":"23:59","weekendOpen":"00:00","weekendClose":"23:59","holidayOpen":"00:00","holidayClose":"23:59","feeInfo":"무료","phone":"055-392-6083","updatedAt":"2025-11-17","sido":"경상남도","sigungu":"양산시","dong":"덕계동"},{"name":"상북석계 제1공영주차장","type":"공영","category":"노외","address":"경상남도 양산시 상북면 석계리 239-8","lat":35.41457381,"lng":129.0583154,"totalSpaces":16,"isFree":true,"operatingDays":"평일+토요일+공휴일","weekdayOpen":"00:00","weekdayClose":"23:59","weekendOpen":"00:00","weekendClose":"23:59","holidayOpen":"00:00","holidayClose":"23:59","feeInfo":"무료","phone":"055-392-2883","updatedAt":"2025-11-17","sido":"경상남도","sigungu":"양산시","dong":"상북면"},{"name":"양산시노상웅상제14공영주차장","type":"공영","category":"노상","address":"경상남도 양산시 덕계동 1034","lat":35.37539443,"lng":129.1491675,"totalSpaces":15,"isFree":true,"operatingDays":"평일+토요일+공휴일","weekdayOpen":"00:00","weekdayClose":"23:59","weekendOpen":"00:00","weekendClose":"23:59","holidayOpen":"00:00","holidayClose":"23:59","feeInfo":"무료","phone":"055-392-6083","updatedAt":"2025-11-17","sido":"경상남도","sigungu":"양산시","dong":"덕계동"},{"name":"양산시노상제34공영주차장","type":"공영","category":"노상","address":"경상남도 양산시 교동 247","lat":35.3437298,"lng":129.0262285,"totalSpaces":15,"isFree":true,"operatingDays":"평일+토요일+공휴일","weekdayOpen":"00:00","weekdayClose":"23:59","weekendOpen":"00:00","weekendClose":"23:59","holidayOpen":"00:00","holidayClose":"23:59","feeInfo":"무료","phone":"055-392-2883","updatedAt":"2025-11-17","sido":"경상남도","sigungu":"양산시","dong":"교동"},{"name":"양산시노상제8공영주차장","type":"공영","category":"노상","address":"경상남도 양산시 북부동 706","lat":35.34820133,"lng":129.0384773,"totalSpaces":14,"isFree":true,"operatingDays":"평일+토요일+공휴일","weekdayOpen":"00:00","weekdayClose":"23:59","weekendOpen":"00:00","weekendClose":"23:59","holidayOpen":"00:00","holidayClose":"23:59","feeInfo":"무료","phone":"055-392-2883","updatedAt":"2025-11-17","sido":"경상남도","sigungu":"양산시","dong":"북부동"},{"name":"물금서부마을 공영주차장","type":"공영","category":"노외","address":"경상남도 양산시 물금읍 물금리 774-5","lat":35.30999304,"lng":128.9804328,"totalSpaces":13,"isFree":true,"operatingDays":"평일+토요일+공휴일","weekdayOpen":"00:00","weekdayClose":"23:59","weekendOpen":"00:00","weekendClose":"23:59","holidayOpen":"00:00","holidayClose":"23:59","feeInfo":"무료","phone":"055-392-2883","updatedAt":"2025-11-17","sido":"경상남도","sigungu":"양산시","dong":"물금읍"},{"name":"양산시노상제4공영주차장","type":"공영","category":"노상","address":"경상남도 양산시 중부동 433-3","lat":35.34320227,"lng":129.0347998,"totalSpaces":13,"isFree":true,"operatingDays":"평일+토요일+공휴일","weekdayOpen":"00:00","weekdayClose":"23:59","weekendOpen":"00:00","weekendClose":"23:59","holidayOpen":"00:00","holidayClose":"23:59","feeInfo":"무료","phone":"055-392-2883","updatedAt":"2025-11-17","sido":"경상남도","sigungu":"양산시","dong":"중부동"},{"name":"북부동 제4공영주차장","type":"공영","category":"노외","address":"경상남도 양산시 북부동 448-43","lat":35.344249,"lng":129.0374501,"totalSpaces":12,"isFree":true,"operatingDays":"평일+토요일+공휴일","weekdayOpen":"00:00","weekdayClose":"23:59","weekendOpen":"00:00","weekendClose":"23:59","holidayOpen":"00:00","holidayClose":"23:59","feeInfo":"무료","phone":"055-392-2883","updatedAt":"2025-11-17","sido":"경상남도","sigungu":"양산시","dong":"북부동"},{"name":"물금서남마을 공영주차장","type":"공영","category":"노외","address":"경상남도 양산시 물금읍 범어리 1017","lat":35.32798301,"lng":129.0004109,"totalSpaces":11,"isFree":true,"operatingDays":"평일+토요일+공휴일","weekdayOpen":"00:00","weekdayClose":"23:59","weekendOpen":"00:00","weekendClose":"23:59","holidayOpen":"00:00","holidayClose":"23:59","feeInfo":"무료","phone":"055-392-2883","updatedAt":"2025-11-17","sido":"경상남도","sigungu":"양산시","dong":"물금읍"},{"name":"양산시노상제2공영주차장","type":"공영","category":"노상","address":"경상남도 양산시 북부동 665-13","lat":35.34480513,"lng":129.0403712,"totalSpaces":11,"isFree":true,"operatingDays":"평일+토요일+공휴일","weekdayOpen":"00:00","weekdayClose":"23:59","weekendOpen":"00:00","weekendClose":"23:59","holidayOpen":"00:00","holidayClose":"23:59","feeInfo":"무료","phone":"055-392-2883","updatedAt":"2025-11-17","sido":"경상남도","sigungu":"양산시","dong":"북부동"},{"name":"양산시노상제6공영주차장","type":"공영","category":"노상","address":"경상남도 양산시 북부동 165-5","lat":35.346528,"lng":129.0396805,"totalSpaces":11,"isFree":true,"operatingDays":"평일+토요일+공휴일","weekdayOpen":"00:00","weekdayClose":"23:59","weekendOpen":"00:00","weekendClose":"23:59","holidayOpen":"00:00","holidayClose":"23:59","feeInfo":"무료","phone":"055-392-2883","updatedAt":"2025-11-17","sido":"경상남도","sigungu":"양산시","dong":"북부동"},{"name":"남부동 공영주차장","type":"공영","category":"노외","address":"경상남도 양산시 남부동 278","lat":35.3412234,"lng":129.0388335,"totalSpaces":10,"isFree":true,"operatingDays":"평일+토요일+공휴일","weekdayOpen":"00:00","weekdayClose":"23:59","weekendOpen":"00:00","weekendClose":"23:59","holidayOpen":"00:00","holidayClose":"23:59","feeInfo":"무료","phone":"055-392-2883","updatedAt":"2025-11-17","sido":"경상남도","sigungu":"양산시","dong":"남부동"},{"name":"양산시노상제25공영주차장","type":"공영","category":"노상","address":"경상남도 양산시 교동 157-12","lat":35.3461031,"lng":129.0292353,"totalSpaces":10,"isFree":true,"operatingDays":"평일+토요일+공휴일","weekdayOpen":"00:00","weekdayClose":"23:59","weekendOpen":"00:00","weekendClose":"23:59","holidayOpen":"00:00","holidayClose":"23:59","feeInfo":"무료","phone":"055-392-3182","updatedAt":"2025-11-17","sido":"경상남도","sigungu":"양산시","dong":"교동"},{"name":"양산시노상제39공영주차장","type":"공영","category":"노상","address":"경상남도 양산시 호계동 859","lat":35.36844865,"lng":129.0625125,"totalSpaces":10,"isFree":true,"operatingDays":"평일+토요일+공휴일","weekdayOpen":"00:00","weekdayClose":"23:59","weekendOpen":"00:00","weekendClose":"23:59","holidayOpen":"00:00","holidayClose":"23:59","feeInfo":"무료","phone":"055-392-2883","updatedAt":"2025-11-17","sido":"경상남도","sigungu":"양산시","dong":"호계동"},{"name":"양산시노상제9공영주차장","type":"공영","category":"노상","address":"경상남도 양산시 북부동 493-5","lat":35.34602211,"lng":129.0376645,"totalSpaces":10,"isFree":true,"operatingDays":"평일+토요일+공휴일","weekdayOpen":"00:00","weekdayClose":"23:59","weekendOpen":"00:00","weekendClose":"23:59","holidayOpen":"00:00","holidayClose":"23:59","feeInfo":"무료","phone":"055-392-2883","updatedAt":"2025-11-17","sido":"경상남도","sigungu":"양산시","dong":"북부동"},{"name":"양산시노상제14공영주차장","type":"공영","category":"노상","address":"경상남도 양산시 북부동 704","lat":35.34967666,"lng":129.0382049,"totalSpaces":10,"isFree":true,"operatingDays":"평일+토요일+공휴일","weekdayOpen":"00:00","weekdayClose":"23:59","weekendOpen":"00:00","weekendClose":"23:59","holidayOpen":"00:00","holidayClose":"23:59","feeInfo":"무료","phone":"055-392-2883","updatedAt":"2025-11-17","sido":"경상남도","sigungu":"양산시","dong":"북부동"},{"name":"양산시노상제18공영주차장","type":"공영","category":"노상","address":"경상남도 양산시 북부동 665-70","lat":35.34570323,"lng":129.0388041,"totalSpaces":10,"isFree":true,"operatingDays":"평일+토요일+공휴일","weekdayOpen":"00:00","weekdayClose":"23:59","weekendOpen":"00:00","weekendClose":"23:59","holidayOpen":"00:00","holidayClose":"23:59","feeInfo":"무료","phone":"055-392-2883","updatedAt":"2025-11-17","sido":"경상남도","sigungu":"양산시","dong":"북부동"},{"name":"상북석계 제2공영주차장","type":"공영","category":"노외","address":"경상남도 양산시 상북면 석계리 232","lat":35.41233762,"lng":129.0571997,"totalSpaces":9,"isFree":true,"operatingDays":"평일+토요일+공휴일","weekdayOpen":"00:00","weekdayClose":"23:59","weekendOpen":"00:00","weekendClose":"23:59","holidayOpen":"00:00","holidayClose":"23:59","feeInfo":"무료","phone":"055-392-2883","updatedAt":"2025-11-17","sido":"경상남도","sigungu":"양산시","dong":"상북면"},{"name":"양산시노상제19공영주차장","type":"공영","category":"노상","address":"경상남도 양산시 중부동 342-5","lat":35.34329627,"lng":129.0390113,"totalSpaces":9,"isFree":true,"operatingDays":"평일+토요일+공휴일","weekdayOpen":"00:00","weekdayClose":"23:59","weekendOpen":"00:00","weekendClose":"23:59","holidayOpen":"00:00","holidayClose":"23:59","feeInfo":"무료","phone":"055-392-2883","updatedAt":"2025-11-17","sido":"경상남도","sigungu":"양산시","dong":"중부동"},{"name":"양산시노상제22공영주차장","type":"공영","category":"노상","address":"경상남도 양산시 중부동 433-4","lat":35.34274031,"lng":129.0348137,"totalSpaces":8,"isFree":true,"operatingDays":"평일+토요일+공휴일","weekdayOpen":"00:00","weekdayClose":"23:59","weekendOpen":"00:00","weekendClose":"23:59","holidayOpen":"00:00","holidayClose":"23:59","feeInfo":"무료","phone":"055-392-2883","updatedAt":"2025-11-17","sido":"경상남도","sigungu":"양산시","dong":"중부동"},{"name":"양산시노상제35공영주차장","type":"공영","category":"노상","address":"경상남도 양산시 상북면 소토리 1287-26","lat":35.3881321,"lng":129.0496618,"totalSpaces":8,"isFree":true,"operatingDays":"평일+토요일+공휴일","weekdayOpen":"00:00","weekdayClose":"23:59","weekendOpen":"00:00","weekendClose":"23:59","holidayOpen":"00:00","holidayClose":"23:59","feeInfo":"무료","phone":"055-392-2883","updatedAt":"2025-11-17","sido":"경상남도","sigungu":"양산시","dong":"상북면"},{"name":"양산시노상제13공영주차장","type":"공영","category":"노상","address":"경상남도 양산시 북부동 704","lat":35.34967666,"lng":129.0382049,"totalSpaces":7,"isFree":true,"operatingDays":"평일+토요일+공휴일","weekdayOpen":"00:00","weekdayClose":"23:59","weekendOpen":"00:00","weekendClose":"23:59","holidayOpen":"00:00","holidayClose":"23:59","feeInfo":"무료","phone":"055-392-2883","updatedAt":"2025-11-17","sido":"경상남도","sigungu":"양산시","dong":"북부동"},{"name":"양산시노상웅상제9공영주차장","type":"공영","category":"노상","address":"경상남도 양산시 삼호동 597","lat":35.4159111,"lng":129.171257,"totalSpaces":6,"isFree":true,"operatingDays":"평일+토요일+공휴일","weekdayOpen":"00:00","weekdayClose":"23:59","weekendOpen":"00:00","weekendClose":"23:59","holidayOpen":"00:00","holidayClose":"23:59","feeInfo":"무료","phone":"055-392-6083","updatedAt":"2025-11-17","sido":"경상남도","sigungu":"양산시","dong":"삼호동"},{"name":"양산시노상제12공영주차장","type":"공영","category":"노상","address":"경상남도 양산시 북부동 704","lat":35.34967666,"lng":129.0382049,"totalSpaces":5,"isFree":true,"operatingDays":"평일+토요일+공휴일","weekdayOpen":"00:00","weekdayClose":"23:59","weekendOpen":"00:00","weekendClose":"23:59","holidayOpen":"00:00","holidayClose":"23:59","feeInfo":"무료","phone":"055-392-2883","updatedAt":"2025-11-17","sido":"경상남도","sigungu":"양산시","dong":"북부동"},{"name":"양산시노상웅상제11공영주차장","type":"공영","category":"노상","address":"경상남도 양산시 평산동 167-5","lat":35.3786173,"lng":129.1542986,"totalSpaces":4,"isFree":true,"operatingDays":"평일+토요일+공휴일","weekdayOpen":"00:00","weekdayClose":"23:59","weekendOpen":"00:00","weekendClose":"23:59","holidayOpen":"00:00","holidayClose":"23:59","feeInfo":"무료","phone":"055-392-6083","updatedAt":"2025-11-17","sido":"경상남도","sigungu":"양산시","dong":"평산동"},{"name":"양산시노상제33공영주차장","type":"공영","category":"노상","address":"경상남도 양산시 교동 292-7","lat":35.3464174,"lng":129.027488,"totalSpaces":4,"isFree":true,"operatingDays":"평일+토요일+공휴일","weekdayOpen":"00:00","weekdayClose":"23:59","weekendOpen":"00:00","weekendClose":"23:59","holidayOpen":"00:00","holidayClose":"23:59","feeInfo":"무료","phone":"055-392-2883","updatedAt":"2025-11-17","sido":"경상남도","sigungu":"양산시","dong":"교동"},{"name":"증산공영화물주차장","type":"공영","category":"노외","address":"경상남도 양산시 물금읍 증산리 1821","lat":35.3103647,"lng":129.0117551,"totalSpaces":141,"isFree":false,"operatingDays":"평일+토요일+공휴일","weekdayOpen":"09:00","weekdayClose":"18:00","weekendOpen":"09:00","weekendClose":"18:00","holidayOpen":"09:00","holidayClose":"18:00","feeInfo":"기본 0분 0원","phone":"055-379-8543","updatedAt":"2025-11-17","sido":"경상남도","sigungu":"양산시","dong":"물금읍"},{"name":"황산마을 공영주차장","type":"공영","category":"노외","address":"경상남도 양산시 물금읍 범어리 2679-1","lat":35.33053248,"lng":129.0102221,"totalSpaces":132,"isFree":false,"operatingDays":"평일+토요일+공휴일","weekdayOpen":"00:00","weekdayClose":"23:59","weekendOpen":"00:00","weekendClose":"23:59","holidayOpen":"00:00","holidayClose":"23:59","feeInfo":"기본 30분 600원 / 추가 10분당 200원","phone":"055-392-2883","updatedAt":"2025-11-17","sido":"경상남도","sigungu":"양산시","dong":"물금읍"},{"name":"석산공영화물주차장","type":"공영","category":"노외","address":"경상남도 양산시 동면 석산리 1426","lat":35.3276453,"lng":129.0296567,"totalSpaces":129,"isFree":false,"operatingDays":"평일+토요일+공휴일","weekdayOpen":"09:00","weekdayClose":"18:00","weekendOpen":"09:00","weekendClose":"18:00","holidayOpen":"09:00","holidayClose":"18:00","feeInfo":"기본 0분 0원","phone":"055-379-8543","updatedAt":"2025-11-17","sido":"경상남도","sigungu":"양산시","dong":"동면"},{"name":"덕계동 제1공영주차장","type":"공영","category":"노외","address":"경상남도 양산시 덕계동 989","lat":35.37501664,"lng":129.151049,"totalSpaces":120,"isFree":false,"operatingDays":"평일+토요일+공휴일","weekdayOpen":"09:00","weekdayClose":"18:00","weekendOpen":"09:00","weekendClose":"18:00","holidayOpen":"09:00","holidayClose":"18:00","feeInfo":"기본 30분 600원 / 추가 10분당 200원","phone":"055-392-6083","updatedAt":"2025-11-17","sido":"경상남도","sigungu":"양산시","dong":"덕계동"},{"name":"덕계종합상설시장 주차장","type":"공영","category":"노외","address":"경상남도 양산시 덕계동 754-1","lat":35.369792,"lng":129.147156,"totalSpaces":111,"isFree":false,"operatingDays":"평일+토요일+공휴일","weekdayOpen":"09:00","weekdayClose":"18:00","weekendOpen":"09:00","weekendClose":"18:00","holidayOpen":"09:00","holidayClose":"18:00","feeInfo":"기본 30분 600원 / 추가 10분당 200원","phone":"055-392-6083","updatedAt":"2025-11-17","sido":"경상남도","sigungu":"양산시","dong":"덕계동"},{"name":"남부시장 주차장","type":"공영","category":"노외","address":"경상남도 양산시 장터3길 7","lat":35.343339,"lng":129.037007,"totalSpaces":111,"isFree":false,"operatingDays":"평일+토요일+공휴일","weekdayOpen":"09:00","weekdayClose":"18:00","weekendOpen":"09:00","weekendClose":"18:00","holidayOpen":"09:00","holidayClose":"18:00","feeInfo":"기본 30분 600원 / 추가 10분당 200원","phone":"055-392-3732","updatedAt":"2025-11-17","sido":"경상남도","sigungu":"양산시","dong":"중부동"},{"name":"다방공영화물주차장","type":"공영","category":"노외","address":"경상남도 양산시 노포사송로 756","lat":35.32904847,"lng":129.0496284,"totalSpaces":106,"isFree":false,"operatingDays":"평일+토요일+공휴일","weekdayOpen":"09:00","weekdayClose":"18:00","weekendOpen":"09:00","weekendClose":"18:00","holidayOpen":"09:00","holidayClose":"18:00","feeInfo":"기본 0분 0원","phone":"055-379-8543","updatedAt":"2025-11-17","sido":"경상남도","sigungu":"양산시","dong":"다방동"},{"name":"평산동 제1공영주차장","type":"공영","category":"노외","address":"경상남도 양산시 평산동 136","lat":35.3795177,"lng":129.152446,"totalSpaces":104,"isFree":false,"operatingDays":"평일+토요일+공휴일","weekdayOpen":"09:00","weekdayClose":"18:00","weekendOpen":"09:00","weekendClose":"18:00","holidayOpen":"09:00","holidayClose":"18:00","feeInfo":"기본 30분 600원 / 추가 10분당 200원","phone":"055-392-6083","updatedAt":"2025-11-17","sido":"경상남도","sigungu":"양산시","dong":"평산동"},{"name":"북부동제1공영주차장","type":"공영","category":"노외","address":"경상남도 양산시 북부동 416-3","lat":35.34479257,"lng":129.0389277,"totalSpaces":87,"isFree":false,"operatingDays":"평일+토요일+공휴일","weekdayOpen":"09:00","weekdayClose":"18:00","weekendOpen":"09:00","weekendClose":"18:00","holidayOpen":"09:00","holidayClose":"18:00","feeInfo":"기본 30분 600원 / 추가 10분당 200원","phone":"055-379-8543","updatedAt":"2025-11-17","sido":"경상남도","sigungu":"양산시","dong":"북부동"},{"name":"삼호동 제1공영주차장","type":"공영","category":"노외","address":"경상남도 양산시 삼호동 471","lat":35.416869,"lng":129.174649,"totalSpaces":62,"isFree":false,"operatingDays":"평일+토요일+공휴일","weekdayOpen":"09:00","weekdayClose":"18:00","weekendOpen":"09:00","weekendClose":"18:00","holidayOpen":"09:00","holidayClose":"18:00","feeInfo":"기본 30분 600원 / 추가 10분당 200원","phone":"055-392-6083","updatedAt":"2025-11-17","sido":"경상남도","sigungu":"양산시","dong":"삼호동"},{"name":"북부동공영주차장","type":"공영","category":"노외","address":"경상남도 양산시 북부동 702-2","lat":35.34736367,"lng":129.0377926,"totalSpaces":62,"isFree":false,"operatingDays":"평일+토요일+공휴일","weekdayOpen":"09:00","weekdayClose":"18:00","weekendOpen":"09:00","weekendClose":"18:00","holidayOpen":"09:00","holidayClose":"18:00","feeInfo":"기본 30분 600원 / 추가 10분당 200원","phone":"055-379-8543","updatedAt":"2025-11-17","sido":"경상남도","sigungu":"양산시","dong":"북부동"},{"name":"삼호동공영주차장","type":"공영","category":"노외","address":"경상남도 양산시 삼호동 642-2","lat":35.416371,"lng":129.171054,"totalSpaces":50,"isFree":false,"operatingDays":"평일+토요일+공휴일","weekdayOpen":"09:00","weekdayClose":"18:00","weekendOpen":"09:00","weekendClose":"18:00","holidayOpen":"09:00","holidayClose":"18:00","feeInfo":"기본 30분 600원 / 추가 10분당 200원","phone":"055-392-6083","updatedAt":"2025-11-17","sido":"경상남도","sigungu":"양산시","dong":"삼호동"},{"name":"물금역 교통광장주차장","type":"공영","category":"노외","address":"경상남도 양산시 물금읍 물금리 361-2","lat":35.306688,"lng":128.986463,"totalSpaces":50,"isFree":false,"operatingDays":"평일+토요일+공휴일","weekdayOpen":"00:00","weekdayClose":"23:59","weekendOpen":"00:00","weekendClose":"23:59","holidayOpen":"00:00","holidayClose":"23:59","feeInfo":"기본 30분 600원 / 추가 10분당 200원","phone":"055-392-2883","updatedAt":"2025-11-17","sido":"경상남도","sigungu":"양산시","dong":"물금읍"},{"name":"북부시장 주차장","type":"공영","category":"노외","address":"경상남도 양산시 북부동 147-36","lat":35.349923,"lng":129.041733,"totalSpaces":42,"isFree":false,"operatingDays":"평일+토요일+공휴일","weekdayOpen":"09:00","weekdayClose":"18:00","weekendOpen":"09:00","weekendClose":"18:00","holidayOpen":"09:00","holidayClose":"18:00","feeInfo":"기본 30분 600원 / 추가 10분당 200원","phone":"055-392-3732","updatedAt":"2025-11-17","sido":"경상남도","sigungu":"양산시","dong":"북부동"},{"name":"북부동제2공영주차장","type":"공영","category":"노외","address":"경상남도 양산시 북부동 436","lat":35.34490299,"lng":129.0380397,"totalSpaces":35,"isFree":false,"operatingDays":"평일+토요일+공휴일","weekdayOpen":"09:00","weekdayClose":"18:00","weekendOpen":"09:00","weekendClose":"18:00","holidayOpen":"09:00","holidayClose":"18:00","feeInfo":"기본 30분 600원 / 추가 10분당 200원","phone":"055-379-8543","updatedAt":"2025-11-17","sido":"경상남도","sigungu":"양산시","dong":"북부동"},{"name":"북부동제3공영주차장","type":"공영","category":"노외","address":"경상남도 양산시 북부동 178-8","lat":35.34689651,"lng":129.0400165,"totalSpaces":32,"isFree":false,"operatingDays":"평일+토요일+공휴일","weekdayOpen":"09:00","weekdayClose":"18:00","weekendOpen":"09:00","weekendClose":"18:00","holidayOpen":"09:00","holidayClose":"18:00","feeInfo":"기본 30분 600원 / 추가 10분당 200원","phone":"055-379-8543","updatedAt":"2025-11-17","sido":"경상남도","sigungu":"양산시","dong":"북부동"},{"name":"남부시장B 시민주차장","type":"공영","category":"노외","address":"경상남도 양산시 장터4길 6","lat":35.34188929,"lng":129.0357183,"totalSpaces":23,"isFree":false,"operatingDays":"평일+토요일+공휴일","weekdayOpen":"09:00","weekdayClose":"18:00","weekendOpen":"09:00","weekendClose":"18:00","holidayOpen":"09:00","holidayClose":"18:00","feeInfo":"기본 30분 600원 / 추가 10분당 200원","phone":"055-392-3732","updatedAt":"2025-11-17","sido":"경상남도","sigungu":"양산시","dong":"중부동"},{"name":"남부시장A 시민주차장","type":"공영","category":"노외","address":"경상남도 양산시 서일동로 35","lat":35.34149787,"lng":129.0370502,"totalSpaces":21,"isFree":false,"operatingDays":"평일+토요일+공휴일","weekdayOpen":"09:00","weekdayClose":"18:00","weekendOpen":"09:00","weekendClose":"18:00","holidayOpen":"09:00","holidayClose":"18:00","feeInfo":"기본 30분 600원 / 추가 10분당 200원","phone":"055-392-3732","updatedAt":"2025-11-17","sido":"경상남도","sigungu":"양산시","dong":"중부동"}]}