{"sido":"경상남도","sigungu":"진주시","totalCount":60,"validCount":60,"items":[{"name":"중안지구 공영주차타워","type":"공영","category":"노외","address":"경상남도 진주시 중안동 14-1","lat":35.19346404,"lng":128.0804185,"totalSpaces":155,"isFree":false,"operatingDays":"평일+토요일+공휴일","weekdayOpen":"08:00","weekdayClose":"22:00","weekendOpen":"08:00","weekendClose":"22:00","holidayOpen":"08:00","holidayClose":"22:00","feeInfo":"기본 30분 500원 / 추가 10분당 200원","phone":"055-749-8725","updatedAt":"2025-12-11","sido":"경상남도","sigungu":"진주시","dong":"중안동"},{"name":"평거동 공영주차타워","type":"공영","category":"노외","address":"경상남도 진주시 평거동 202-1","lat":35.1722862,"lng":128.0619921,"totalSpaces":107,"isFree":false,"operatingDays":"평일+토요일+공휴일","weekdayOpen":"09:00","weekdayClose":"20:00","weekendOpen":"09:00","weekendClose":"20:00","holidayOpen":"09:00","holidayClose":"20:00","feeInfo":"기본 30분 500원 / 추가 10분당 200원","phone":"055-749-8725","updatedAt":"2025-12-11","sido":"경상남도","sigungu":"진주시","dong":"평거동"},{"name":"상대로2주차장","type":"공영","category":"노상","address":"경상남도 진주시 하대동 322-28","lat":35.19203228,"lng":128.1209676,"totalSpaces":97,"isFree":false,"operatingDays":"평일+토요일+공휴일","weekdayOpen":"09:00","weekdayClose":"20:00","weekendOpen":"09:00","weekendClose":"20:00","holidayOpen":"09:00","holidayClose":"20:00","feeInfo":"기본 30분 300원 / 추가 10분당 100원","phone":"055-749-8725","updatedAt":"2025-12-11","sido":"경상남도","sigungu":"진주시","dong":"하대동"},{"name":"신안3주차장","type":"공영","category":"노상","address":"경상남도 진주시 신안동 446-5","lat":35.183124,"lng":128.0688994,"totalSpaces":91,"isFree":false,"operatingDays":"평일+토요일+공휴일","weekdayOpen":"09:00","weekdayClose":"21:00","weekendOpen":"09:00","weekendClose":"21:00","holidayOpen":"09:00","holidayClose":"21:00","feeInfo":"기본 30분 500원 / 추가 10분당 200원","phone":"055-749-8725","updatedAt":"2025-12-11","sido":"경상남도","sigungu":"진주시","dong":"신안동"},{"name":"상대4주차장","type":"공영","category":"노상","address":"경상남도 진주시 상대동 331-1","lat":35.18608843,"lng":128.1195717,"totalSpaces":76,"isFree":false,"operatingDays":"평일+토요일+공휴일","weekdayOpen":"09:00","weekdayClose":"21:00","weekendOpen":"09:00","weekendClose":"21:00","holidayOpen":"09:00","holidayClose":"21:00","feeInfo":"기본 30분 300원 / 추가 10분당 100원","phone":"055-749-8725","updatedAt":"2025-12-11","sido":"경상남도","sigungu":"진주시","dong":"상대동"},{"name":"계동1주차장","type":"공영","category":"노상","address":"경상남도 진주시 계동 84","lat":35.196051,"lng":128.081906,"totalSpaces":58,"isFree":false,"operatingDays":"평일+토요일+공휴일","weekdayOpen":"08:00","weekdayClose":"22:00","weekendOpen":"08:00","weekendClose":"22:00","holidayOpen":"08:00","holidayClose":"22:00","feeInfo":"기본 30분 500원 / 추가 10분당 200원","phone":"055-749-8725","updatedAt":"2025-12-11","sido":"경상남도","sigungu":"진주시","dong":"계동"},{"name":"신안2주차장","type":"공영","category":"노상","address":"경상남도 진주시 신안동 63","lat":35.18213217,"lng":128.0711191,"totalSpaces":57,"isFree":false,"operatingDays":"평일+토요일+공휴일","weekdayOpen":"09:00","weekdayClose":"21:00","weekendOpen":"09:00","weekendClose":"21:00","holidayOpen":"09:00","holidayClose":"21:00","feeInfo":"기본 30분 500원 / 추가 10분당 200원","phone":"055-749-8725","updatedAt":"2025-12-11","sido":"경상남도","sigungu":"진주시","dong":"신안동"},{"name":"하대1주차장","type":"공영","category":"노상","address":"경상남도 진주시 하대동 310-2","lat":35.19001133,"lng":128.1232312,"totalSpaces":55,"isFree":false,"operatingDays":"평일+토요일+공휴일","weekdayOpen":"09:00","weekdayClose":"21:00","weekendOpen":"09:00","weekendClose":"21:00","holidayOpen":"09:00","holidayClose":"21:00","feeInfo":"기본 30분 300원 / 추가 10분당 100원","phone":"055-749-8725","updatedAt":"2025-12-11","sido":"경상남도","sigungu":"진주시","dong":"하대동"},{"name":"가호3주차장","type":"공영","category":"노상","address":"경상남도 진주시 가좌동 1449","lat":35.1581497,"lng":128.105212,"totalSpaces":54,"isFree":false,"operatingDays":"평일+토요일+공휴일","weekdayOpen":"09:00","weekdayClose":"21:00","weekendOpen":"09:00","weekendClose":"21:00","holidayOpen":"09:00","holidayClose":"21:00","feeInfo":"기본 30분 300원 / 추가 10분당 100원","phone":"055-749-8725","updatedAt":"2025-12-11","sido":"경상남도","sigungu":"진주시","dong":"가좌동"},{"name":"상대7주차장","type":"공영","category":"노상","address":"경상남도 진주시 상대동 245-34","lat":35.182306,"lng":128.113184,"totalSpaces":53,"isFree":false,"operatingDays":"평일+토요일+공휴일","weekdayOpen":"08:00","weekdayClose":"21:00","weekendOpen":"08:00","weekendClose":"21:00","holidayOpen":"08:00","holidayClose":"21:00","feeInfo":"기본 30분 500원 / 추가 10분당 200원","phone":"055-749-8725","updatedAt":"2025-12-11","sido":"경상남도","sigungu":"진주시","dong":"상대동"},{"name":"평거4주차장","type":"공영","category":"노외","address":"경상남도 진주시 평거동 197-1","lat":35.174419,"lng":128.062024,"totalSpaces":52,"isFree":false,"operatingDays":"평일+토요일+공휴일","weekdayOpen":"09:00","weekdayClose":"21:00","weekendOpen":"09:00","weekendClose":"21:00","holidayOpen":"09:00","holidayClose":"21:00","feeInfo":"기본 30분 300원 / 추가 10분당 100원","phone":"055-749-8725","updatedAt":"2025-12-11","sido":"경상남도","sigungu":"진주시","dong":"평거동"},{"name":"상평2주차장","type":"공영","category":"노상","address":"경상남도 진주시 상평동 219-25","lat":35.178299,"lng":128.108216,"totalSpaces":50,"isFree":false,"operatingDays":"평일+토요일+공휴일","weekdayOpen":"09:00","weekdayClose":"21:00","weekendOpen":"09:00","weekendClose":"21:00","holidayOpen":"09:00","holidayClose":"21:00","feeInfo":"기본 30분 500원 / 추가 10분당 200원","phone":"055-749-8725","updatedAt":"2025-12-11","sido":"경상남도","sigungu":"진주시","dong":"상평동"},{"name":"일호광장주차장","type":"공영","category":"노외","address":"경상남도 진주시 주약동 182-6","lat":35.1783327,"lng":128.090578,"totalSpaces":47,"isFree":false,"operatingDays":"평일+토요일+공휴일","weekdayOpen":"08:00","weekdayClose":"21:00","weekendOpen":"08:00","weekendClose":"21:00","holidayOpen":"08:00","holidayClose":"21:00","feeInfo":"기본 30분 500원 / 추가 10분당 200원","phone":"055-749-8725","updatedAt":"2025-12-11","sido":"경상남도","sigungu":"진주시","dong":"주약동"},{"name":"하대2주차장","type":"공영","category":"노상","address":"경상남도 진주시 하대동 310-2","lat":35.19001133,"lng":128.1232312,"totalSpaces":45,"isFree":false,"operatingDays":"평일+토요일+공휴일","weekdayOpen":"09:00","weekdayClose":"21:00","weekendOpen":"09:00","weekendClose":"21:00","holidayOpen":"09:00","holidayClose":"21:00","feeInfo":"기본 30분 300원 / 추가 10분당 100원","phone":"055-749-8725","updatedAt":"2025-12-11","sido":"경상남도","sigungu":"진주시","dong":"하대동"},{"name":"장대동 공영주차타워","type":"공영","category":"노외","address":"경상남도 진주시 장대동 94-29","lat":35.19205397,"lng":128.0889487,"totalSpaces":44,"isFree":false,"operatingDays":"평일+토요일+공휴일","weekdayOpen":"09:00","weekdayClose":"20:00","weekendOpen":"09:00","weekendClose":"20:00","holidayOpen":"09:00","holidayClose":"20:00","feeInfo":"기본 30분 500원 / 추가 10분당 200원","phone":"055-749-8725","updatedAt":"2025-12-11","sido":"경상남도","sigungu":"진주시","dong":"장대동"},{"name":"평거6주차장","type":"공영","category":"노외","address":"경상남도 진주시 평거동 795-19","lat":35.17022698,"lng":128.0646668,"totalSpaces":44,"isFree":false,"operatingDays":"평일+토요일+공휴일","weekdayOpen":"09:00","weekdayClose":"21:00","weekendOpen":"09:00","weekendClose":"21:00","holidayOpen":"09:00","holidayClose":"21:00","feeInfo":"기본 30분 300원 / 추가 10분당 100원","phone":"055-749-8725","updatedAt":"2025-12-11","sido":"경상남도","sigungu":"진주시","dong":"평거동"},{"name":"상평3(구교육청앞)주차장","type":"공영","category":"노상","address":"경상남도 진주시 상평동 218-1","lat":35.177647,"lng":128.110741,"totalSpaces":42,"isFree":false,"operatingDays":"평일+토요일+공휴일","weekdayOpen":"09:00","weekdayClose":"21:00","weekendOpen":"09:00","weekendClose":"21:00","holidayOpen":"09:00","holidayClose":"21:00","feeInfo":"기본 30분 500원 / 추가 10분당 200원","phone":"055-749-8725","updatedAt":"2025-12-11","sido":"경상남도","sigungu":"진주시","dong":"상평동"},{"name":"주약 1 주차장","type":"공영","category":"노상","address":"경상남도 진주시 주약동 141-12","lat":35.1739782,"lng":128.0900387,"totalSpaces":41,"isFree":false,"operatingDays":"평일+토요일+공휴일","weekdayOpen":"08:00","weekdayClose":"20:00","weekendOpen":"08:00","weekendClose":"20:00","holidayOpen":"08:00","holidayClose":"20:00","feeInfo":"기본 30분 300원 / 추가 10분당 100원","phone":"055-749-8725","updatedAt":"2025-12-11","sido":"경상남도","sigungu":"진주시","dong":"주약동"},{"name":"하대3주차장","type":"공영","category":"노상","address":"경상남도 진주시 하대동 346","lat":35.190211,"lng":128.122233,"totalSpaces":38,"isFree":false,"operatingDays":"평일+토요일+공휴일","weekdayOpen":"09:00","weekdayClose":"21:00","weekendOpen":"09:00","weekendClose":"21:00","holidayOpen":"09:00","holidayClose":"21:00","feeInfo":"기본 30분 500원 / 추가 10분당 200원","phone":"055-760-1922","updatedAt":"2025-12-11","sido":"경상남도","sigungu":"진주시","dong":"하대동"},{"name":"신안1주차장","type":"공영","category":"노상","address":"경상남도 진주시 신안동 45","lat":35.1870583,"lng":128.0705248,"totalSpaces":38,"isFree":false,"operatingDays":"평일+토요일+공휴일","weekdayOpen":"09:00","weekdayClose":"21:00","weekendOpen":"09:00","weekendClose":"21:00","holidayOpen":"09:00","holidayClose":"21:00","feeInfo":"기본 30분 500원 / 추가 10분당 200원","phone":"055-749-8725","updatedAt":"2025-12-11","sido":"경상남도","sigungu":"진주시","dong":"신안동"},{"name":"상대2주차장","type":"공영","category":"노상","address":"경상남도 진주시 상대동238-1","lat":35.184071,"lng":128.115548,"totalSpaces":31,"isFree":false,"operatingDays":"평일+토요일+공휴일","weekdayOpen":"09:00","weekdayClose":"21:00","weekendOpen":"09:00","weekendClose":"21:00","holidayOpen":"09:00","holidayClose":"21:00","feeInfo":"기본 30분 500원 / 추가 10분당 200원","phone":"055-749-8725","updatedAt":"2025-12-11","sido":"경상남도","sigungu":"진주시","dong":""},{"name":"상봉2주차장","type":"공영","category":"노상","address":"경상남도 진주시 상봉동 987-3","lat":35.199532,"lng":128.080515,"totalSpaces":29,"isFree":false,"operatingDays":"평일+토요일+공휴일","weekdayOpen":"09:00","weekdayClose":"21:00","weekendOpen":"09:00","weekendClose":"21:00","holidayOpen":"09:00","holidayClose":"21:00","feeInfo":"기본 30분 500원 / 추가 10분당 200원","phone":"055-749-8725","updatedAt":"2025-12-11","sido":"경상남도","sigungu":"진주시","dong":"상봉동"},{"name":"오죽광장주차장","type":"공영","category":"노상","address":"경상남도 진주시 인사동 179-10","lat":35.19322795,"lng":128.0695078,"totalSpaces":28,"isFree":false,"operatingDays":"평일+토요일+공휴일","weekdayOpen":"09:00","weekdayClose":"21:00","weekendOpen":"09:00","weekendClose":"21:00","holidayOpen":"09:00","holidayClose":"21:00","feeInfo":"기본 30분 300원 / 추가 10분당 100원","phone":"055-749-8725","updatedAt":"2025-12-11","sido":"경상남도","sigungu":"진주시","dong":"인사동"},{"name":"봉곡광장주차장","type":"공영","category":"노상","address":"경상남도 진주시 봉곡동 24-12","lat":35.19576433,"lng":128.0762091,"totalSpaces":28,"isFree":false,"operatingDays":"평일+토요일+공휴일","weekdayOpen":"09:00","weekdayClose":"21:00","weekendOpen":"09:00","weekendClose":"21:00","holidayOpen":"09:00","holidayClose":"21:00","feeInfo":"기본 30분 500원 / 추가 10분당 200원","phone":"055-749-8725","updatedAt":"2025-12-11","sido":"경상남도","sigungu":"진주시","dong":"봉곡동"},{"name":"평거3주차장","type":"공영","category":"노외","address":"경상남도 진주시 평거동 765","lat":35.173597,"lng":128.0657984,"totalSpaces":27,"isFree":false,"operatingDays":"평일+토요일+공휴일","weekdayOpen":"09:00","weekdayClose":"21:00","weekendOpen":"09:00","weekendClose":"21:00","holidayOpen":"09:00","holidayClose":"21:00","feeInfo":"기본 30분 300원 / 추가 10분당 100원","phone":"055-749-8725","updatedAt":"2025-12-11","sido":"경상남도","sigungu":"진주시","dong":"평거동"},{"name":"신안동주차장","type":"공영","category":"노외","address":"경상남도 진주시 신안동 442-11","lat":35.1832349,"lng":128.069423,"totalSpaces":27,"isFree":false,"operatingDays":"평일+토요일+공휴일","weekdayOpen":"09:00","weekdayClose":"21:00","weekendOpen":"09:00","weekendClose":"21:00","holidayOpen":"09:00","holidayClose":"21:00","feeInfo":"기본 30분 500원 / 추가 10분당 200원","phone":"055-749-8725","updatedAt":"2025-12-11","sido":"경상남도","sigungu":"진주시","dong":"신안동"},{"name":"신안4주차장","type":"공영","category":"노상","address":"경상남도 진주시 신안동 342","lat":35.18130961,"lng":128.0695584,"totalSpaces":26,"isFree":false,"operatingDays":"평일+토요일+공휴일","weekdayOpen":"09:00","weekdayClose":"21:00","weekendOpen":"09:00","weekendClose":"21:00","holidayOpen":"09:00","holidayClose":"21:00","feeInfo":"기본 30분 300원 / 추가 10분당 100원","phone":"055-749-8725","updatedAt":"2025-12-11","sido":"경상남도","sigungu":"진주시","dong":"신안동"},{"name":"상대로1주차장","type":"공영","category":"노상","address":"경상남도 진주시 하대동 71-12","lat":35.1847231,"lng":128.1204149,"totalSpaces":26,"isFree":false,"operatingDays":"평일+토요일+공휴일","weekdayOpen":"09:00","weekdayClose":"20:00","weekendOpen":"09:00","weekendClose":"20:00","holidayOpen":"09:00","holidayClose":"20:00","feeInfo":"기본 30분 300원 / 추가 10분당 100원","phone":"055-749-8725","updatedAt":"2025-12-11","sido":"경상남도","sigungu":"진주시","dong":"하대동"},{"name":"가호1주차장","type":"공영","category":"노상","address":"경상남도 진주시 가좌동 1432-8","lat":35.159973,"lng":128.106665,"totalSpaces":25,"isFree":false,"operatingDays":"평일+토요일+공휴일","weekdayOpen":"09:00","weekdayClose":"21:00","weekendOpen":"09:00","weekendClose":"21:00","holidayOpen":"09:00","holidayClose":"21:00","feeInfo":"기본 30분 300원 / 추가 10분당 100원","phone":"055-749-8725","updatedAt":"2025-12-11","sido":"경상남도","sigungu":"진주시","dong":"가좌동"},{"name":"상대3주차장","type":"공영","category":"노상","address":"경상남도 진주시 상대동 333","lat":35.18253401,"lng":128.1138012,"totalSpaces":25,"isFree":false,"operatingDays":"평일+토요일+공휴일","weekdayOpen":"09:00","weekdayClose":"21:00","weekendOpen":"09:00","weekendClose":"21:00","holidayOpen":"09:00","holidayClose":"21:00","feeInfo":"기본 30분 500원 / 추가 10분당 200원","phone":"055-749-8725","updatedAt":"2025-12-11","sido":"경상남도","sigungu":"진주시","dong":"상대동"},{"name":"하대4주차장","type":"공영","category":"노상","address":"경상남도 진주시 상대동 329-2","lat":35.18361786,"lng":128.1191841,"totalSpaces":24,"isFree":false,"operatingDays":"평일+토요일+공휴일","weekdayOpen":"09:00","weekdayClose":"21:00","weekendOpen":"09:00","weekendClose":"21:00","holidayOpen":"09:00","holidayClose":"21:00","feeInfo":"기본 30분 500원 / 추가 10분당 200원","phone":"055-760-1922","updatedAt":"2025-12-11","sido":"경상남도","sigungu":"진주시","dong":"상대동"},{"name":"수정1주차장","type":"공영","category":"노상","address":"경상남도 진주시 수정동 26-1","lat":35.196805,"lng":128.086706,"totalSpaces":20,"isFree":false,"operatingDays":"평일+토요일+공휴일","weekdayOpen":"08:00","weekdayClose":"22:00","weekendOpen":"08:00","weekendClose":"22:00","holidayOpen":"08:00","holidayClose":"22:00","feeInfo":"기본 30분 500원 / 추가 10분당 200원","phone":"055-749-8725","updatedAt":"2025-12-11","sido":"경상남도","sigungu":"진주시","dong":"수정동"},{"name":"성지1주차장","type":"공영","category":"노상","address":"경상남도 진주시 중안동 181-3","lat":35.194439,"lng":128.079192,"totalSpaces":19,"isFree":false,"operatingDays":"평일+토요일+공휴일","weekdayOpen":"09:00","weekdayClose":"21:00","weekendOpen":"09:00","weekendClose":"21:00","holidayOpen":"09:00","holidayClose":"21:00","feeInfo":"기본 30분 500원 / 추가 10분당 200원","phone":"055-749-8725","updatedAt":"2025-12-11","sido":"경상남도","sigungu":"진주시","dong":"중안동"},{"name":"본성2주차장","type":"공영","category":"노상","address":"경상남도 진주시 본성동 5","lat":35.192138,"lng":128.083253,"totalSpaces":19,"isFree":false,"operatingDays":"평일+토요일+공휴일","weekdayOpen":"08:00","weekdayClose":"22:00","weekendOpen":"08:00","weekendClose":"22:00","holidayOpen":"08:00","holidayClose":"22:00","feeInfo":"기본 30분 500원 / 추가 10분당 200원","phone":"055-749-8725","updatedAt":"2025-12-11","sido":"경상남도","sigungu":"진주시","dong":"본성동"},{"name":"상대6주차장","type":"공영","category":"노상","address":"경상남도 진주시 상대동 276-9","lat":35.180172,"lng":128.110349,"totalSpaces":19,"isFree":false,"operatingDays":"평일+토요일+공휴일","weekdayOpen":"08:00","weekdayClose":"21:00","weekendOpen":"08:00","weekendClose":"21:00","holidayOpen":"08:00","holidayClose":"21:00","feeInfo":"기본 30분 500원 / 추가 10분당 200원","phone":"055-749-8725","updatedAt":"2025-12-11","sido":"경상남도","sigungu":"진주시","dong":"상대동"},{"name":"옥봉1주차장","type":"공영","category":"노상","address":"경상남도 진주시 옥봉동 471-1","lat":35.19697451,"lng":128.0874961,"totalSpaces":18,"isFree":false,"operatingDays":"평일+토요일+공휴일","weekdayOpen":"08:00","weekdayClose":"22:00","weekendOpen":"08:00","weekendClose":"22:00","holidayOpen":"08:00","holidayClose":"22:00","feeInfo":"기본 30분 500원 / 추가 10분당 200원","phone":"055-749-8725","updatedAt":"2025-12-11","sido":"경상남도","sigungu":"진주시","dong":"옥봉동"},{"name":"상평1주차장","type":"공영","category":"노상","address":"경상남도 진주시 상대동 297-46","lat":35.178563,"lng":128.105296,"totalSpaces":17,"isFree":false,"operatingDays":"평일+토요일+공휴일","weekdayOpen":"09:00","weekdayClose":"21:00","weekendOpen":"09:00","weekendClose":"21:00","holidayOpen":"09:00","holidayClose":"21:00","feeInfo":"기본 30분 500원 / 추가 10분당 200원","phone":"055-749-8725","updatedAt":"2025-12-11","sido":"경상남도","sigungu":"진주시","dong":"상대동"},{"name":"평거1주차장","type":"공영","category":"노상","address":"경상남도 진주시 신안동 581-1","lat":35.180034,"lng":128.065602,"totalSpaces":17,"isFree":false,"operatingDays":"평일+토요일+공휴일","weekdayOpen":"09:00","weekdayClose":"21:00","weekendOpen":"09:00","weekendClose":"21:00","holidayOpen":"09:00","holidayClose":"21:00","feeInfo":"기본 30분 500원 / 추가 10분당 200원","phone":"055-749-8725","updatedAt":"2025-12-11","sido":"경상남도","sigungu":"진주시","dong":"신안동"},{"name":"평거2주차장","type":"공영","category":"노상","address":"경상남도 진주시 신안동 582-1","lat":35.178637,"lng":128.064552,"totalSpaces":17,"isFree":false,"operatingDays":"평일+토요일+공휴일","weekdayOpen":"09:00","weekdayClose":"21:00","weekendOpen":"09:00","weekendClose":"21:00","holidayOpen":"09:00","holidayClose":"21:00","feeInfo":"기본 30분 500원 / 추가 10분당 200원","phone":"055-749-8725","updatedAt":"2025-12-11","sido":"경상남도","sigungu":"진주시","dong":"신안동"},{"name":"이현웰가아파트 앞 주차장","type":"공영","category":"노외","address":"경상남도 진주시 이현동 1183","lat":35.194001,"lng":128.059766,"totalSpaces":16,"isFree":false,"operatingDays":"평일+토요일+공휴일","weekdayOpen":"09:00","weekdayClose":"19:00","weekendOpen":"09:00","weekendClose":"19:00","holidayOpen":"09:00","holidayClose":"19:00","feeInfo":"기본 30분 300원 / 추가 10분당 100원","phone":"055-749-8725","updatedAt":"2025-12-11","sido":"경상남도","sigungu":"진주시","dong":"이현동"},{"name":"수정2주차장","type":"공영","category":"노상","address":"경상남도 진주시 장대동 56-3","lat":35.195101,"lng":128.087891,"totalSpaces":15,"isFree":false,"operatingDays":"평일+토요일+공휴일","weekdayOpen":"08:00","weekdayClose":"22:00","weekendOpen":"08:00","weekendClose":"22:00","holidayOpen":"08:00","holidayClose":"22:00","feeInfo":"기본 30분 500원 / 추가 10분당 200원","phone":"055-749-8725","updatedAt":"2025-12-11","sido":"경상남도","sigungu":"진주시","dong":"장대동"},{"name":"본성5주차장","type":"공영","category":"노상","address":"경상남도 진주시 본성동 12-4","lat":35.191716,"lng":128.081155,"totalSpaces":14,"isFree":false,"operatingDays":"평일+토요일+공휴일","weekdayOpen":"08:00","weekdayClose":"22:00","weekendOpen":"08:00","weekendClose":"22:00","holidayOpen":"08:00","holidayClose":"22:00","feeInfo":"기본 30분 500원 / 추가 10분당 200원","phone":"055-749-8725","updatedAt":"2025-12-11","sido":"경상남도","sigungu":"진주시","dong":"본성동"},{"name":"중안2주차장","type":"공영","category":"노상","address":"경상남도 진주시 중안동 7-3","lat":35.193951,"lng":128.082574,"totalSpaces":13,"isFree":false,"operatingDays":"평일+토요일+공휴일","weekdayOpen":"08:00","weekdayClose":"22:00","weekendOpen":"08:00","weekendClose":"22:00","holidayOpen":"08:00","holidayClose":"22:00","feeInfo":"기본 30분 500원 / 추가 10분당 200원","phone":"055-749-8725","updatedAt":"2025-12-11","sido":"경상남도","sigungu":"진주시","dong":"중안동"},{"name":"충무공2주차장","type":"공영","category":"노상","address":"경상남도 진주시 충무공동 282-6","lat":35.1754626,"lng":128.1477345,"totalSpaces":13,"isFree":false,"operatingDays":"평일+토요일+공휴일","weekdayOpen":"10:00","weekdayClose":"21:00","weekendOpen":"10:00","weekendClose":"21:00","holidayOpen":"10:00","holidayClose":"21:00","feeInfo":"기본 30분 500원 / 추가 10분당 200원","phone":"055-749-8725","updatedAt":"2025-12-11","sido":"경상남도","sigungu":"진주시","dong":"충무공동"},{"name":"충무공3주차장","type":"공영","category":"노상","address":"경상남도 진주시 충무공동 282-5","lat":35.17539558,"lng":128.1483395,"totalSpaces":13,"isFree":false,"operatingDays":"평일+토요일+공휴일","weekdayOpen":"10:00","weekdayClose":"21:00","weekendOpen":"10:00","weekendClose":"21:00","holidayOpen":"10:00","holidayClose":"21:00","feeInfo":"기본 30분 500원 / 추가 10분당 200원","phone":"055-749-8725","updatedAt":"2025-12-11","sido":"경상남도","sigungu":"진주시","dong":"충무공동"},{"name":"충무공5주차장","type":"공영","category":"노상","address":"경상남도 진주시 충무공동 287-3","lat":35.17689207,"lng":128.1434258,"totalSpaces":13,"isFree":false,"operatingDays":"평일+토요일+공휴일","weekdayOpen":"09:00","weekdayClose":"21:00","weekendOpen":"09:00","weekendClose":"21:00","holidayOpen":"09:00","holidayClose":"21:00","feeInfo":"기본 30분 500원 / 추가 10분당 200원","phone":"055-749-8725","updatedAt":"2025-12-11","sido":"경상남도","sigungu":"진주시","dong":"충무공동"},{"name":"경찰서3주차장","type":"공영","category":"노상","address":"경상남도 진주시 중안동 10","lat":35.192941,"lng":128.081311,"totalSpaces":13,"isFree":false,"operatingDays":"평일+토요일+공휴일","weekdayOpen":"08:00","weekdayClose":"22:00","weekendOpen":"08:00","weekendClose":"22:00","holidayOpen":"08:00","holidayClose":"22:00","feeInfo":"기본 30분 500원 / 추가 10분당 200원","phone":"055-749-8725","updatedAt":"2025-12-11","sido":"경상남도","sigungu":"진주시","dong":"중안동"},{"name":"상대1주차장","type":"공영","category":"노상","address":"경상남도 진주시 상대동 299-6","lat":35.180937,"lng":128.111964,"totalSpaces":13,"isFree":false,"operatingDays":"평일+토요일+공휴일","weekdayOpen":"08:00","weekdayClose":"21:00","weekendOpen":"08:00","weekendClose":"21:00","holidayOpen":"08:00","holidayClose":"21:00","feeInfo":"기본 30분 500원 / 추가 10분당 200원","phone":"055-749-8725","updatedAt":"2025-12-11","sido":"경상남도","sigungu":"진주시","dong":"상대동"},{"name":"본성3주차장","type":"공영","category":"노상","address":"경상남도 진주시 본성동 19","lat":35.19129099,"lng":128.0818576,"totalSpaces":12,"isFree":false,"operatingDays":"평일+토요일+공휴일","weekdayOpen":"08:00","weekdayClose":"22:00","weekendOpen":"08:00","weekendClose":"22:00","holidayOpen":"08:00","holidayClose":"22:00","feeInfo":"기본 30분 500원 / 추가 10분당 200원","phone":"055-749-8725","updatedAt":"2025-12-11","sido":"경상남도","sigungu":"진주시","dong":"본성동"},{"name":"상대5주차장","type":"공영","category":"노상","address":"경상남도 진주시 상대동 299-4","lat":35.180108,"lng":128.111271,"totalSpaces":12,"isFree":false,"operatingDays":"평일+토요일+공휴일","weekdayOpen":"08:00","weekdayClose":"21:00","weekendOpen":"08:00","weekendClose":"21:00","holidayOpen":"08:00","holidayClose":"21:00","feeInfo":"기본 30분 500원 / 추가 10분당 200원","phone":"055-749-8725","updatedAt":"2025-12-11","sido":"경상남도","sigungu":"진주시","dong":"상대동"},{"name":"상봉1주차장","type":"공영","category":"노상","address":"경상남도 진주시 평안동 104","lat":35.19722527,"lng":128.0826229,"totalSpaces":11,"isFree":false,"operatingDays":"평일+토요일+공휴일","weekdayOpen":"09:00","weekdayClose":"21:00","weekendOpen":"09:00","weekendClose":"21:00","holidayOpen":"09:00","holidayClose":"21:00","feeInfo":"기본 30분 500원 / 추가 10분당 200원","phone":"055-749-8725","updatedAt":"2025-12-11","sido":"경상남도","sigungu":"진주시","dong":"평안동"},{"name":"중안3주차장","type":"공영","category":"노상","address":"경상남도 진주시 대안동 21","lat":35.19207246,"lng":128.0847401,"totalSpaces":11,"isFree":false,"operatingDays":"평일+토요일+공휴일","weekdayOpen":"08:00","weekdayClose":"22:00","weekendOpen":"08:00","weekendClose":"22:00","holidayOpen":"08:00","holidayClose":"22:00","feeInfo":"기본 30분 500원 / 추가 10분당 200원","phone":"055-749-8725","updatedAt":"2025-12-11","sido":"경상남도","sigungu":"진주시","dong":"대안동"},{"name":"하대5주차장","type":"공영","category":"노상","address":"경상남도 진주시 하대동 137-22","lat":35.1857233,"lng":128.122196,"totalSpaces":11,"isFree":false,"operatingDays":"평일+토요일+공휴일","weekdayOpen":"09:00","weekdayClose":"21:00","weekendOpen":"09:00","weekendClose":"21:00","holidayOpen":"09:00","holidayClose":"21:00","feeInfo":"기본 30분 500원 / 추가 10분당 200원","phone":"055-749-8725","updatedAt":"2025-12-11","sido":"경상남도","sigungu":"진주시","dong":"하대동"},{"name":"계동2주차장","type":"공영","category":"노상","address":"경상남도 진주시 중안동 4","lat":35.194692,"lng":128.0812226,"totalSpaces":11,"isFree":false,"operatingDays":"평일+토요일+공휴일","weekdayOpen":"08:00","weekdayClose":"22:00","weekendOpen":"08:00","weekendClose":"22:00","holidayOpen":"08:00","holidayClose":"22:00","feeInfo":"기본 30분 500원 / 추가 10분당 200원","phone":"055-749-8725","updatedAt":"2025-12-11","sido":"경상남도","sigungu":"진주시","dong":"중안동"},{"name":"충무공1주차장","type":"공영","category":"노상","address":"경상남도 진주시 충무공동 280","lat":35.17573195,"lng":128.1485146,"totalSpaces":10,"isFree":false,"operatingDays":"평일+토요일+공휴일","weekdayOpen":"10:00","weekdayClose":"21:00","weekendOpen":"10:00","weekendClose":"21:00","holidayOpen":"10:00","holidayClose":"21:00","feeInfo":"기본 30분 500원 / 추가 10분당 200원","phone":"055-749-8725","updatedAt":"2025-12-11","sido":"경상남도","sigungu":"진주시","dong":"충무공동"},{"name":"본성4주차장","type":"공영","category":"노상","address":"경상남도 진주시 본성동 19","lat":35.19126436,"lng":128.0818576,"totalSpaces":10,"isFree":false,"operatingDays":"평일+토요일+공휴일","weekdayOpen":"08:00","weekdayClose":"22:00","weekendOpen":"08:00","weekendClose":"22:00","holidayOpen":"08:00","holidayClose":"22:00","feeInfo":"기본 30분 500원 / 추가 10분당 200원","phone":"055-749-8725","updatedAt":"2025-12-11","sido":"경상남도","sigungu":"진주시","dong":"본성동"},{"name":"충무공4주차장","type":"공영","category":"노상","address":"경상남도 진주시 충무공동 282-2","lat":35.17614412,"lng":128.148101,"totalSpaces":9,"isFree":false,"operatingDays":"평일+토요일+공휴일","weekdayOpen":"10:00","weekdayClose":"21:00","weekendOpen":"10:00","weekendClose":"21:00","holidayOpen":"10:00","holidayClose":"21:00","feeInfo":"기본 30분 500원 / 추가 10분당 200원","phone":"055-749-8725","updatedAt":"2025-12-11","sido":"경상남도","sigungu":"진주시","dong":"충무공동"},{"name":"강남1주차장","type":"공영","category":"노상","address":"경상남도 진주시 강남동 219","lat":35.18092171,"lng":128.0893331,"totalSpaces":9,"isFree":false,"operatingDays":"평일+토요일+공휴일","weekdayOpen":"09:00","weekdayClose":"21:00","weekendOpen":"09:00","weekendClose":"21:00","holidayOpen":"09:00","holidayClose":"21:00","feeInfo":"기본 30분 500원 / 추가 10분당 200원","phone":"055-749-8725","updatedAt":"2025-12-11","sido":"경상남도","sigungu":"진주시","dong":"강남동"},{"name":"경찰서1주차장","type":"공영","category":"노상","address":"경상남도 진주시 중안동 10","lat":35.192941,"lng":128.081311,"totalSpaces":8,"isFree":false,"operatingDays":"평일+토요일+공휴일","weekdayOpen":"08:00","weekdayClose":"22:00","weekendOpen":"08:00","weekendClose":"22:00","holidayOpen":"08:00","holidayClose":"22:00","feeInfo":"기본 30분 500원 / 추가 10분당 200원","phone":"055-749-8725","updatedAt":"2025-12-11","sido":"경상남도","sigungu":"진주시","dong":"중안동"},{"name":"경찰서2주차장","type":"공영","category":"노상","address":"경상남도 진주시 중안동 10","lat":35.192941,"lng":128.081311,"totalSpaces":8,"isFree":false,"operatingDays":"평일+토요일+공휴일","weekdayOpen":"08:00","weekdayClose":"22:00","weekendOpen":"08:00","weekendClose":"22:00","holidayOpen":"08:00","holidayClose":"22:00","feeInfo":"기본 30분 500원 / 추가 10분당 200원","phone":"055-749-8725","updatedAt":"2025-12-11","sido":"경상남도","sigungu":"진주시","dong":"중안동"}]}