{"sido":"경상남도","sigungu":"창녕군","totalCount":107,"validCount":107,"items":[{"name":"온천장 주차장","type":"공영","category":"노외","address":"경상남도 창녕군 부곡면 거문리 140-4","lat":35.43750899,"lng":128.5940456,"totalSpaces":1360,"isFree":true,"operatingDays":"평일+토요일+공휴일","weekdayOpen":"00:00","weekdayClose":"23:59","weekendOpen":"00:00","weekendClose":"23:59","holidayOpen":"00:00","holidayClose":"23:59","feeInfo":"무료","phone":"055-530-1723","updatedAt":"2025-11-22","sido":"경상남도","sigungu":"창녕군","dong":"부곡면"},{"name":"공설운동장 주차장","type":"공영","category":"노외","address":"경상남도 창녕군 창녕읍 창녕대로 307","lat":35.51981162,"lng":128.5064926,"totalSpaces":400,"isFree":true,"operatingDays":"평일+토요일+공휴일","weekdayOpen":"00:00","weekdayClose":"23:59","weekendOpen":"00:00","weekendClose":"23:59","holidayOpen":"00:00","holidayClose":"23:59","feeInfo":"무료","phone":"055-530-1723","updatedAt":"2025-11-22","sido":"경상남도","sigungu":"창녕군","dong":"창녕읍"},{"name":"자하곡 제2주차장","type":"공영","category":"노외","address":"경상남도 창녕군 창녕읍 자하곡길 10","lat":35.5404086,"lng":128.5074735,"totalSpaces":304,"isFree":true,"operatingDays":"평일+토요일+공휴일","weekdayOpen":"00:00","weekdayClose":"23:59","weekendOpen":"00:00","weekendClose":"23:59","holidayOpen":"00:00","holidayClose":"23:59","feeInfo":"무료","phone":"055-530-1723","updatedAt":"2025-11-22","sido":"경상남도","sigungu":"창녕군","dong":"창녕읍"},{"name":"옥천주차장(확장)","type":"공영","category":"노외","address":"경상남도 창녕군 창녕읍 옥천리 516","lat":35.51810563,"lng":128.5511616,"totalSpaces":300,"isFree":true,"operatingDays":"평일+토요일+공휴일","weekdayOpen":"00:00","weekdayClose":"23:59","weekendOpen":"00:00","weekendClose":"23:59","holidayOpen":"00:00","holidayClose":"23:59","feeInfo":"무료","phone":"055-530-1723","updatedAt":"2025-11-22","sido":"경상남도","sigungu":"창녕군","dong":"창녕읍"},{"name":"화왕산로 노상주차장","type":"공영","category":"노상","address":"경상남도 창녕군 창녕읍 송현리 113-1","lat":35.54179499,"lng":128.506589,"totalSpaces":182,"isFree":true,"operatingDays":"평일+토요일+공휴일","weekdayOpen":"00:00","weekdayClose":"23:59","weekendOpen":"00:00","weekendClose":"23:59","holidayOpen":"00:00","holidayClose":"23:59","feeInfo":"무료","phone":"055-530-1723","updatedAt":"2025-11-22","sido":"경상남도","sigungu":"창녕군","dong":"창녕읍"},{"name":"창녕 명덕 공영주차장","type":"공영","category":"노외","address":"경상남도 창녕군 창녕읍 교리 318","lat":35.54416135,"lng":128.4968897,"totalSpaces":122,"isFree":true,"operatingDays":"평일+토요일+공휴일","weekdayOpen":"00:00","weekdayClose":"23:59","weekendOpen":"00:00","weekendClose":"23:59","holidayOpen":"00:00","holidayClose":"23:59","feeInfo":"무료","phone":"055-530-1723","updatedAt":"2025-11-22","sido":"경상남도","sigungu":"창녕군","dong":"창녕읍"},{"name":"남지 대신동 공영주차장","type":"공영","category":"노외","address":"경상남도 창녕군 남지읍 남지리 817-9","lat":35.385865,"lng":128.4693733,"totalSpaces":120,"isFree":true,"operatingDays":"평일+토요일+공휴일","weekdayOpen":"00:00","weekdayClose":"23:59","weekendOpen":"00:00","weekendClose":"23:59","holidayOpen":"00:00","holidayClose":"23:59","feeInfo":"무료","phone":"055-530-1723","updatedAt":"2025-11-22","sido":"경상남도","sigungu":"창녕군","dong":"남지읍"},{"name":"체육공원 주차장","type":"공영","category":"노외","address":"경상남도 창녕군 대합면 십이리 319-5","lat":35.61254264,"lng":128.4699949,"totalSpaces":102,"isFree":true,"operatingDays":"평일+토요일+공휴일","weekdayOpen":"00:00","weekdayClose":"23:59","weekendOpen":"00:00","weekendClose":"23:59","holidayOpen":"00:00","holidayClose":"23:59","feeInfo":"무료","phone":"055-530-1723","updatedAt":"2025-11-22","sido":"경상남도","sigungu":"창녕군","dong":"대합면"},{"name":"조산공영 주차장","type":"공영","category":"노외","address":"경상남도 창녕군 창녕읍 조산리 100","lat":35.53769321,"lng":128.4850391,"totalSpaces":100,"isFree":true,"operatingDays":"평일+토요일+공휴일","weekdayOpen":"00:00","weekdayClose":"23:59","weekendOpen":"00:00","weekendClose":"23:59","holidayOpen":"00:00","holidayClose":"23:59","feeInfo":"무료","phone":"055-530-1723","updatedAt":"2025-11-22","sido":"경상남도","sigungu":"창녕군","dong":"창녕읍"},{"name":"창녕 술정리 공영주차장","type":"공영","category":"노외","address":"경상남도 창녕군 창녕읍 술정리 312","lat":35.54054323,"lng":128.4910335,"totalSpaces":94,"isFree":true,"operatingDays":"평일+토요일+공휴일","weekdayOpen":"00:00","weekdayClose":"23:59","weekendOpen":"00:00","weekendClose":"23:59","holidayOpen":"00:00","holidayClose":"23:59","feeInfo":"무료","phone":"055-530-1723","updatedAt":"2025-11-22","sido":"경상남도","sigungu":"창녕군","dong":"창녕읍"},{"name":"대경아파트아파트 앞 노상주차장","type":"공영","category":"노상","address":"경상남도 창녕군 남지읍 본동길 15-2","lat":35.38918233,"lng":128.4834996,"totalSpaces":90,"isFree":true,"operatingDays":"평일+토요일+공휴일","weekdayOpen":"00:00","weekdayClose":"23:59","weekendOpen":"00:00","weekendClose":"23:59","holidayOpen":"00:00","holidayClose":"23:59","feeInfo":"무료","phone":"055-530-1723","updatedAt":"2025-11-22","sido":"경상남도","sigungu":"창녕군","dong":"남지읍"},{"name":"남지문화길 노상주차장","type":"공영","category":"노상","address":"경상남도 창녕군 남지읍 남지리 758-558","lat":35.38690629,"lng":128.4771376,"totalSpaces":82,"isFree":true,"operatingDays":"평일+토요일+공휴일","weekdayOpen":"00:00","weekdayClose":"23:59","weekendOpen":"00:00","weekendClose":"23:59","holidayOpen":"00:00","holidayClose":"23:59","feeInfo":"무료","phone":"055-530-1723","updatedAt":"2025-11-22","sido":"경상남도","sigungu":"창녕군","dong":"남지읍"},{"name":"창녕시장 주차장","type":"공영","category":"노외","address":"경상남도 창녕군 창녕읍 창녕시장길 66","lat":35.54007277,"lng":128.4973587,"totalSpaces":80,"isFree":true,"operatingDays":"평일+토요일+공휴일","weekdayOpen":"00:00","weekdayClose":"23:59","weekendOpen":"00:00","weekendClose":"23:59","holidayOpen":"00:00","holidayClose":"23:59","feeInfo":"무료","phone":"055-530-1723","updatedAt":"2025-11-22","sido":"경상남도","sigungu":"창녕군","dong":"창녕읍"},{"name":"자하곡주차장","type":"공영","category":"노외","address":"경상남도 창녕군 창녕읍 자하곡길 75","lat":35.54185091,"lng":128.5149056,"totalSpaces":77,"isFree":true,"operatingDays":"평일+토요일+공휴일","weekdayOpen":"00:00","weekdayClose":"23:59","weekendOpen":"00:00","weekendClose":"23:59","holidayOpen":"00:00","holidayClose":"23:59","feeInfo":"무료","phone":"055-530-1723","updatedAt":"2025-11-22","sido":"경상남도","sigungu":"창녕군","dong":"창녕읍"},{"name":"남지시외버스터미널 공영주차장","type":"공영","category":"노외","address":"경상남도 창녕군 남지읍 남지리 167-4","lat":35.39184016,"lng":128.4836023,"totalSpaces":74,"isFree":true,"operatingDays":"평일+토요일+공휴일","weekdayOpen":"00:00","weekdayClose":"23:59","weekendOpen":"00:00","weekendClose":"23:59","holidayOpen":"00:00","holidayClose":"23:59","feeInfo":"무료","phone":"055-530-1723","updatedAt":"2025-11-22","sido":"경상남도","sigungu":"창녕군","dong":"남지읍"},{"name":"창녕 시외버스터미널 주차장","type":"공영","category":"노외","address":"경상남도 창녕군 창녕읍 술정리 410-85","lat":35.54166988,"lng":128.4915096,"totalSpaces":73,"isFree":true,"operatingDays":"평일+토요일+공휴일","weekdayOpen":"00:00","weekdayClose":"23:59","weekendOpen":"00:00","weekendClose":"23:59","holidayOpen":"00:00","holidayClose":"23:59","feeInfo":"무료","phone":"055-530-1723","updatedAt":"2025-11-22","sido":"경상남도","sigungu":"창녕군","dong":"창녕읍"},{"name":"남지 마산 공영주차장","type":"공영","category":"노외","address":"경상남도 창녕군 남지읍 마산리 957-3","lat":35.38700965,"lng":128.4656625,"totalSpaces":71,"isFree":true,"operatingDays":"평일+토요일+공휴일","weekdayOpen":"00:00","weekdayClose":"23:59","weekendOpen":"00:00","weekendClose":"23:59","holidayOpen":"00:00","holidayClose":"23:59","feeInfo":"무료","phone":"055-530-1723","updatedAt":"2025-11-22","sido":"경상남도","sigungu":"창녕군","dong":"남지읍"},{"name":"구 공설운동장 주차장","type":"공영","category":"노외","address":"경상남도 창녕군 창녕읍 조산1길 15-38","lat":35.54020353,"lng":128.4875159,"totalSpaces":70,"isFree":true,"operatingDays":"평일+토요일+공휴일","weekdayOpen":"00:00","weekdayClose":"23:59","weekendOpen":"00:00","weekendClose":"23:59","holidayOpen":"00:00","holidayClose":"23:59","feeInfo":"무료","phone":"055-530-1723","updatedAt":"2025-11-22","sido":"경상남도","sigungu":"창녕군","dong":"창녕읍"},{"name":"창녕시장 쌀전주차장","type":"공영","category":"노외","address":"경상남도 창녕군 창녕읍 창녕대동길 9","lat":35.54213907,"lng":128.4973643,"totalSpaces":62,"isFree":true,"operatingDays":"평일+토요일+공휴일","weekdayOpen":"00:00","weekdayClose":"23:59","weekendOpen":"00:00","weekendClose":"23:59","holidayOpen":"00:00","holidayClose":"23:59","feeInfo":"무료","phone":"055-530-1723","updatedAt":"2025-11-22","sido":"경상남도","sigungu":"창녕군","dong":"창녕읍"},{"name":"영산 서리 공영주차장","type":"공영","category":"노외","address":"경상남도 창녕군 영산면 서리 131-5","lat":35.45612937,"lng":128.528859,"totalSpaces":56,"isFree":true,"operatingDays":"평일+토요일+공휴일","weekdayOpen":"00:00","weekdayClose":"23:59","weekendOpen":"00:00","weekendClose":"23:59","holidayOpen":"00:00","holidayClose":"23:59","feeInfo":"무료","phone":"055-530-1723","updatedAt":"2025-11-22","sido":"경상남도","sigungu":"창녕군","dong":"영산면"},{"name":"교상주차장","type":"공영","category":"노외","address":"경상남도 창녕군 창녕읍 교상길 25-1","lat":35.53982848,"lng":128.5013858,"totalSpaces":53,"isFree":true,"operatingDays":"평일+토요일+공휴일","weekdayOpen":"00:00","weekdayClose":"23:59","weekendOpen":"00:00","weekendClose":"23:59","holidayOpen":"00:00","holidayClose":"23:59","feeInfo":"무료","phone":"055-530-1723","updatedAt":"2025-11-22","sido":"경상남도","sigungu":"창녕군","dong":"창녕읍"},{"name":"남지 시가지 공영주차장","type":"공영","category":"노외","address":"경상남도 창녕군 남지읍 남지리 605-12","lat":35.38935178,"lng":128.4805005,"totalSpaces":52,"isFree":true,"operatingDays":"평일+토요일+공휴일","weekdayOpen":"00:00","weekdayClose":"23:59","weekendOpen":"00:00","weekendClose":"23:59","holidayOpen":"00:00","holidayClose":"23:59","feeInfo":"무료","phone":"055-530-1723","updatedAt":"2025-11-22","sido":"경상남도","sigungu":"창녕군","dong":"남지읍"},{"name":"도천면 소재지 마을주차장(삭제)","type":"공영","category":"노외","address":"경상남도 창녕군 도천면 일리 664","lat":35.43603491,"lng":128.5149515,"totalSpaces":50,"isFree":true,"operatingDays":"평일+토요일+공휴일","weekdayOpen":"00:00","weekdayClose":"23:59","weekendOpen":"00:00","weekendClose":"23:59","holidayOpen":"00:00","holidayClose":"23:59","feeInfo":"무료","phone":"055-530-1723","updatedAt":"2025-11-22","sido":"경상남도","sigungu":"창녕군","dong":"도천면"},{"name":"내동마을 공동주차장","type":"공영","category":"노외","address":"경상남도 창녕군 이방면 안리 854-1","lat":35.57682327,"lng":128.3875293,"totalSpaces":50,"isFree":true,"operatingDays":"평일+토요일+공휴일","weekdayOpen":"00:00","weekdayClose":"23:59","weekendOpen":"00:00","weekendClose":"23:59","holidayOpen":"00:00","holidayClose":"23:59","feeInfo":"무료","phone":"055-530-1723","updatedAt":"2025-11-22","sido":"경상남도","sigungu":"창녕군","dong":"이방면"},{"name":"영산시장 주차장","type":"공영","category":"노외","address":"경상남도 창녕군 영산면 신영산로 56","lat":35.45704192,"lng":128.5325981,"totalSpaces":50,"isFree":true,"operatingDays":"평일+토요일+공휴일","weekdayOpen":"00:00","weekdayClose":"23:59","weekendOpen":"00:00","weekendClose":"23:59","holidayOpen":"00:00","holidayClose":"23:59","feeInfo":"무료","phone":"055-530-1723","updatedAt":"2025-11-22","sido":"경상남도","sigungu":"창녕군","dong":"영산면"},{"name":"교하새길 주차장","type":"공영","category":"노외","address":"경상남도 창녕군 창녕읍 교하리 205-1","lat":35.5392142,"lng":128.4987513,"totalSpaces":50,"isFree":true,"operatingDays":"평일+토요일+공휴일","weekdayOpen":"00:00","weekdayClose":"23:59","weekendOpen":"00:00","weekendClose":"23:59","holidayOpen":"00:00","holidayClose":"23:59","feeInfo":"무료","phone":"055-530-1723","updatedAt":"2025-11-22","sido":"경상남도","sigungu":"창녕군","dong":"창녕읍"},{"name":"옥천주차장","type":"공영","category":"노외","address":"경상남도 창녕군 창녕읍 계성화왕산로 638","lat":35.51884919,"lng":128.5510913,"totalSpaces":50,"isFree":true,"operatingDays":"평일+토요일+공휴일","weekdayOpen":"00:00","weekdayClose":"23:59","weekendOpen":"00:00","weekendClose":"23:59","holidayOpen":"00:00","holidayClose":"23:59","feeInfo":"무료","phone":"055-530-1723","updatedAt":"2025-11-22","sido":"경상남도","sigungu":"창녕군","dong":"창녕읍"},{"name":"박물관 주차장","type":"공영","category":"노외","address":"경상남도 창녕군 창녕읍 갈전2길 15","lat":35.55154117,"lng":128.4841398,"totalSpaces":50,"isFree":true,"operatingDays":"평일+토요일+공휴일","weekdayOpen":"00:00","weekdayClose":"23:59","weekendOpen":"00:00","weekendClose":"23:59","holidayOpen":"00:00","holidayClose":"23:59","feeInfo":"무료","phone":"055-530-1723","updatedAt":"2025-11-22","sido":"경상남도","sigungu":"창녕군","dong":"창녕읍"},{"name":"창녕 직교 공영주차장","type":"공영","category":"노외","address":"경상남도 창녕군 창녕읍 직교리 658","lat":35.43755605,"lng":128.5890928,"totalSpaces":49,"isFree":true,"operatingDays":"평일+토요일+공휴일","weekdayOpen":"00:00","weekdayClose":"23:59","weekendOpen":"00:00","weekendClose":"23:59","holidayOpen":"00:00","holidayClose":"23:59","feeInfo":"무료","phone":"055-530-1723","updatedAt":"2025-11-22","sido":"경상남도","sigungu":"창녕군","dong":"창녕읍"},{"name":"창녕 말흘2 공영주차장","type":"공영","category":"노외","address":"경상남도 창녕군 창녕읍 말흘리 290","lat":35.53541913,"lng":128.5043669,"totalSpaces":48,"isFree":true,"operatingDays":"평일+토요일+공휴일","weekdayOpen":"00:00","weekdayClose":"23:59","weekendOpen":"00:00","weekendClose":"23:59","holidayOpen":"00:00","holidayClose":"23:59","feeInfo":"무료","phone":"055-530-1723","updatedAt":"2025-11-22","sido":"경상남도","sigungu":"창녕군","dong":"창녕읍"},{"name":"대합 공설시장 주차장","type":"공영","category":"노외","address":"경상남도 창녕군 대합면 도장골길 4-13","lat":35.6132741,"lng":128.4721567,"totalSpaces":47,"isFree":true,"operatingDays":"평일+토요일+공휴일","weekdayOpen":"00:00","weekdayClose":"23:59","weekendOpen":"00:00","weekendClose":"23:59","holidayOpen":"00:00","holidayClose":"23:59","feeInfo":"무료","phone":"055-530-1723","updatedAt":"2025-11-22","sido":"경상남도","sigungu":"창녕군","dong":"대합면"},{"name":"동삼층석탑 주차장","type":"공영","category":"노외","address":"경상남도 창녕군 창녕읍 술정리 98","lat":35.53962738,"lng":128.4950513,"totalSpaces":47,"isFree":true,"operatingDays":"평일+토요일+공휴일","weekdayOpen":"00:00","weekdayClose":"23:59","weekendOpen":"00:00","weekendClose":"23:59","holidayOpen":"00:00","holidayClose":"23:59","feeInfo":"무료","phone":"055-530-1723","updatedAt":"2025-11-22","sido":"경상남도","sigungu":"창녕군","dong":"창녕읍"},{"name":"고향의 강 공영주차장","type":"공영","category":"노외","address":"경상남도 창녕군 창녕읍 교하리 201-2","lat":35.53958514,"lng":128.498342,"totalSpaces":45,"isFree":true,"operatingDays":"평일+토요일+공휴일","weekdayOpen":"00:00","weekdayClose":"23:59","weekendOpen":"00:00","weekendClose":"23:59","holidayOpen":"00:00","holidayClose":"23:59","feeInfo":"무료","phone":"055-530-1723","updatedAt":"2025-11-22","sido":"경상남도","sigungu":"창녕군","dong":"창녕읍"},{"name":"창녕 교리2 공영주차장","type":"공영","category":"노외","address":"경상남도 창녕군 창녕읍 교리 285-2","lat":35.43755605,"lng":128.5890928,"totalSpaces":42,"isFree":true,"operatingDays":"평일+토요일+공휴일","weekdayOpen":"00:00","weekdayClose":"23:59","weekendOpen":"00:00","weekendClose":"23:59","holidayOpen":"00:00","holidayClose":"23:59","feeInfo":"무료","phone":"055-530-1723","updatedAt":"2025-11-22","sido":"경상남도","sigungu":"창녕군","dong":"창녕읍"},{"name":"간지 미나리단진 공동구판장 및 마을공동주차장","type":"공영","category":"노외","address":"경상남도 창녕군 고암면 감리 951","lat":35.559579,"lng":128.5664654,"totalSpaces":40,"isFree":true,"operatingDays":"평일+토요일+공휴일","weekdayOpen":"00:00","weekdayClose":"23:59","weekendOpen":"00:00","weekendClose":"23:59","holidayOpen":"00:00","holidayClose":"23:59","feeInfo":"무료","phone":"055-530-1723","updatedAt":"2025-11-22","sido":"경상남도","sigungu":"창녕군","dong":"고암면"},{"name":"남지시장 주차장","type":"공영","category":"노상","address":"경상남도 창녕군 남지읍 남지리 617-1","lat":35.38884031,"lng":128.4825793,"totalSpaces":40,"isFree":true,"operatingDays":"평일+토요일+공휴일","weekdayOpen":"00:00","weekdayClose":"23:59","weekendOpen":"00:00","weekendClose":"23:59","holidayOpen":"00:00","holidayClose":"23:59","feeInfo":"무료","phone":"055-530-1723","updatedAt":"2025-11-22","sido":"경상남도","sigungu":"창녕군","dong":"남지읍"},{"name":"문화공원 1주차장","type":"공영","category":"노외","address":"경상남도 창녕군 창녕읍 교리 384-7","lat":35.5454113,"lng":128.4950539,"totalSpaces":39,"isFree":true,"operatingDays":"평일+토요일+공휴일","weekdayOpen":"00:00","weekdayClose":"23:59","weekendOpen":"00:00","weekendClose":"23:59","holidayOpen":"00:00","holidayClose":"23:59","feeInfo":"무료","phone":"055-530-1723","updatedAt":"2025-11-22","sido":"경상남도","sigungu":"창녕군","dong":"창녕읍"},{"name":"신촌마을 공동주차장","type":"공영","category":"노외","address":"경상남도 창녕군 길곡면 길곡신촌길 33","lat":35.39005006,"lng":128.5423304,"totalSpaces":36,"isFree":true,"operatingDays":"평일+토요일+공휴일","weekdayOpen":"00:00","weekdayClose":"23:59","weekendOpen":"00:00","weekendClose":"23:59","holidayOpen":"00:00","holidayClose":"23:59","feeInfo":"무료","phone":"055-530-1723","updatedAt":"2025-11-22","sido":"경상남도","sigungu":"창녕군","dong":"길곡면"},{"name":"장마 미구마을 공영주차장","type":"공영","category":"노외","address":"경상남도 창녕군 장마면 신구리 848-11","lat":35.46720083,"lng":128.4472263,"totalSpaces":35,"isFree":true,"operatingDays":"평일+토요일+공휴일","weekdayOpen":"00:00","weekdayClose":"23:59","weekendOpen":"00:00","weekendClose":"23:59","holidayOpen":"00:00","holidayClose":"23:59","feeInfo":"무료","phone":"055-530-1723","updatedAt":"2025-11-22","sido":"경상남도","sigungu":"창녕군","dong":"장마면"},{"name":"신당마을 공동주차장","type":"공영","category":"노외","address":"경상남도 창녕군 대합면 닭계1길 12","lat":35.57493126,"lng":128.4372754,"totalSpaces":35,"isFree":true,"operatingDays":"평일+토요일+공휴일","weekdayOpen":"00:00","weekdayClose":"23:59","weekendOpen":"00:00","weekendClose":"23:59","holidayOpen":"00:00","holidayClose":"23:59","feeInfo":"무료","phone":"055-530-1723","updatedAt":"2025-11-22","sido":"경상남도","sigungu":"창녕군","dong":"대합면"},{"name":"창녕 술정리 서재골 공영주차장","type":"공영","category":"노외","address":"경상남도 창녕군 창녕읍 술정리 253","lat":35.53767097,"lng":128.4902649,"totalSpaces":33,"isFree":true,"operatingDays":"평일+토요일+공휴일","weekdayOpen":"00:00","weekdayClose":"23:59","weekendOpen":"00:00","weekendClose":"23:59","holidayOpen":"00:00","holidayClose":"23:59","feeInfo":"무료","phone":"055-530-1723","updatedAt":"2025-11-22","sido":"경상남도","sigungu":"창녕군","dong":"창녕읍"},{"name":"창녕시장 닭전주차장","type":"공영","category":"노외","address":"경상남도 창녕군 창녕읍 송현리 282","lat":35.54191336,"lng":128.4989273,"totalSpaces":32,"isFree":true,"operatingDays":"평일+토요일+공휴일","weekdayOpen":"00:00","weekdayClose":"23:59","weekendOpen":"00:00","weekendClose":"23:59","holidayOpen":"00:00","holidayClose":"23:59","feeInfo":"무료","phone":"055-530-1723","updatedAt":"2025-11-22","sido":"경상남도","sigungu":"창녕군","dong":"창녕읍"},{"name":"모산마을 주차장","type":"공영","category":"노외","address":"경상남도 창녕군 대지면 효정리 1084-1","lat":35.55467706,"lng":128.4711927,"totalSpaces":30,"isFree":true,"operatingDays":"평일+토요일+공휴일","weekdayOpen":"00:00","weekdayClose":"23:59","weekendOpen":"00:00","weekendClose":"23:59","holidayOpen":"00:00","holidayClose":"23:59","feeInfo":"무료","phone":"055-530-1723","updatedAt":"2025-11-22","sido":"경상남도","sigungu":"창녕군","dong":"대지면"},{"name":"월곡마을 공동주차장","type":"공영","category":"노외","address":"경상남도 창녕군 성산면 대산리 843-15","lat":35.64484174,"lng":128.5246153,"totalSpaces":30,"isFree":true,"operatingDays":"평일+토요일+공휴일","weekdayOpen":"00:00","weekdayClose":"23:59","weekendOpen":"00:00","weekendClose":"23:59","holidayOpen":"00:00","holidayClose":"23:59","feeInfo":"무료","phone":"055-530-1723","updatedAt":"2025-11-22","sido":"경상남도","sigungu":"창녕군","dong":"성산면"},{"name":"억만리 마을공동주차장","type":"공영","category":"노외","address":"경상남도 창녕군 고암면 억만리 1262-2","lat":35.56756946,"lng":128.4910202,"totalSpaces":30,"isFree":true,"operatingDays":"평일+토요일+공휴일","weekdayOpen":"00:00","weekdayClose":"23:59","weekendOpen":"00:00","weekendClose":"23:59","holidayOpen":"00:00","holidayClose":"23:59","feeInfo":"무료","phone":"055-530-1723","updatedAt":"2025-11-22","sido":"경상남도","sigungu":"창녕군","dong":"고암면"},{"name":"모터사이클 경기장 앞","type":"공영","category":"노외","address":"경상남도 창녕군 남지읍 남지리 178-17","lat":35.39287852,"lng":128.4867797,"totalSpaces":30,"isFree":true,"operatingDays":"평일+토요일+공휴일","weekdayOpen":"00:00","weekdayClose":"23:59","weekendOpen":"00:00","weekendClose":"23:59","holidayOpen":"00:00","holidayClose":"23:59","feeInfo":"무료","phone":"055-530-1723","updatedAt":"2025-11-22","sido":"경상남도","sigungu":"창녕군","dong":"남지읍"},{"name":"송현마을 공동주차장","type":"공영","category":"노외","address":"경상남도 창녕군 창녕읍 솔터길 8","lat":35.54242132,"lng":128.502349,"totalSpaces":30,"isFree":true,"operatingDays":"평일+토요일+공휴일","weekdayOpen":"00:00","weekdayClose":"23:59","weekendOpen":"00:00","weekendClose":"23:59","holidayOpen":"00:00","holidayClose":"23:59","feeInfo":"무료","phone":"055-530-1723","updatedAt":"2025-11-22","sido":"경상남도","sigungu":"창녕군","dong":"창녕읍"},{"name":"창녕읍 공용주차장","type":"공영","category":"노외","address":"경상남도 창녕군 창녕읍 교상리 68-14","lat":35.5395572,"lng":128.5005662,"totalSpaces":30,"isFree":true,"operatingDays":"평일+토요일+공휴일","weekdayOpen":"00:00","weekdayClose":"23:59","weekendOpen":"00:00","weekendClose":"23:59","holidayOpen":"00:00","holidayClose":"23:59","feeInfo":"무료","phone":"055-530-1723","updatedAt":"2025-11-22","sido":"경상남도","sigungu":"창녕군","dong":"창녕읍"},{"name":"창녕 말흘3 공영주차장","type":"공영","category":"노외","address":"경상남도 창녕군 창녕읍 말흘리 311","lat":35.53346458,"lng":128.5016011,"totalSpaces":28,"isFree":true,"operatingDays":"평일+토요일+공휴일","weekdayOpen":"00:00","weekdayClose":"23:59","weekendOpen":"00:00","weekendClose":"23:59","holidayOpen":"00:00","holidayClose":"23:59","feeInfo":"무료","phone":"055-530-1723","updatedAt":"2025-11-22","sido":"경상남도","sigungu":"창녕군","dong":"창녕읍"},{"name":"창녕 말흘1 공영주차장","type":"공영","category":"노외","address":"경상남도 창녕군 창녕읍 말흘4길 6-5","lat":35.53822867,"lng":128.5026948,"totalSpaces":27,"isFree":true,"operatingDays":"평일+토요일+공휴일","weekdayOpen":"00:00","weekdayClose":"23:59","weekendOpen":"00:00","weekendClose":"23:59","holidayOpen":"00:00","holidayClose":"23:59","feeInfo":"무료","phone":"055-530-1723","updatedAt":"2025-11-22","sido":"경상남도","sigungu":"창녕군","dong":"창녕읍"},{"name":"고곡리 공동주차장","type":"공영","category":"노외","address":"경상남도 창녕군 남지읍 고곡길 8-9","lat":35.44318147,"lng":128.4268974,"totalSpaces":27,"isFree":true,"operatingDays":"평일+토요일+공휴일","weekdayOpen":"00:00","weekdayClose":"23:59","weekendOpen":"00:00","weekendClose":"23:59","holidayOpen":"00:00","holidayClose":"23:59","feeInfo":"무료","phone":"055-530-1723","updatedAt":"2025-11-22","sido":"경상남도","sigungu":"창녕군","dong":"남지읍"},{"name":"만옥정공원 공영주차장","type":"공영","category":"노외","address":"경상남도 창녕군 창녕읍 만옥정길 25","lat":35.54143974,"lng":128.5022325,"totalSpaces":26,"isFree":true,"operatingDays":"평일+토요일+공휴일","weekdayOpen":"00:00","weekdayClose":"23:59","weekendOpen":"00:00","weekendClose":"23:59","holidayOpen":"00:00","holidayClose":"23:59","feeInfo":"무료","phone":"055-530-1723","updatedAt":"2025-11-22","sido":"경상남도","sigungu":"창녕군","dong":"창녕읍"},{"name":"성내마을 공동주차장","type":"공영","category":"노외","address":"경상남도 창녕군 영산면 성내리 578","lat":35.45859753,"lng":128.5309352,"totalSpaces":26,"isFree":true,"operatingDays":"평일+토요일+공휴일","weekdayOpen":"00:00","weekdayClose":"23:59","weekendOpen":"00:00","weekendClose":"23:59","holidayOpen":"00:00","holidayClose":"23:59","feeInfo":"무료","phone":"055-530-1723","updatedAt":"2025-11-22","sido":"경상남도","sigungu":"창녕군","dong":"영산면"},{"name":"남지 남지 공영주차장","type":"공영","category":"노외","address":"경상남도 창녕군 남지읍 남지리 590-13","lat":35.38982642,"lng":128.4781048,"totalSpaces":25,"isFree":true,"operatingDays":"평일+토요일+공휴일","weekdayOpen":"00:00","weekdayClose":"23:59","weekendOpen":"00:00","weekendClose":"23:59","holidayOpen":"00:00","holidayClose":"23:59","feeInfo":"무료","phone":"055-530-1723","updatedAt":"2025-11-22","sido":"경상남도","sigungu":"창녕군","dong":"남지읍"},{"name":"문화공원 2주차장","type":"공영","category":"노외","address":"경상남도 창녕군 창녕읍 교리 351-1","lat":35.5464876,"lng":128.497173,"totalSpaces":25,"isFree":true,"operatingDays":"평일+토요일+공휴일","weekdayOpen":"00:00","weekdayClose":"23:59","weekendOpen":"00:00","weekendClose":"23:59","holidayOpen":"00:00","holidayClose":"23:59","feeInfo":"무료","phone":"055-530-1723","updatedAt":"2025-11-22","sido":"경상남도","sigungu":"창녕군","dong":"창녕읍"},{"name":"상록아파트앞 노상주차장","type":"공영","category":"노상","address":"경상남도 창녕군 남지읍 문화길 13(상록아파트)","lat":35.38817573,"lng":128.4802096,"totalSpaces":22,"isFree":true,"operatingDays":"평일+토요일+공휴일","weekdayOpen":"00:00","weekdayClose":"23:59","weekendOpen":"00:00","weekendClose":"23:59","holidayOpen":"00:00","holidayClose":"23:59","feeInfo":"무료","phone":"055-530-1723","updatedAt":"2025-11-22","sido":"경상남도","sigungu":"창녕군","dong":"남지읍"},{"name":"귀동마을 공동주차장","type":"공영","category":"노외","address":"경상남도 창녕군 대지면 효정리 723-7","lat":35.54431283,"lng":128.4734646,"totalSpaces":22,"isFree":true,"operatingDays":"평일+토요일+공휴일","weekdayOpen":"00:00","weekdayClose":"23:59","weekendOpen":"00:00","weekendClose":"23:59","holidayOpen":"00:00","holidayClose":"23:59","feeInfo":"무료","phone":"055-530-1723","updatedAt":"2025-11-22","sido":"경상남도","sigungu":"창녕군","dong":"대지면"},{"name":"창녕 술정2 공영주차장","type":"공영","category":"노외","address":"경상남도 창녕군 창녕읍 술정리 85-9","lat":35.539934,"lng":128.4940491,"totalSpaces":21,"isFree":true,"operatingDays":"평일+토요일+공휴일","weekdayOpen":"00:00","weekdayClose":"23:59","weekendOpen":"00:00","weekendClose":"23:59","holidayOpen":"00:00","holidayClose":"23:59","feeInfo":"무료","phone":"055-530-1723","updatedAt":"2025-11-22","sido":"경상남도","sigungu":"창녕군","dong":"창녕읍"},{"name":"남지 동포 공영주차장","type":"공영","category":"노외","address":"경상남도 창녕군 남지읍 남지리 597-1","lat":35.43755605,"lng":128.5890928,"totalSpaces":21,"isFree":true,"operatingDays":"평일+토요일+공휴일","weekdayOpen":"00:00","weekdayClose":"23:59","weekendOpen":"00:00","weekendClose":"23:59","holidayOpen":"00:00","holidayClose":"23:59","feeInfo":"무료","phone":"055-530-1723","updatedAt":"2025-11-22","sido":"경상남도","sigungu":"창녕군","dong":"남지읍"},{"name":"고암 미곡마을 공동주차장","type":"공영","category":"노외","address":"경상남도 창녕군 고암면 미곡감골길 7","lat":35.56573796,"lng":128.5642444,"totalSpaces":20,"isFree":true,"operatingDays":"평일+토요일+공휴일","weekdayOpen":"00:00","weekdayClose":"23:59","weekendOpen":"00:00","weekendClose":"23:59","holidayOpen":"00:00","holidayClose":"23:59","feeInfo":"무료","phone":"055-530-1723","updatedAt":"2025-11-22","sido":"경상남도","sigungu":"창녕군","dong":"고암면"},{"name":"동리 연지못 주차장","type":"공영","category":"노외","address":"경상남도 창녕군 영산면 로터리길 17","lat":35.45364274,"lng":128.5283052,"totalSpaces":20,"isFree":true,"operatingDays":"평일+토요일+공휴일","weekdayOpen":"00:00","weekdayClose":"23:59","weekendOpen":"00:00","weekendClose":"23:59","holidayOpen":"00:00","holidayClose":"23:59","feeInfo":"무료","phone":"055-530-1723","updatedAt":"2025-11-22","sido":"경상남도","sigungu":"창녕군","dong":"영산면"},{"name":"길곡 중길 공동주차장","type":"공영","category":"노외","address":"경상남도 창녕군 길곡면 길곡리 893-14","lat":35.41269732,"lng":128.567761,"totalSpaces":18,"isFree":true,"operatingDays":"평일+토요일+공휴일","weekdayOpen":"00:00","weekdayClose":"23:59","weekendOpen":"00:00","weekendClose":"23:59","holidayOpen":"00:00","holidayClose":"23:59","feeInfo":"무료","phone":"055-530-1723","updatedAt":"2025-11-22","sido":"경상남도","sigungu":"창녕군","dong":"길곡면"},{"name":"장마 상강 공동주차장","type":"공영","category":"노외","address":"경상남도 창녕군 장마면 강리 769-5","lat":35.4595523,"lng":128.4763978,"totalSpaces":17,"isFree":true,"operatingDays":"평일+토요일+공휴일","weekdayOpen":"00:00","weekdayClose":"23:59","weekendOpen":"00:00","weekendClose":"23:59","holidayOpen":"00:00","holidayClose":"23:59","feeInfo":"무료","phone":"055-530-1723","updatedAt":"2025-11-22","sido":"경상남도","sigungu":"창녕군","dong":"장마면"},{"name":"대신마을 공동주차장","type":"공영","category":"노외","address":"경상남도 창녕군 부곡면 거문리 137-12","lat":35.43707322,"lng":128.593434,"totalSpaces":16,"isFree":true,"operatingDays":"평일+토요일+공휴일","weekdayOpen":"00:00","weekdayClose":"23:59","weekendOpen":"00:00","weekendClose":"23:59","holidayOpen":"00:00","holidayClose":"23:59","feeInfo":"무료","phone":"055-530-1723","updatedAt":"2025-11-22","sido":"경상남도","sigungu":"창녕군","dong":"부곡면"},{"name":"부곡리 공동주차장","type":"공영","category":"노외","address":"경상남도 창녕군 부곡면 부곡리 283-14","lat":35.43459972,"lng":128.6017707,"totalSpaces":16,"isFree":true,"operatingDays":"평일+토요일+공휴일","weekdayOpen":"00:00","weekdayClose":"23:59","weekendOpen":"00:00","weekendClose":"23:59","holidayOpen":"00:00","holidayClose":"23:59","feeInfo":"무료","phone":"055-530-1723","updatedAt":"2025-11-22","sido":"경상남도","sigungu":"창녕군","dong":"부곡면"},{"name":"계전마을 공동주차장","type":"공영","category":"노외","address":"경상남도 창녕군 계성면 계성리 292-2","lat":35.48099858,"lng":128.5019076,"totalSpaces":16,"isFree":true,"operatingDays":"평일+토요일+공휴일","weekdayOpen":"00:00","weekdayClose":"23:59","weekendOpen":"00:00","weekendClose":"23:59","holidayOpen":"00:00","holidayClose":"23:59","feeInfo":"무료","phone":"055-530-1723","updatedAt":"2025-11-22","sido":"경상남도","sigungu":"창녕군","dong":"계성면"},{"name":"영산시장 공설주차장","type":"공영","category":"노외","address":"경상남도 창녕군 영산면 교리 170-3","lat":35.45726421,"lng":128.5347037,"totalSpaces":16,"isFree":true,"operatingDays":"평일+토요일+공휴일","weekdayOpen":"00:00","weekdayClose":"23:59","weekendOpen":"00:00","weekendClose":"23:59","holidayOpen":"00:00","holidayClose":"23:59","feeInfo":"무료","phone":"055-530-1723","updatedAt":"2025-11-22","sido":"경상남도","sigungu":"창녕군","dong":"영산면"},{"name":"동리 노상주차장","type":"공영","category":"노상","address":"경상남도 창녕군 영산면 로터리길 15","lat":35.45363319,"lng":128.5279207,"totalSpaces":16,"isFree":true,"operatingDays":"평일+토요일+공휴일","weekdayOpen":"00:00","weekdayClose":"23:59","weekendOpen":"00:00","weekendClose":"23:59","holidayOpen":"00:00","holidayClose":"23:59","feeInfo":"무료","phone":"055-530-1723","updatedAt":"2025-11-22","sido":"경상남도","sigungu":"창녕군","dong":"영산면"},{"name":"대대마을 공동주차장","type":"공영","category":"노외","address":"경상남도 창녕군 유어면 대대리 581-5","lat":35.54630638,"lng":128.4290948,"totalSpaces":15,"isFree":true,"operatingDays":"평일+토요일+공휴일","weekdayOpen":"00:00","weekdayClose":"23:59","weekendOpen":"00:00","weekendClose":"23:59","holidayOpen":"00:00","holidayClose":"23:59","feeInfo":"무료","phone":"055-530-1723","updatedAt":"2025-11-22","sido":"경상남도","sigungu":"창녕군","dong":"유어면"},{"name":"장마 초곡 다목적 주차장","type":"공영","category":"노외","address":"경상남도 창녕군 장마면 초곡리 573","lat":35.50029938,"lng":128.490969,"totalSpaces":14,"isFree":true,"operatingDays":"평일+토요일+공휴일","weekdayOpen":"00:00","weekdayClose":"23:59","weekendOpen":"00:00","weekendClose":"23:59","holidayOpen":"00:00","holidayClose":"23:59","feeInfo":"무료","phone":"055-530-1723","updatedAt":"2025-11-22","sido":"경상남도","sigungu":"창녕군","dong":"장마면"},{"name":"창녕석빙고 주차장","type":"공영","category":"노외","address":"경상남도 창녕군 창녕읍 송현리 293","lat":35.54248242,"lng":128.497613,"totalSpaces":14,"isFree":true,"operatingDays":"평일+토요일+공휴일","weekdayOpen":"00:00","weekdayClose":"23:59","weekendOpen":"00:00","weekendClose":"23:59","holidayOpen":"00:00","holidayClose":"23:59","feeInfo":"무료","phone":"055-530-1723","updatedAt":"2025-11-22","sido":"경상남도","sigungu":"창녕군","dong":"창녕읍"},{"name":"송현마을 공동주차장 (원불교 근처)","type":"공영","category":"노외","address":"경상남도 창녕군 창녕읍 송현리 156","lat":35.54349378,"lng":128.5002897,"totalSpaces":14,"isFree":true,"operatingDays":"평일+토요일+공휴일","weekdayOpen":"00:00","weekdayClose":"23:59","weekendOpen":"00:00","weekendClose":"23:59","holidayOpen":"00:00","holidayClose":"23:59","feeInfo":"무료","phone":"055-530-1723","updatedAt":"2025-11-22","sido":"경상남도","sigungu":"창녕군","dong":"창녕읍"},{"name":"신당리 주차장","type":"공영","category":"노외","address":"경상남도 창녕군 창녕읍 말흘리 849-43","lat":35.54036484,"lng":128.5033042,"totalSpaces":14,"isFree":true,"operatingDays":"평일+토요일+공휴일","weekdayOpen":"00:00","weekdayClose":"23:59","weekendOpen":"00:00","weekendClose":"23:59","holidayOpen":"00:00","holidayClose":"23:59","feeInfo":"무료","phone":"055-530-1723","updatedAt":"2025-11-22","sido":"경상남도","sigungu":"창녕군","dong":"창녕읍"},{"name":"부곡 온천 관광특구 공영주차장","type":"공영","category":"노외","address":"경상남도 창녕군 부곡면 거문리 234-1","lat":35.43755605,"lng":128.5890928,"totalSpaces":13,"isFree":true,"operatingDays":"평일+토요일+공휴일","weekdayOpen":"00:00","weekdayClose":"23:59","weekendOpen":"00:00","weekendClose":"23:59","holidayOpen":"00:00","holidayClose":"23:59","feeInfo":"무료","phone":"055-530-1723","updatedAt":"2025-11-22","sido":"경상남도","sigungu":"창녕군","dong":"부곡면"},{"name":"증산마을 공동주차장","type":"공영","category":"노외","address":"경상남도 창녕군 길곡면 낙동로 1513","lat":35.38592929,"lng":128.570354,"totalSpaces":13,"isFree":true,"operatingDays":"평일+토요일+공휴일","weekdayOpen":"00:00","weekdayClose":"23:59","weekendOpen":"00:00","weekendClose":"23:59","holidayOpen":"00:00","holidayClose":"23:59","feeInfo":"무료","phone":"055-530-1723","updatedAt":"2025-11-22","sido":"경상남도","sigungu":"창녕군","dong":"길곡면"},{"name":"창녕시장주차장 확장","type":"공영","category":"노외","address":"경상남도 창녕군 창녕읍 송현리 261-5","lat":35.54173565,"lng":128.4992693,"totalSpaces":13,"isFree":true,"operatingDays":"평일+토요일+공휴일","weekdayOpen":"00:00","weekdayClose":"23:59","weekendOpen":"00:00","weekendClose":"23:59","holidayOpen":"00:00","holidayClose":"23:59","feeInfo":"무료","phone":"055-530-1723","updatedAt":"2025-11-22","sido":"경상남도","sigungu":"창녕군","dong":"창녕읍"},{"name":"원동마을 공동주차장","type":"공영","category":"노외","address":"경상남도 창녕군 부곡면 거문리 687-1","lat":35.44264671,"lng":128.5872869,"totalSpaces":12,"isFree":true,"operatingDays":"평일+토요일+공휴일","weekdayOpen":"00:00","weekdayClose":"23:59","weekendOpen":"00:00","weekendClose":"23:59","holidayOpen":"00:00","holidayClose":"23:59","feeInfo":"무료","phone":"055-530-1723","updatedAt":"2025-11-22","sido":"경상남도","sigungu":"창녕군","dong":"부곡면"},{"name":"수다리 공동주차장","type":"공영","category":"노외","address":"경상남도 창녕군 부곡면 수다리 612-3","lat":35.43177633,"lng":128.6318238,"totalSpaces":12,"isFree":true,"operatingDays":"평일+토요일+공휴일","weekdayOpen":"00:00","weekdayClose":"23:59","weekendOpen":"00:00","weekendClose":"23:59","holidayOpen":"00:00","holidayClose":"23:59","feeInfo":"무료","phone":"055-530-1723","updatedAt":"2025-11-22","sido":"경상남도","sigungu":"창녕군","dong":"부곡면"},{"name":"온정마을 공동주차장","type":"공영","category":"노외","address":"경상남도 창녕군 부곡면 온정리 268-1","lat":35.42350087,"lng":128.6099364,"totalSpaces":12,"isFree":true,"operatingDays":"평일+토요일+공휴일","weekdayOpen":"00:00","weekdayClose":"23:59","weekendOpen":"00:00","weekendClose":"23:59","holidayOpen":"00:00","holidayClose":"23:59","feeInfo":"무료","phone":"055-530-1723","updatedAt":"2025-11-22","sido":"경상남도","sigungu":"창녕군","dong":"부곡면"},{"name":"화곡마을 공동주차장","type":"공영","category":"노외","address":"경상남도 창녕군 계성면 신당리 385-4","lat":35.4910469,"lng":128.5114138,"totalSpaces":12,"isFree":true,"operatingDays":"평일+토요일+공휴일","weekdayOpen":"00:00","weekdayClose":"23:59","weekendOpen":"00:00","weekendClose":"23:59","holidayOpen":"00:00","holidayClose":"23:59","feeInfo":"무료","phone":"055-530-1723","updatedAt":"2025-11-22","sido":"경상남도","sigungu":"창녕군","dong":"계성면"},{"name":"영산시장 버스회차장","type":"공영","category":"노외","address":"경상남도 창녕군 영산면 교리 164-1","lat":35.45750253,"lng":128.5347916,"totalSpaces":12,"isFree":true,"operatingDays":"평일+토요일+공휴일","weekdayOpen":"00:00","weekdayClose":"23:59","weekendOpen":"00:00","weekendClose":"23:59","holidayOpen":"00:00","holidayClose":"23:59","feeInfo":"무료","phone":"055-530-1723","updatedAt":"2025-11-22","sido":"경상남도","sigungu":"창녕군","dong":"영산면"},{"name":"장마 강리 공영주차장","type":"공영","category":"노외","address":"경상남도 창녕군 장마면 강리길 24","lat":35.45791013,"lng":128.4731233,"totalSpaces":11,"isFree":true,"operatingDays":"평일+토요일+공휴일","weekdayOpen":"00:00","weekdayClose":"23:59","weekendOpen":"00:00","weekendClose":"23:59","holidayOpen":"00:00","holidayClose":"23:59","feeInfo":"무료","phone":"055-530-1723","updatedAt":"2025-11-22","sido":"경상남도","sigungu":"창녕군","dong":"장마면"},{"name":"상퇴천마을 다목적 주차장","type":"공영","category":"노외","address":"경상남도 창녕군 창녕읍 말흘리 884-26","lat":35.52322577,"lng":128.5037974,"totalSpaces":11,"isFree":true,"operatingDays":"평일+토요일+공휴일","weekdayOpen":"00:00","weekdayClose":"23:59","weekendOpen":"00:00","weekendClose":"23:59","holidayOpen":"00:00","holidayClose":"23:59","feeInfo":"무료","phone":"055-530-1723","updatedAt":"2025-11-22","sido":"경상남도","sigungu":"창녕군","dong":"창녕읍"},{"name":"창녕 화전마을 다목적주차장","type":"공영","category":"노외","address":"경상남도 창녕군 창녕읍 여초리 595-1","lat":35.51129635,"lng":128.497959,"totalSpaces":11,"isFree":true,"operatingDays":"평일+토요일+공휴일","weekdayOpen":"00:00","weekdayClose":"23:59","weekendOpen":"00:00","weekendClose":"23:59","holidayOpen":"00:00","holidayClose":"23:59","feeInfo":"무료","phone":"055-530-1723","updatedAt":"2025-11-22","sido":"경상남도","sigungu":"창녕군","dong":"창녕읍"},{"name":"남지문화집 옆 주차장","type":"공영","category":"노외","address":"경상남도 창녕군 남지읍 남지리 777-3","lat":35.38643232,"lng":128.4765483,"totalSpaces":11,"isFree":true,"operatingDays":"평일+토요일+공휴일","weekdayOpen":"00:00","weekdayClose":"23:59","weekendOpen":"00:00","weekendClose":"23:59","holidayOpen":"00:00","holidayClose":"23:59","feeInfo":"무료","phone":"055-530-1723","updatedAt":"2025-11-22","sido":"경상남도","sigungu":"창녕군","dong":"남지읍"},{"name":"영산 연지 공영주차장","type":"공영","category":"노외","address":"경상남도 창녕군 영산면 서리 136-13","lat":35.45555885,"lng":128.5280985,"totalSpaces":11,"isFree":true,"operatingDays":"평일+토요일+공휴일","weekdayOpen":"00:00","weekdayClose":"23:59","weekendOpen":"00:00","weekendClose":"23:59","holidayOpen":"00:00","holidayClose":"23:59","feeInfo":"무료","phone":"055-530-1723","updatedAt":"2025-11-22","sido":"경상남도","sigungu":"창녕군","dong":"영산면"},{"name":"부부한의원~흥국주유소 노상주차장","type":"공영","category":"노상","address":"경상남도 창녕군 남지읍 동포옛길 3","lat":35.39056354,"lng":128.4820461,"totalSpaces":11,"isFree":true,"operatingDays":"평일+토요일+공휴일","weekdayOpen":"00:00","weekdayClose":"23:59","weekendOpen":"00:00","weekendClose":"23:59","holidayOpen":"00:00","holidayClose":"23:59","feeInfo":"무료","phone":"055-530-1723","updatedAt":"2025-11-22","sido":"경상남도","sigungu":"창녕군","dong":"남지읍"},{"name":"영산 서리새동네 공동주차장","type":"공영","category":"노외","address":"경상남도 창녕군 영산면 서리 209-17","lat":35.4582158,"lng":128.5240512,"totalSpaces":10,"isFree":true,"operatingDays":"평일+토요일+공휴일","weekdayOpen":"00:00","weekdayClose":"23:59","weekendOpen":"00:00","weekendClose":"23:59","holidayOpen":"00:00","holidayClose":"23:59","feeInfo":"무료","phone":"055-530-1723","updatedAt":"2025-11-22","sido":"경상남도","sigungu":"창녕군","dong":"영산면"},{"name":"부곡 굴말 공동주차장","type":"공영","category":"노외","address":"경상남도 창녕군 부곡면 부곡리 192-3","lat":35.43748617,"lng":128.6053624,"totalSpaces":10,"isFree":true,"operatingDays":"평일+토요일+공휴일","weekdayOpen":"00:00","weekdayClose":"23:59","weekendOpen":"00:00","weekendClose":"23:59","holidayOpen":"00:00","holidayClose":"23:59","feeInfo":"무료","phone":"055-530-1723","updatedAt":"2025-11-22","sido":"경상남도","sigungu":"창녕군","dong":"부곡면"},{"name":"강변안길 근처 주차장","type":"공영","category":"노외","address":"경상남도 창녕군 남지읍 남지리 642-3","lat":35.38727752,"lng":128.4816506,"totalSpaces":10,"isFree":true,"operatingDays":"평일+토요일+공휴일","weekdayOpen":"00:00","weekdayClose":"23:59","weekendOpen":"00:00","weekendClose":"23:59","holidayOpen":"00:00","holidayClose":"23:59","feeInfo":"무료","phone":"055-530-1723","updatedAt":"2025-11-22","sido":"경상남도","sigungu":"창녕군","dong":"남지읍"},{"name":"가항리 공용주차장","type":"공영","category":"노외","address":"경상남도 창녕군 유어면 가항리 502-1","lat":35.52211848,"lng":128.3879884,"totalSpaces":10,"isFree":true,"operatingDays":"평일+토요일+공휴일","weekdayOpen":"00:00","weekdayClose":"23:59","weekendOpen":"00:00","weekendClose":"23:59","holidayOpen":"00:00","holidayClose":"23:59","feeInfo":"무료","phone":"055-530-1723","updatedAt":"2025-11-22","sido":"경상남도","sigungu":"창녕군","dong":"유어면"},{"name":"죽사1구 공용주차장","type":"공영","category":"노외","address":"경상남도 창녕군 영산면 죽사리 97-3","lat":35.44820441,"lng":128.5254813,"totalSpaces":10,"isFree":true,"operatingDays":"평일+토요일+공휴일","weekdayOpen":"00:00","weekdayClose":"23:59","weekendOpen":"00:00","weekendClose":"23:59","holidayOpen":"00:00","holidayClose":"23:59","feeInfo":"무료","phone":"055-530-1723","updatedAt":"2025-11-22","sido":"경상남도","sigungu":"창녕군","dong":"영산면"},{"name":"낙영마을 공동주차장","type":"공영","category":"노외","address":"경상남도 창녕군 창녕읍 말흘리 737","lat":35.53245693,"lng":128.5037085,"totalSpaces":10,"isFree":true,"operatingDays":"평일+토요일+공휴일","weekdayOpen":"00:00","weekdayClose":"23:59","weekendOpen":"00:00","weekendClose":"23:59","holidayOpen":"00:00","holidayClose":"23:59","feeInfo":"무료","phone":"055-530-1723","updatedAt":"2025-11-22","sido":"경상남도","sigungu":"창녕군","dong":"창녕읍"},{"name":"남지 마산마을 공용주차장","type":"공영","category":"노외","address":"경상남도 창녕군 남지읍 마산리 477-11","lat":35.39595495,"lng":128.4701981,"totalSpaces":8,"isFree":true,"operatingDays":"평일+토요일+공휴일","weekdayOpen":"00:00","weekdayClose":"23:59","weekendOpen":"00:00","weekendClose":"23:59","holidayOpen":"00:00","holidayClose":"23:59","feeInfo":"무료","phone":"055-530-1723","updatedAt":"2025-11-22","sido":"경상남도","sigungu":"창녕군","dong":"남지읍"},{"name":"옥산마을 공동주차장","type":"공영","category":"노외","address":"경상남도 창녕군 남지읍 학계리 935-4","lat":35.3921728,"lng":128.4552078,"totalSpaces":8,"isFree":true,"operatingDays":"평일+토요일+공휴일","weekdayOpen":"00:00","weekdayClose":"23:59","weekendOpen":"00:00","weekendClose":"23:59","holidayOpen":"00:00","holidayClose":"23:59","feeInfo":"무료","phone":"055-530-1723","updatedAt":"2025-11-22","sido":"경상남도","sigungu":"창녕군","dong":"남지읍"},{"name":"대합 메탄마을 주차장","type":"공영","category":"노외","address":"경상남도 창녕군 대합면 매탄길 121","lat":35.58809157,"lng":128.4812258,"totalSpaces":7,"isFree":true,"operatingDays":"평일+토요일+공휴일","weekdayOpen":"00:00","weekdayClose":"23:59","weekendOpen":"00:00","weekendClose":"23:59","holidayOpen":"00:00","holidayClose":"23:59","feeInfo":"무료","phone":"055-530-1723","updatedAt":"2025-11-22","sido":"경상남도","sigungu":"창녕군","dong":"대합면"},{"name":"창락마을 공동주차장","type":"공영","category":"노외","address":"경상남도 창녕군 창녕읍 퇴천리 392-3","lat":35.51987379,"lng":128.4980254,"totalSpaces":7,"isFree":true,"operatingDays":"평일+토요일+공휴일","weekdayOpen":"00:00","weekdayClose":"23:59","weekendOpen":"00:00","weekendClose":"23:59","holidayOpen":"00:00","holidayClose":"23:59","feeInfo":"무료","phone":"055-530-1723","updatedAt":"2025-11-22","sido":"경상남도","sigungu":"창녕군","dong":"창녕읍"},{"name":"도천 예리1구 마을주차장","type":"공영","category":"노외","address":"경상남도 창녕군 도천면 예리 492-2","lat":35.43010515,"lng":128.5511464,"totalSpaces":6,"isFree":true,"operatingDays":"평일+토요일+공휴일","weekdayOpen":"00:00","weekdayClose":"23:59","weekendOpen":"00:00","weekendClose":"23:59","holidayOpen":"00:00","holidayClose":"23:59","feeInfo":"무료","phone":"055-530-1723","updatedAt":"2025-11-22","sido":"경상남도","sigungu":"창녕군","dong":"도천면"},{"name":"내동주차장","type":"공영","category":"노외","address":"경상남도 창녕군 길곡면 오호리 472","lat":35.39905659,"lng":128.5462601,"totalSpaces":6,"isFree":true,"operatingDays":"평일+토요일+공휴일","weekdayOpen":"00:00","weekdayClose":"23:59","weekendOpen":"00:00","weekendClose":"23:59","holidayOpen":"00:00","holidayClose":"23:59","feeInfo":"무료","phone":"055-530-1723","updatedAt":"2025-11-22","sido":"경상남도","sigungu":"창녕군","dong":"길곡면"},{"name":"창녕 낙영 공영주차장","type":"공영","category":"노외","address":"경상남도 창녕군 창녕읍 말흘리 327-8","lat":35.53304707,"lng":128.5044452,"totalSpaces":5,"isFree":true,"operatingDays":"평일+토요일+공휴일","weekdayOpen":"00:00","weekdayClose":"23:59","weekendOpen":"00:00","weekendClose":"23:59","holidayOpen":"00:00","holidayClose":"23:59","feeInfo":"무료","phone":"055-530-1723","updatedAt":"2025-11-22","sido":"경상남도","sigungu":"창녕군","dong":"창녕읍"},{"name":"신촌마을 마을안길 회차로 주차장","type":"공영","category":"노외","address":"경상남도 창녕군 길곡면 신촌2길 6","lat":35.39063623,"lng":128.5426047,"totalSpaces":5,"isFree":true,"operatingDays":"평일+토요일+공휴일","weekdayOpen":"00:00","weekdayClose":"23:59","weekendOpen":"00:00","weekendClose":"23:59","holidayOpen":"00:00","holidayClose":"23:59","feeInfo":"무료","phone":"055-530-1723","updatedAt":"2025-11-22","sido":"경상남도","sigungu":"창녕군","dong":"길곡면"},{"name":"말흘리 공동주차장","type":"공영","category":"노외","address":"경상남도 창녕군 창녕읍 말흘리 154","lat":35.53883689,"lng":128.5025505,"totalSpaces":5,"isFree":true,"operatingDays":"평일+토요일+공휴일","weekdayOpen":"00:00","weekdayClose":"23:59","weekendOpen":"00:00","weekendClose":"23:59","holidayOpen":"00:00","holidayClose":"23:59","feeInfo":"무료","phone":"055-530-1723","updatedAt":"2025-11-22","sido":"경상남도","sigungu":"창녕군","dong":"창녕읍"},{"name":"술정리 주차장","type":"공영","category":"노외","address":"경상남도 창녕군 창녕읍 술정리 164-1","lat":35.53696971,"lng":128.4951472,"totalSpaces":5,"isFree":true,"operatingDays":"평일+토요일+공휴일","weekdayOpen":"00:00","weekdayClose":"23:59","weekendOpen":"00:00","weekendClose":"23:59","holidayOpen":"00:00","holidayClose":"23:59","feeInfo":"무료","phone":"055-530-1723","updatedAt":"2025-11-22","sido":"경상남도","sigungu":"창녕군","dong":"창녕읍"},{"name":"남지읍사무소 뒤(삭제)","type":"공영","category":"노외","address":"경상남도 창녕군 남지읍 백암길 10-4","lat":35.38980727,"lng":128.4767453,"totalSpaces":4,"isFree":true,"operatingDays":"평일+토요일+공휴일","weekdayOpen":"00:00","weekdayClose":"23:59","weekendOpen":"00:00","weekendClose":"23:59","holidayOpen":"00:00","holidayClose":"23:59","feeInfo":"무료","phone":"055-530-1723","updatedAt":"2025-11-22","sido":"경상남도","sigungu":"창녕군","dong":"남지읍"},{"name":"사창마을 공용주차장","type":"공영","category":"노외","address":"경상남도 창녕군 부곡면 사창리 449","lat":35.43101922,"lng":128.5927779,"totalSpaces":3,"isFree":true,"operatingDays":"평일+토요일+공휴일","weekdayOpen":"00:00","weekdayClose":"23:59","weekendOpen":"00:00","weekendClose":"23:59","holidayOpen":"00:00","holidayClose":"23:59","feeInfo":"무료","phone":"055-530-1723","updatedAt":"2025-11-22","sido":"경상남도","sigungu":"창녕군","dong":"부곡면"},{"name":"냉천마을 공동주차장","type":"공영","category":"노외","address":"경상남도 창녕군 성산면 성산로 236","lat":35.6284534,"lng":128.4929105,"totalSpaces":3,"isFree":true,"operatingDays":"평일+토요일+공휴일","weekdayOpen":"00:00","weekdayClose":"23:59","weekendOpen":"00:00","weekendClose":"23:59","holidayOpen":"00:00","holidayClose":"23:59","feeInfo":"무료","phone":"055-530-1723","updatedAt":"2025-11-22","sido":"경상남도","sigungu":"창녕군","dong":"성산면"},{"name":"말흘리 공동주차장","type":"공영","category":"노외","address":"경상남도 창녕군 창녕읍 말흘리 153","lat":35.53867869,"lng":128.502617,"totalSpaces":3,"isFree":true,"operatingDays":"평일+토요일+공휴일","weekdayOpen":"00:00","weekdayClose":"23:59","weekendOpen":"00:00","weekendClose":"23:59","holidayOpen":"00:00","holidayClose":"23:59","feeInfo":"무료","phone":"055-530-1723","updatedAt":"2025-11-22","sido":"경상남도","sigungu":"창녕군","dong":"창녕읍"}]}