{"sido":"경상남도","sigungu":"통영시","totalCount":47,"validCount":47,"items":[{"name":"안정주차장","type":"공영","category":"노외","address":"경상남도 통영시 광도면 황리 1645-2","lat":34.95814497,"lng":128.4207474,"totalSpaces":519,"isFree":true,"operatingDays":"평일+토요일+공휴일","weekdayOpen":"00:00","weekdayClose":"23:59","weekendOpen":"00:00","weekendClose":"23:59","holidayOpen":"00:00","holidayClose":"23:59","feeInfo":"무료","phone":"055-650-5335","updatedAt":"2025-12-17","sido":"경상남도","sigungu":"통영시","dong":"광도면"},{"name":"미륵공원주차장","type":"공영","category":"노외","address":"경상남도 통영시 도남동 307-1","lat":34.82518465,"lng":128.4240782,"totalSpaces":383,"isFree":true,"operatingDays":"평일+토요일+공휴일","weekdayOpen":"00:00","weekdayClose":"23:59","weekendOpen":"00:00","weekendClose":"23:59","holidayOpen":"00:00","holidayClose":"23:59","feeInfo":"무료","phone":"055-650-5335","updatedAt":"2025-12-17","sido":"경상남도","sigungu":"통영시","dong":"도남동"},{"name":"해양공원주차장","type":"공영","category":"노외","address":"경상남도 통영시 미수동 913-22","lat":34.82984394,"lng":128.4060523,"totalSpaces":80,"isFree":true,"operatingDays":"평일+토요일+공휴일","weekdayOpen":"09:00","weekdayClose":"23:59","weekendOpen":"09:00","weekendClose":"23:59","holidayOpen":"09:00","holidayClose":"23:59","feeInfo":"무료","phone":"055-650-1414","updatedAt":"2025-12-17","sido":"경상남도","sigungu":"통영시","dong":"미수동"},{"name":"충무체육관주차장","type":"공영","category":"노외","address":"경상남도 통영시 북신동 80-1","lat":34.8510953,"lng":128.4289366,"totalSpaces":52,"isFree":true,"operatingDays":"평일+토요일","weekdayOpen":"00:00","weekdayClose":"23:59","weekendOpen":"00:00","weekendClose":"23:59","holidayOpen":"00:00","holidayClose":"00:00","feeInfo":"무료","phone":"055-650-5335","updatedAt":"2025-12-17","sido":"경상남도","sigungu":"통영시","dong":"북신동"},{"name":"정량노상주차장","type":"공영","category":"노상","address":"경상남도 통영시 정량동 1394","lat":34.84450995,"lng":128.431449,"totalSpaces":50,"isFree":true,"operatingDays":"평일+토요일+공휴일","weekdayOpen":"00:00","weekdayClose":"23:59","weekendOpen":"00:00","weekendClose":"23:59","holidayOpen":"00:00","holidayClose":"23:59","feeInfo":"무료","phone":"055-650-5335","updatedAt":"2025-12-17","sido":"경상남도","sigungu":"통영시","dong":"정량동"},{"name":"동호주차장","type":"공영","category":"노외","address":"경상남도 통영시 동호동 315","lat":34.84152026,"lng":128.4315429,"totalSpaces":47,"isFree":true,"operatingDays":"평일+토요일+공휴일","weekdayOpen":"00:00","weekdayClose":"23:59","weekendOpen":"00:00","weekendClose":"23:59","holidayOpen":"00:00","holidayClose":"23:59","feeInfo":"무료","phone":"055-650-5335","updatedAt":"2025-12-17","sido":"경상남도","sigungu":"통영시","dong":"동호동"},{"name":"인평동주차장","type":"공영","category":"노상","address":"경상남도 통영시 인평동 380-2","lat":34.8402724,"lng":128.3956726,"totalSpaces":44,"isFree":true,"operatingDays":"평일+토요일+공휴일","weekdayOpen":"00:00","weekdayClose":"23:59","weekendOpen":"00:00","weekendClose":"23:59","holidayOpen":"00:00","holidayClose":"23:59","feeInfo":"무료","phone":"055-650-5335","updatedAt":"2025-12-17","sido":"경상남도","sigungu":"통영시","dong":"인평동"},{"name":"내죽도공원 제2 노상주차장","type":"공영","category":"노상","address":"경상남도 통영시 광도면 죽림리 1574-66","lat":34.88020968,"lng":128.422164,"totalSpaces":39,"isFree":true,"operatingDays":"평일+토요일+공휴일","weekdayOpen":"00:00","weekdayClose":"23:59","weekendOpen":"00:00","weekendClose":"23:59","holidayOpen":"00:00","holidayClose":"23:59","feeInfo":"무료","phone":"055-650-5335","updatedAt":"2025-12-17","sido":"경상남도","sigungu":"통영시","dong":"광도면"},{"name":"정량복개천주차장","type":"공영","category":"노상","address":"경상남도 통영시 정량동 1346-6","lat":34.84595248,"lng":128.4323735,"totalSpaces":39,"isFree":true,"operatingDays":"평일+토요일+공휴일","weekdayOpen":"00:00","weekdayClose":"23:59","weekendOpen":"00:00","weekendClose":"23:59","holidayOpen":"00:00","holidayClose":"23:59","feeInfo":"무료","phone":"055-650-5335","updatedAt":"2025-12-17","sido":"경상남도","sigungu":"통영시","dong":"정량동"},{"name":"무전골프장앞주차장","type":"공영","category":"노외","address":"경상남도 통영시 무전동 244-2","lat":34.85575784,"lng":128.4356966,"totalSpaces":37,"isFree":true,"operatingDays":"평일+토요일+공휴일","weekdayOpen":"00:00","weekdayClose":"23:59","weekendOpen":"00:00","weekendClose":"23:59","holidayOpen":"00:00","holidayClose":"23:59","feeInfo":"무료","phone":"055-650-5335","updatedAt":"2025-12-17","sido":"경상남도","sigungu":"통영시","dong":"무전동"},{"name":"죽림공영임시주차장","type":"공영","category":"노외","address":"경상남도 통영시 광도면 죽림리 1564","lat":34.88934348,"lng":128.4187853,"totalSpaces":33,"isFree":true,"operatingDays":"평일+토요일+공휴일","weekdayOpen":"00:00","weekdayClose":"23:59","weekendOpen":"00:00","weekendClose":"23:59","holidayOpen":"00:00","holidayClose":"23:59","feeInfo":"무료","phone":"055-650-5335","updatedAt":"2025-12-17","sido":"경상남도","sigungu":"통영시","dong":"광도면"},{"name":"청마문학관주차장","type":"공영","category":"노외","address":"경상남도 통영시 정량동 1396-1","lat":34.84461551,"lng":128.4348633,"totalSpaces":29,"isFree":true,"operatingDays":"평일+토요일+공휴일","weekdayOpen":"00:00","weekdayClose":"23:59","weekendOpen":"00:00","weekendClose":"23:59","holidayOpen":"00:00","holidayClose":"23:59","feeInfo":"무료","phone":"055-650-2661","updatedAt":"2025-12-17","sido":"경상남도","sigungu":"통영시","dong":"정량동"},{"name":"용문주차장","type":"공영","category":"노외","address":"경상남도 통영시 당동 1-3","lat":34.83609021,"lng":128.411698,"totalSpaces":29,"isFree":true,"operatingDays":"평일+토요일+공휴일","weekdayOpen":"00:00","weekdayClose":"23:59","weekendOpen":"00:00","weekendClose":"23:59","holidayOpen":"00:00","holidayClose":"23:59","feeInfo":"무료","phone":"055-650-5335","updatedAt":"2025-12-17","sido":"경상남도","sigungu":"통영시","dong":"당동"},{"name":"용화사광장밑주차장","type":"공영","category":"노외","address":"경상남도 통영시 봉평동 288","lat":34.8229012,"lng":128.415102,"totalSpaces":29,"isFree":true,"operatingDays":"평일+토요일+공휴일","weekdayOpen":"00:00","weekdayClose":"23:59","weekendOpen":"00:00","weekendClose":"23:59","holidayOpen":"00:00","holidayClose":"23:59","feeInfo":"무료","phone":"055-650-5335","updatedAt":"2025-12-17","sido":"경상남도","sigungu":"통영시","dong":"봉평동"},{"name":"정량 침사지 주차장","type":"공영","category":"노외","address":"경상남도 통영시 정량동 1407","lat":34.84464623,"lng":128.4340495,"totalSpaces":29,"isFree":true,"operatingDays":"평일+토요일+공휴일","weekdayOpen":"00:00","weekdayClose":"23:59","weekendOpen":"00:00","weekendClose":"23:59","holidayOpen":"00:00","holidayClose":"23:59","feeInfo":"무료","phone":"055-650-5335","updatedAt":"2025-12-17","sido":"경상남도","sigungu":"통영시","dong":"정량동"},{"name":"열무정주차장","type":"공영","category":"노외","address":"경상남도 통영시 동호동 304-7","lat":34.83952456,"lng":128.4299689,"totalSpaces":27,"isFree":true,"operatingDays":"평일+토요일+공휴일","weekdayOpen":"00:00","weekdayClose":"23:59","weekendOpen":"00:00","weekendClose":"23:59","holidayOpen":"00:00","holidayClose":"23:59","feeInfo":"무료","phone":"055-650-5335","updatedAt":"2025-12-17","sido":"경상남도","sigungu":"통영시","dong":"동호동"},{"name":"내죽도공원주차장","type":"공영","category":"노외","address":"경상남도 통영시 광도면 죽림리 1574-3","lat":34.88129712,"lng":128.4207613,"totalSpaces":20,"isFree":true,"operatingDays":"평일+토요일+공휴일","weekdayOpen":"00:00","weekdayClose":"23:59","weekendOpen":"00:00","weekendClose":"23:59","holidayOpen":"00:00","holidayClose":"23:59","feeInfo":"무료","phone":"055-650-1414","updatedAt":"2025-12-17","sido":"경상남도","sigungu":"통영시","dong":"광도면"},{"name":"내죽도공원 제1 노상주차장","type":"공영","category":"노상","address":"경상남도 통영시 광도면 죽림리 1574-42","lat":34.8811665,"lng":128.4190983,"totalSpaces":19,"isFree":true,"operatingDays":"평일+토요일+공휴일","weekdayOpen":"00:00","weekdayClose":"23:59","weekendOpen":"00:00","weekendClose":"23:59","holidayOpen":"00:00","holidayClose":"23:59","feeInfo":"무료","phone":"055-650-5335","updatedAt":"2025-12-17","sido":"경상남도","sigungu":"통영시","dong":"광도면"},{"name":"명정주차장","type":"공영","category":"노외","address":"경상남도 통영시 명정동 470-38","lat":34.84659034,"lng":128.4149812,"totalSpaces":15,"isFree":true,"operatingDays":"평일+토요일+공휴일","weekdayOpen":"00:00","weekdayClose":"23:59","weekendOpen":"00:00","weekendClose":"23:59","holidayOpen":"00:00","holidayClose":"23:59","feeInfo":"무료","phone":"055-650-5335","updatedAt":"2025-12-17","sido":"경상남도","sigungu":"통영시","dong":"명정동"},{"name":"착량묘앞주차장","type":"공영","category":"노외","address":"경상남도 통영시 당동 20-2","lat":34.83542627,"lng":128.4107703,"totalSpaces":11,"isFree":true,"operatingDays":"평일+토요일+공휴일","weekdayOpen":"00:00","weekdayClose":"23:59","weekendOpen":"00:00","weekendClose":"23:59","holidayOpen":"00:00","holidayClose":"23:59","feeInfo":"무료","phone":"055-650-5335","updatedAt":"2025-12-17","sido":"경상남도","sigungu":"통영시","dong":"당동"},{"name":"여객선터미널주차장","type":"민영","category":"노외","address":"경상남도 통영시 서호동 316","lat":34.8397931,"lng":128.4202281,"totalSpaces":455,"isFree":false,"operatingDays":"평일+토요일+공휴일","weekdayOpen":"05:00","weekdayClose":"22:00","weekendOpen":"05:00","weekendClose":"22:00","holidayOpen":"05:00","holidayClose":"22:00","feeInfo":"기본 30분 500원 / 추가 10분당 200원","phone":"055-254-4312","updatedAt":"2025-12-17","sido":"경상남도","sigungu":"통영시","dong":"서호동"},{"name":"이순신공원주차장","type":"공영","category":"노외","address":"경상남도 통영시 정량동 692-1","lat":34.84384752,"lng":128.4408691,"totalSpaces":238,"isFree":false,"operatingDays":"평일+토요일+공휴일","weekdayOpen":"09:00","weekdayClose":"18:00","weekendOpen":"09:00","weekendClose":"18:00","holidayOpen":"09:00","holidayClose":"18:00","feeInfo":"기본 30분 500원 / 추가 10분당 200원","phone":"055-650-1414","updatedAt":"2025-12-17","sido":"경상남도","sigungu":"통영시","dong":"정량동"},{"name":"유람선터미널주차장","type":"공영","category":"노외","address":"경상남도 통영시 도남동 635","lat":34.82831085,"lng":128.432905,"totalSpaces":207,"isFree":false,"operatingDays":"평일+토요일+공휴일","weekdayOpen":"07:00","weekdayClose":"19:00","weekendOpen":"07:00","weekendClose":"19:00","holidayOpen":"07:00","holidayClose":"19:00","feeInfo":"기본 30분 500원 / 추가 10분당 200원","phone":"055-650-0542","updatedAt":"2025-12-17","sido":"경상남도","sigungu":"통영시","dong":"도남동"},{"name":"중앙전통시장 주차장","type":"공영","category":"노외","address":"경상남도 통영시 문화동 159","lat":34.84584766,"lng":128.4232531,"totalSpaces":202,"isFree":false,"operatingDays":"평일+토요일+공휴일","weekdayOpen":"09:00","weekdayClose":"23:59","weekendOpen":"09:00","weekendClose":"23:59","holidayOpen":"09:00","holidayClose":"23:59","feeInfo":"기본 30분 500원 / 추가 10분당 200원","phone":"055-650-5213","updatedAt":"2025-12-17","sido":"경상남도","sigungu":"통영시","dong":"문화동"},{"name":"한산대첩광장주차장","type":"공영","category":"노외","address":"경상남도 통영시 항남동 129-2","lat":34.84040881,"lng":128.4246267,"totalSpaces":159,"isFree":false,"operatingDays":"평일+토요일+공휴일","weekdayOpen":"07:00","weekdayClose":"19:00","weekendOpen":"07:00","weekendClose":"19:00","holidayOpen":"07:00","holidayClose":"19:00","feeInfo":"기본 30분 500원 / 추가 10분당 200원","phone":"055-650-0542","updatedAt":"2025-12-17","sido":"경상남도","sigungu":"통영시","dong":"항남동"},{"name":"통제영주차장","type":"공영","category":"노외","address":"경상남도 통영시 문화동 109","lat":34.84686892,"lng":128.4237468,"totalSpaces":154,"isFree":false,"operatingDays":"평일+토요일+공휴일","weekdayOpen":"09:00","weekdayClose":"20:00","weekendOpen":"09:00","weekendClose":"20:00","holidayOpen":"09:00","holidayClose":"20:00","feeInfo":"기본 30분 500원 / 추가 10분당 200원","phone":"055-645-3805","updatedAt":"2025-12-17","sido":"경상남도","sigungu":"통영시","dong":"문화동"},{"name":"디피랑 3 (남망산조각공원밑주차장)","type":"공영","category":"노외","address":"경상남도 통영시 동호동 239-1","lat":34.84184256,"lng":128.4271016,"totalSpaces":123,"isFree":false,"operatingDays":"평일+토요일+공휴일","weekdayOpen":"09:00","weekdayClose":"19:00","weekendOpen":"09:00","weekendClose":"19:00","holidayOpen":"09:00","holidayClose":"19:00","feeInfo":"기본 30분 500원 / 추가 10분당 200원","phone":"055-650-5335","updatedAt":"2025-12-17","sido":"경상남도","sigungu":"통영시","dong":"동호동"},{"name":"북신전통시장 주차장","type":"공영","category":"노외","address":"경상남도 통영시 북신동 662-8","lat":34.8550285,"lng":128.4278626,"totalSpaces":87,"isFree":false,"operatingDays":"평일+토요일+공휴일","weekdayOpen":"09:00","weekdayClose":"23:59","weekendOpen":"09:00","weekendClose":"23:59","holidayOpen":"09:00","holidayClose":"23:59","feeInfo":"기본 30분 500원 / 추가 10분당 200원","phone":"055-650-5214","updatedAt":"2025-12-17","sido":"경상남도","sigungu":"통영시","dong":"북신동"},{"name":"용화사주차장","type":"공영","category":"노외","address":"경상남도 통영시 봉평동 358-1","lat":34.82217124,"lng":128.4143554,"totalSpaces":84,"isFree":false,"operatingDays":"평일+토요일+공휴일","weekdayOpen":"09:00","weekdayClose":"23:59","weekendOpen":"09:00","weekendClose":"23:59","holidayOpen":"09:00","holidayClose":"23:59","feeInfo":"기본 30분 500원 / 추가 10분당 200원","phone":"055-650-5335","updatedAt":"2025-12-17","sido":"경상남도","sigungu":"통영시","dong":"봉평동"},{"name":"미륵도횟집거리노상주차장","type":"공영","category":"노상","address":"경상남도 통영시 미수동 1-10","lat":34.83301073,"lng":128.4126729,"totalSpaces":78,"isFree":false,"operatingDays":"평일+토요일+공휴일","weekdayOpen":"09:00","weekdayClose":"23:59","weekendOpen":"09:00","weekendClose":"23:59","holidayOpen":"09:00","holidayClose":"23:59","feeInfo":"기본 30분 500원 / 추가 10분당 200원","phone":"055-650-5335","updatedAt":"2025-12-17","sido":"경상남도","sigungu":"통영시","dong":"미수동"},{"name":"디피랑 1(남망산주차장)","type":"공영","category":"노외","address":"경상남도 통영시 동호동 200","lat":34.84337096,"lng":128.4282503,"totalSpaces":78,"isFree":false,"operatingDays":"평일+토요일+공휴일","weekdayOpen":"09:00","weekdayClose":"19:00","weekendOpen":"09:00","weekendClose":"19:00","holidayOpen":"09:00","holidayClose":"19:00","feeInfo":"기본 30분 500원 / 추가 10분당 200원","phone":"055-650-5335","updatedAt":"2025-12-17","sido":"경상남도","sigungu":"통영시","dong":"동호동"},{"name":"무전제2주차장","type":"공영","category":"노외","address":"경상남도 통영시 무전동 1022","lat":34.85947816,"lng":128.4237735,"totalSpaces":75,"isFree":false,"operatingDays":"평일+토요일+공휴일","weekdayOpen":"09:00","weekdayClose":"19:00","weekendOpen":"09:00","weekendClose":"19:00","holidayOpen":"09:00","holidayClose":"19:00","feeInfo":"기본 30분 500원 / 추가 10분당 200원","phone":"055-650-5335","updatedAt":"2025-12-17","sido":"경상남도","sigungu":"통영시","dong":"무전동"},{"name":"미륵도공영주차장","type":"공영","category":"노외","address":"경상남도 통영시 봉평동 446","lat":34.83284101,"lng":128.4128347,"totalSpaces":67,"isFree":false,"operatingDays":"평일+토요일+공휴일","weekdayOpen":"09:00","weekdayClose":"23:59","weekendOpen":"09:00","weekendClose":"23:59","holidayOpen":"09:00","holidayClose":"23:59","feeInfo":"기본 30분 500원 / 추가 10분당 200원","phone":"055-650-5335","updatedAt":"2025-12-17","sido":"경상남도","sigungu":"통영시","dong":"봉평동"},{"name":"충렬사주차장","type":"공영","category":"노외","address":"경상남도 통영시 명정동 217-2","lat":34.84714751,"lng":128.4184868,"totalSpaces":62,"isFree":false,"operatingDays":"평일+토요일+공휴일","weekdayOpen":"09:00","weekdayClose":"18:00","weekendOpen":"09:00","weekendClose":"18:00","holidayOpen":"09:00","holidayClose":"18:00","feeInfo":"기본 30분 500원 / 추가 10분당 200원","phone":"055-645-3229","updatedAt":"2025-12-17","sido":"경상남도","sigungu":"통영시","dong":"명정동"},{"name":"도천동횟집거리주차장","type":"공영","category":"노상","address":"경상남도 통영시 도천동 997","lat":34.83689606,"lng":128.4136747,"totalSpaces":51,"isFree":false,"operatingDays":"평일+토요일+공휴일","weekdayOpen":"09:00","weekdayClose":"23:59","weekendOpen":"09:00","weekendClose":"23:59","holidayOpen":"09:00","holidayClose":"23:59","feeInfo":"기본 30분 500원 / 추가 10분당 200원","phone":"055-650-5335","updatedAt":"2025-12-17","sido":"경상남도","sigungu":"통영시","dong":"도천동"},{"name":"무전제1주차장","type":"공영","category":"노외","address":"경상남도 통영시 무전동 1035","lat":34.85906753,"lng":128.4277523,"totalSpaces":45,"isFree":false,"operatingDays":"평일+토요일+공휴일","weekdayOpen":"09:00","weekdayClose":"19:00","weekendOpen":"09:00","weekendClose":"19:00","holidayOpen":"09:00","holidayClose":"19:00","feeInfo":"기본 30분 500원 / 추가 10분당 200원","phone":"055-650-5335","updatedAt":"2025-12-17","sido":"경상남도","sigungu":"통영시","dong":"무전동"},{"name":"무전제3주차장","type":"공영","category":"노외","address":"경상남도 통영시 무전동 1057-18","lat":34.86101061,"lng":128.4237924,"totalSpaces":33,"isFree":false,"operatingDays":"평일+토요일+공휴일","weekdayOpen":"09:00","weekdayClose":"19:00","weekendOpen":"09:00","weekendClose":"19:00","holidayOpen":"09:00","holidayClose":"19:00","feeInfo":"기본 30분 500원 / 추가 10분당 200원","phone":"055-650-5335","updatedAt":"2025-12-17","sido":"경상남도","sigungu":"통영시","dong":"무전동"},{"name":"디피랑 2(시민문화회관밑주차장)","type":"공영","category":"노외","address":"경상남도 통영시 동호동 250","lat":34.84303273,"lng":128.4270239,"totalSpaces":30,"isFree":false,"operatingDays":"평일+토요일+공휴일","weekdayOpen":"09:00","weekdayClose":"19:00","weekendOpen":"09:00","weekendClose":"19:00","holidayOpen":"09:00","holidayClose":"19:00","feeInfo":"기본 30분 500원 / 추가 10분당 200원","phone":"055-650-5335","updatedAt":"2025-12-17","sido":"경상남도","sigungu":"통영시","dong":"동호동"},{"name":"서호벼락당주차장","type":"공영","category":"노외","address":"경상남도 통영시 서호동 139","lat":34.8431827,"lng":128.4202235,"totalSpaces":27,"isFree":false,"operatingDays":"평일+토요일+공휴일","weekdayOpen":"09:00","weekdayClose":"23:59","weekendOpen":"09:00","weekendClose":"23:59","holidayOpen":"09:00","holidayClose":"23:59","feeInfo":"기본 30분 500원 / 추가 10분당 200원","phone":"055-650-5335","updatedAt":"2025-12-17","sido":"경상남도","sigungu":"통영시","dong":"서호동"},{"name":"무전제4주차장","type":"공영","category":"노외","address":"경상남도 통영시 무전동 1061-6","lat":34.86118485,"lng":128.4255213,"totalSpaces":27,"isFree":false,"operatingDays":"평일+토요일+공휴일","weekdayOpen":"09:00","weekdayClose":"19:00","weekendOpen":"09:00","weekendClose":"19:00","holidayOpen":"09:00","holidayClose":"19:00","feeInfo":"기본 30분 500원 / 추가 10분당 200원","phone":"055-650-5335","updatedAt":"2025-12-17","sido":"경상남도","sigungu":"통영시","dong":"무전동"},{"name":"서호동노외주차장","type":"공영","category":"노외","address":"경상남도 통영시 서호동 163-23","lat":34.84278999,"lng":128.4194028,"totalSpaces":24,"isFree":false,"operatingDays":"평일+토요일+공휴일","weekdayOpen":"09:00","weekdayClose":"23:59","weekendOpen":"09:00","weekendClose":"23:59","holidayOpen":"09:00","holidayClose":"23:59","feeInfo":"기본 30분 500원 / 추가 10분당 200원","phone":"055-650-5335","updatedAt":"2025-12-17","sido":"경상남도","sigungu":"통영시","dong":"서호동"},{"name":"삼성생명앞주차장","type":"공영","category":"노상","address":"경상남도 통영시 북신동 678","lat":34.85710942,"lng":128.4283035,"totalSpaces":18,"isFree":false,"operatingDays":"평일+토요일+공휴일","weekdayOpen":"09:00","weekdayClose":"23:59","weekendOpen":"09:00","weekendClose":"23:59","holidayOpen":"09:00","holidayClose":"23:59","feeInfo":"기본 30분 500원 / 추가 10분당 200원","phone":"055-650-5335","updatedAt":"2025-12-17","sido":"경상남도","sigungu":"통영시","dong":"북신동"},{"name":"서호복개천주차장","type":"공영","category":"노외","address":"경상남도 통영시 서호동 301","lat":34.84252408,"lng":128.4188373,"totalSpaces":18,"isFree":false,"operatingDays":"평일+토요일+공휴일","weekdayOpen":"09:00","weekdayClose":"23:59","weekendOpen":"09:00","weekendClose":"23:59","holidayOpen":"09:00","holidayClose":"23:59","feeInfo":"기본 30분 500원 / 추가 10분당 200원","phone":"055-650-5335","updatedAt":"2025-12-17","sido":"경상남도","sigungu":"통영시","dong":"서호동"},{"name":"북신시장주차장","type":"공영","category":"노외","address":"경상남도 통영시 북신동 690","lat":34.85583524,"lng":128.4266091,"totalSpaces":18,"isFree":false,"operatingDays":"평일+토요일+공휴일","weekdayOpen":"09:00","weekdayClose":"23:59","weekendOpen":"09:00","weekendClose":"23:59","holidayOpen":"09:00","holidayClose":"23:59","feeInfo":"기본 30분 500원 / 추가 10분당 200원","phone":"055-650-5214","updatedAt":"2025-12-17","sido":"경상남도","sigungu":"통영시","dong":"북신동"},{"name":"항남주차장","type":"공영","category":"노외","address":"경상남도 통영시 항남동 240","lat":34.8414889,"lng":128.4225329,"totalSpaces":18,"isFree":false,"operatingDays":"평일+토요일+공휴일","weekdayOpen":"09:00","weekdayClose":"23:59","weekendOpen":"09:00","weekendClose":"23:59","holidayOpen":"09:00","holidayClose":"23:59","feeInfo":"기본 30분 500원 / 추가 10분당 200원","phone":"055-650-5335","updatedAt":"2025-12-17","sido":"경상남도","sigungu":"통영시","dong":"항남동"},{"name":"무전노상주차장","type":"공영","category":"노상","address":"경상남도 통영시 무전동 1051","lat":34.85865921,"lng":128.4285048,"totalSpaces":12,"isFree":false,"operatingDays":"평일+토요일+공휴일","weekdayOpen":"09:00","weekdayClose":"23:59","weekendOpen":"09:00","weekendClose":"23:59","holidayOpen":"09:00","holidayClose":"23:59","feeInfo":"기본 30분 500원 / 추가 10분당 200원","phone":"055-650-5335","updatedAt":"2025-12-17","sido":"경상남도","sigungu":"통영시","dong":"무전동"},{"name":"태평주차장","type":"공영","category":"노외","address":"경상남도 통영시 태평동 528-1","lat":34.84673374,"lng":128.4256216,"totalSpaces":12,"isFree":false,"operatingDays":"평일+토요일+공휴일","weekdayOpen":"00:00","weekdayClose":"23:59","weekendOpen":"00:00","weekendClose":"23:59","holidayOpen":"00:00","holidayClose":"23:59","feeInfo":"기본 30분 500원 / 추가 10분당 200원","phone":"055-650-5335","updatedAt":"2025-12-17","sido":"경상남도","sigungu":"통영시","dong":"태평동"}]}