{"sido":"경상남도","sigungu":"합천군","totalCount":184,"validCount":184,"items":[{"name":"주차광장_대장경테마파크7(각사주차장)","type":"공영","category":"부설","address":"경상남도 합천군 가야면 야천리 산100","lat":35.7675798,"lng":128.1331185,"totalSpaces":541,"isFree":true,"operatingDays":"평일+토요일+공휴일","weekdayOpen":"00:00","weekdayClose":"23:59","weekendOpen":"00:00","weekendClose":"23:59","holidayOpen":"00:00","holidayClose":"23:59","feeInfo":"무료","phone":"055-930-3373","updatedAt":"2025-11-28","sido":"경상남도","sigungu":"합천군","dong":"가야면"},{"name":"합천군청 1","type":"공영","category":"부설","address":"경상남도 합천군 합천읍 합천리 337","lat":35.56639436,"lng":128.166343,"totalSpaces":348,"isFree":true,"operatingDays":"평일+토요일+공휴일","weekdayOpen":"00:00","weekdayClose":"23:59","weekendOpen":"00:00","weekendClose":"23:59","holidayOpen":"00:00","holidayClose":"23:59","feeInfo":"무료","phone":"055-930-3373","updatedAt":"2025-11-28","sido":"경상남도","sigungu":"합천군","dong":"합천읍"},{"name":"황매산 오토캠핑","type":"공영","category":"부설","address":"경상남도 합천군 가회면 둔내리 산219-11","lat":35.48163664,"lng":127.9820476,"totalSpaces":262,"isFree":true,"operatingDays":"평일+토요일+공휴일","weekdayOpen":"00:00","weekdayClose":"23:59","weekendOpen":"00:00","weekendClose":"23:59","holidayOpen":"00:00","holidayClose":"23:59","feeInfo":"무료","phone":"055-930-3373","updatedAt":"2025-11-28","sido":"경상남도","sigungu":"합천군","dong":"가회면"},{"name":"황매산 은행나무주차장","type":"공영","category":"부설","address":"경상남도 합천군 가회면 둔내리 산219-16","lat":35.48698442,"lng":127.9856823,"totalSpaces":240,"isFree":true,"operatingDays":"평일+토요일+공휴일","weekdayOpen":"00:00","weekdayClose":"23:59","weekendOpen":"00:00","weekendClose":"23:59","holidayOpen":"00:00","holidayClose":"23:59","feeInfo":"무료","phone":"055-930-3373","updatedAt":"2025-11-28","sido":"경상남도","sigungu":"합천군","dong":"가회면"},{"name":"천일주차장","type":"공영","category":"노외","address":"경상남도 합천군 합천읍 합천리 1526","lat":35.5707791,"lng":128.1627263,"totalSpaces":200,"isFree":true,"operatingDays":"평일+토요일+공휴일","weekdayOpen":"00:00","weekdayClose":"23:59","weekendOpen":"00:00","weekendClose":"23:59","holidayOpen":"00:00","holidayClose":"23:59","feeInfo":"무료","phone":"055-930-3373","updatedAt":"2025-11-28","sido":"경상남도","sigungu":"합천군","dong":"합천읍"},{"name":"일해공원주차장","type":"공영","category":"부설","address":"경상남도 합천군 합천읍 합천리 925-2","lat":35.56088238,"lng":128.1533855,"totalSpaces":154,"isFree":true,"operatingDays":"평일+토요일+공휴일","weekdayOpen":"00:00","weekdayClose":"23:59","weekendOpen":"00:00","weekendClose":"23:59","holidayOpen":"00:00","holidayClose":"23:59","feeInfo":"무료","phone":"055-930-3373","updatedAt":"2025-11-28","sido":"경상남도","sigungu":"합천군","dong":"합천읍"},{"name":"분재공원 주차장","type":"공영","category":"부설","address":"경상남도 합천군 용주면 용지리 432-4","lat":35.5401928,"lng":128.112269,"totalSpaces":144,"isFree":true,"operatingDays":"평일+토요일+공휴일","weekdayOpen":"00:00","weekdayClose":"23:59","weekendOpen":"00:00","weekendClose":"23:59","holidayOpen":"00:00","holidayClose":"23:59","feeInfo":"무료","phone":"055-930-3373","updatedAt":"2025-11-28","sido":"경상남도","sigungu":"합천군","dong":"용주면"},{"name":"야로면 체육관","type":"공영","category":"부설","address":"경상남도 합천군 야로면 구정리 287-4","lat":35.704337,"lng":128.1674632,"totalSpaces":144,"isFree":true,"operatingDays":"평일+토요일+공휴일","weekdayOpen":"00:00","weekdayClose":"23:59","weekendOpen":"00:00","weekendClose":"23:59","holidayOpen":"00:00","holidayClose":"23:59","feeInfo":"무료","phone":"055-930-3373","updatedAt":"2025-11-28","sido":"경상남도","sigungu":"합천군","dong":"야로면"},{"name":"종합사회복지관","type":"공영","category":"부설","address":"경상남도 합천군 합천읍 합천리 524-1","lat":35.56792811,"lng":128.1567534,"totalSpaces":143,"isFree":true,"operatingDays":"평일+토요일+공휴일","weekdayOpen":"00:00","weekdayClose":"23:59","weekendOpen":"00:00","weekendClose":"23:59","holidayOpen":"00:00","holidayClose":"23:59","feeInfo":"무료","phone":"055-930-3373","updatedAt":"2025-11-28","sido":"경상남도","sigungu":"합천군","dong":"합천읍"},{"name":"영상테마파크 주차장 1","type":"공영","category":"부설","address":"경상남도 합천군 용주면 용지리 418","lat":35.5406942,"lng":128.1129601,"totalSpaces":137,"isFree":true,"operatingDays":"평일+토요일+공휴일","weekdayOpen":"00:00","weekdayClose":"23:59","weekendOpen":"00:00","weekendClose":"23:59","holidayOpen":"00:00","holidayClose":"23:59","feeInfo":"무료","phone":"055-930-3373","updatedAt":"2025-11-28","sido":"경상남도","sigungu":"합천군","dong":"용주면"},{"name":"야로시장주차장","type":"공영","category":"부설","address":"경상남도 합천군 야로면 구정리 274-1","lat":35.7057948,"lng":128.1684208,"totalSpaces":137,"isFree":true,"operatingDays":"평일+토요일+공휴일","weekdayOpen":"00:00","weekdayClose":"23:59","weekendOpen":"00:00","weekendClose":"23:59","holidayOpen":"00:00","holidayClose":"23:59","feeInfo":"무료","phone":"055-930-3373","updatedAt":"2025-11-28","sido":"경상남도","sigungu":"합천군","dong":"야로면"},{"name":"대장경 테마파크5","type":"공영","category":"부설","address":"경상남도 합천군 가야면 야천리 996","lat":35.76490907,"lng":128.1357768,"totalSpaces":133,"isFree":true,"operatingDays":"평일+토요일+공휴일","weekdayOpen":"00:00","weekdayClose":"23:59","weekendOpen":"00:00","weekendClose":"23:59","holidayOpen":"00:00","holidayClose":"23:59","feeInfo":"무료","phone":"055-930-3373","updatedAt":"2025-11-28","sido":"경상남도","sigungu":"합천군","dong":"가야면"},{"name":"월광공원","type":"공영","category":"부설","address":"경상남도 합천군 야로면 구정리 388-1","lat":35.7086048,"lng":128.1608265,"totalSpaces":125,"isFree":true,"operatingDays":"평일+토요일+공휴일","weekdayOpen":"00:00","weekdayClose":"23:59","weekendOpen":"00:00","weekendClose":"23:59","holidayOpen":"00:00","holidayClose":"23:59","feeInfo":"무료","phone":"055-930-3373","updatedAt":"2025-11-28","sido":"경상남도","sigungu":"합천군","dong":"야로면"},{"name":"영상테마파크 주차장 2","type":"공영","category":"부설","address":"경상남도 합천군 용주면 용지리 산12-5","lat":35.5408421,"lng":128.1167452,"totalSpaces":111,"isFree":true,"operatingDays":"평일+토요일+공휴일","weekdayOpen":"00:00","weekdayClose":"23:59","weekendOpen":"00:00","weekendClose":"23:59","holidayOpen":"00:00","holidayClose":"23:59","feeInfo":"무료","phone":"055-930-3373","updatedAt":"2025-11-28","sido":"경상남도","sigungu":"합천군","dong":"용주면"},{"name":"야로면사무소","type":"공영","category":"부설","address":"경상남도 합천군 야로면 구정리 290-1","lat":35.70521639,"lng":128.1676233,"totalSpaces":111,"isFree":true,"operatingDays":"평일+토요일+공휴일","weekdayOpen":"00:00","weekdayClose":"23:59","weekendOpen":"00:00","weekendClose":"23:59","holidayOpen":"00:00","holidayClose":"23:59","feeInfo":"무료","phone":"055-930-3373","updatedAt":"2025-11-28","sido":"경상남도","sigungu":"합천군","dong":"야로면"},{"name":"정양레포츠공원","type":"공영","category":"부설","address":"경상남도 합천군 대양면 정양리 613","lat":35.55822189,"lng":128.1655287,"totalSpaces":98,"isFree":true,"operatingDays":"평일+토요일+공휴일","weekdayOpen":"00:00","weekdayClose":"23:59","weekendOpen":"00:00","weekendClose":"23:59","holidayOpen":"00:00","holidayClose":"23:59","feeInfo":"무료","phone":"055-930-3373","updatedAt":"2025-11-28","sido":"경상남도","sigungu":"합천군","dong":"대양면"},{"name":"봉산 선착장","type":"공영","category":"부설","address":"경상남도 합천군 봉산면 김봉리 1","lat":35.62784763,"lng":128.0446772,"totalSpaces":94,"isFree":true,"operatingDays":"평일+토요일+공휴일","weekdayOpen":"00:00","weekdayClose":"23:59","weekendOpen":"00:00","weekendClose":"23:59","holidayOpen":"00:00","holidayClose":"23:59","feeInfo":"무료","phone":"055-930-3373","updatedAt":"2025-11-28","sido":"경상남도","sigungu":"합천군","dong":"봉산면"},{"name":"초계시장주차장2","type":"공영","category":"부설","address":"경상남도 합천군 초계면 초계리 117-1","lat":35.5588697,"lng":128.267139,"totalSpaces":87,"isFree":true,"operatingDays":"평일+토요일+공휴일","weekdayOpen":"00:00","weekdayClose":"23:59","weekendOpen":"00:00","weekendClose":"23:59","holidayOpen":"00:00","holidayClose":"23:59","feeInfo":"무료","phone":"055-930-3373","updatedAt":"2025-11-28","sido":"경상남도","sigungu":"합천군","dong":"초계면"},{"name":"모산재 주차장","type":"공영","category":"노외","address":"경상남도 합천군 가회면 둔내리 1731-5","lat":35.46888277,"lng":128.0019325,"totalSpaces":85,"isFree":true,"operatingDays":"평일+토요일+공휴일","weekdayOpen":"00:00","weekdayClose":"23:59","weekendOpen":"00:00","weekendClose":"23:59","holidayOpen":"00:00","holidayClose":"23:59","feeInfo":"무료","phone":"055-930-3373","updatedAt":"2025-11-28","sido":"경상남도","sigungu":"합천군","dong":"가회면"},{"name":"삼가면양천강제방주차장","type":"공영","category":"부설","address":"경상남도 합천군 삼가면 일부리 910-9","lat":35.41262473,"lng":128.1216313,"totalSpaces":83,"isFree":true,"operatingDays":"평일+토요일+공휴일","weekdayOpen":"00:00","weekdayClose":"23:59","weekendOpen":"00:00","weekendClose":"23:59","holidayOpen":"00:00","holidayClose":"23:59","feeInfo":"무료","phone":"055-930-3373","updatedAt":"2025-11-28","sido":"경상남도","sigungu":"합천군","dong":"삼가면"},{"name":"시장식육식당 ~ 한주A","type":"공영","category":"노상","address":"경상남도 합천군 합천읍 합천리 487-1","lat":35.56917614,"lng":128.1552383,"totalSpaces":81,"isFree":true,"operatingDays":"평일+토요일+공휴일","weekdayOpen":"00:00","weekdayClose":"23:59","weekendOpen":"00:00","weekendClose":"23:59","holidayOpen":"00:00","holidayClose":"23:59","feeInfo":"무료","phone":"055-930-3373","updatedAt":"2025-11-28","sido":"경상남도","sigungu":"합천군","dong":"합천읍"},{"name":"삼가브랜드육타운","type":"공영","category":"부설","address":"경상남도 합천군 삼가면 소오리 395-10","lat":35.41284885,"lng":128.1177755,"totalSpaces":80,"isFree":true,"operatingDays":"평일+토요일+공휴일","weekdayOpen":"00:00","weekdayClose":"23:59","weekendOpen":"00:00","weekendClose":"23:59","holidayOpen":"00:00","holidayClose":"23:59","feeInfo":"무료","phone":"055-930-3373","updatedAt":"2025-11-28","sido":"경상남도","sigungu":"합천군","dong":"삼가면"},{"name":"합천박물관","type":"공영","category":"부설","address":"경상남도 합천군 쌍책면 성산리 504","lat":35.58042227,"lng":128.2829415,"totalSpaces":77,"isFree":true,"operatingDays":"평일+토요일+공휴일","weekdayOpen":"00:00","weekdayClose":"23:59","weekendOpen":"00:00","weekendClose":"23:59","holidayOpen":"00:00","holidayClose":"23:59","feeInfo":"무료","phone":"055-930-3373","updatedAt":"2025-11-28","sido":"경상남도","sigungu":"합천군","dong":"쌍책면"},{"name":"합천군청 2청사","type":"공영","category":"부설","address":"경상남도 합천군 합천읍 합천리 790-1","lat":35.56633217,"lng":128.1576481,"totalSpaces":70,"isFree":true,"operatingDays":"평일+토요일+공휴일","weekdayOpen":"00:00","weekdayClose":"23:59","weekendOpen":"00:00","weekendClose":"23:59","holidayOpen":"00:00","holidayClose":"23:59","feeInfo":"무료","phone":"055-930-3373","updatedAt":"2025-11-28","sido":"경상남도","sigungu":"합천군","dong":"합천읍"},{"name":"문화예술회관 주차장","type":"공영","category":"부설","address":"경상남도 합천군 합천읍 합천리 129-5","lat":35.56480253,"lng":128.170505,"totalSpaces":66,"isFree":true,"operatingDays":"평일+토요일+공휴일","weekdayOpen":"00:00","weekdayClose":"23:59","weekendOpen":"00:00","weekendClose":"23:59","holidayOpen":"00:00","holidayClose":"23:59","feeInfo":"무료","phone":"055-930-3373","updatedAt":"2025-11-28","sido":"경상남도","sigungu":"합천군","dong":"합천읍"},{"name":"농업기술센터","type":"공영","category":"부설","address":"경상남도 합천군 합천읍 합천리 863-1","lat":35.5619031,"lng":128.1595912,"totalSpaces":66,"isFree":true,"operatingDays":"평일+토요일+공휴일","weekdayOpen":"00:00","weekdayClose":"23:59","weekendOpen":"00:00","weekendClose":"23:59","holidayOpen":"00:00","holidayClose":"23:59","feeInfo":"무료","phone":"055-930-3373","updatedAt":"2025-11-28","sido":"경상남도","sigungu":"합천군","dong":"합천읍"},{"name":"합천박물관 힐링센터","type":"공영","category":"부설","address":"경상남도 합천군 쌍책면 성산리 50","lat":35.57493481,"lng":128.2848024,"totalSpaces":65,"isFree":true,"operatingDays":"평일+토요일+공휴일","weekdayOpen":"00:00","weekdayClose":"23:59","weekendOpen":"00:00","weekendClose":"23:59","holidayOpen":"00:00","holidayClose":"23:59","feeInfo":"무료","phone":"055-930-3373","updatedAt":"2025-11-28","sido":"경상남도","sigungu":"합천군","dong":"쌍책면"},{"name":"덕만주차장","type":"공영","category":"노외","address":"경상남도 합천군 가회면 둔내리 산95-8","lat":35.48038249,"lng":128.0060306,"totalSpaces":60,"isFree":true,"operatingDays":"평일+토요일+공휴일","weekdayOpen":"00:00","weekdayClose":"23:59","weekendOpen":"00:00","weekendClose":"23:59","holidayOpen":"00:00","holidayClose":"23:59","feeInfo":"무료","phone":"055-930-3373","updatedAt":"2025-11-28","sido":"경상남도","sigungu":"합천군","dong":"가회면"},{"name":"대장경 테마파크6","type":"공영","category":"부설","address":"경상남도 합천군 가야면 야천리 987","lat":35.76471703,"lng":128.1369348,"totalSpaces":60,"isFree":true,"operatingDays":"평일+토요일+공휴일","weekdayOpen":"00:00","weekdayClose":"23:59","weekendOpen":"00:00","weekendClose":"23:59","holidayOpen":"00:00","holidayClose":"23:59","feeInfo":"무료","phone":"055-930-3373","updatedAt":"2025-11-28","sido":"경상남도","sigungu":"합천군","dong":"가야면"},{"name":"가야시장 주차장","type":"공영","category":"부설","address":"경상남도 합천군 가야면 황산리 282-1","lat":35.76094561,"lng":128.1374299,"totalSpaces":59,"isFree":true,"operatingDays":"평일+토요일+공휴일","weekdayOpen":"00:00","weekdayClose":"23:59","weekendOpen":"00:00","weekendClose":"23:59","holidayOpen":"00:00","holidayClose":"23:59","feeInfo":"무료","phone":"055-930-3373","updatedAt":"2025-11-28","sido":"경상남도","sigungu":"합천군","dong":"가야면"},{"name":"군민체육관 동편","type":"공영","category":"부설","address":"경상남도 합천군 합천읍 합천리 940-54","lat":35.56223258,"lng":128.1538105,"totalSpaces":57,"isFree":true,"operatingDays":"평일+토요일+공휴일","weekdayOpen":"00:00","weekdayClose":"23:59","weekendOpen":"00:00","weekendClose":"23:59","holidayOpen":"00:00","holidayClose":"23:59","feeInfo":"무료","phone":"055-930-3373","updatedAt":"2025-11-28","sido":"경상남도","sigungu":"합천군","dong":"합천읍"},{"name":"삼가면체육공원부설주차장","type":"공영","category":"부설","address":"경상남도 합천군 삼가면 소오리 49","lat":35.40791149,"lng":128.1214551,"totalSpaces":55,"isFree":true,"operatingDays":"평일+토요일+공휴일","weekdayOpen":"00:00","weekdayClose":"23:59","weekendOpen":"00:00","weekendClose":"23:59","holidayOpen":"00:00","holidayClose":"23:59","feeInfo":"무료","phone":"055-930-3373","updatedAt":"2025-11-28","sido":"경상남도","sigungu":"합천군","dong":"삼가면"},{"name":"삼가면사무소주차장","type":"공영","category":"부설","address":"경상남도 합천군 삼가면 금리 62-6","lat":35.41415572,"lng":128.1217157,"totalSpaces":54,"isFree":true,"operatingDays":"평일+토요일+공휴일","weekdayOpen":"00:00","weekdayClose":"23:59","weekendOpen":"00:00","weekendClose":"23:59","holidayOpen":"00:00","holidayClose":"23:59","feeInfo":"무료","phone":"055-930-3373","updatedAt":"2025-11-28","sido":"경상남도","sigungu":"합천군","dong":"삼가면"},{"name":"가야 황산주차장","type":"공영","category":"노외","address":"경상남도 합천군 가야면 황산리 504-9","lat":35.77510291,"lng":128.1261044,"totalSpaces":53,"isFree":true,"operatingDays":"평일+토요일+공휴일","weekdayOpen":"00:00","weekdayClose":"23:59","weekendOpen":"00:00","weekendClose":"23:59","holidayOpen":"00:00","holidayClose":"23:59","feeInfo":"무료","phone":"055-930-3373","updatedAt":"2025-11-28","sido":"경상남도","sigungu":"합천군","dong":"가야면"},{"name":"초계대공원","type":"공영","category":"부설","address":"경상남도 합천군 초계면 초계리 23-1","lat":35.55657331,"lng":128.2719213,"totalSpaces":52,"isFree":true,"operatingDays":"평일+토요일+공휴일","weekdayOpen":"00:00","weekdayClose":"23:59","weekendOpen":"00:00","weekendClose":"23:59","holidayOpen":"00:00","holidayClose":"23:59","feeInfo":"무료","phone":"055-930-3373","updatedAt":"2025-11-28","sido":"경상남도","sigungu":"합천군","dong":"초계면"},{"name":"대장경 테마파크4","type":"공영","category":"부설","address":"경상남도 합천군 가야면 야천리 896","lat":35.76708836,"lng":128.1319281,"totalSpaces":52,"isFree":true,"operatingDays":"평일+토요일+공휴일","weekdayOpen":"00:00","weekdayClose":"23:59","weekendOpen":"00:00","weekendClose":"23:59","holidayOpen":"00:00","holidayClose":"23:59","feeInfo":"무료","phone":"055-930-3373","updatedAt":"2025-11-28","sido":"경상남도","sigungu":"합천군","dong":"가야면"},{"name":"초계시장주차장1","type":"공영","category":"부설","address":"경상남도 합천군 초계면 초계리 47","lat":35.5602138,"lng":128.2678036,"totalSpaces":51,"isFree":true,"operatingDays":"평일+토요일+공휴일","weekdayOpen":"00:00","weekdayClose":"23:59","weekendOpen":"00:00","weekendClose":"23:59","holidayOpen":"00:00","holidayClose":"23:59","feeInfo":"무료","phone":"055-930-3373","updatedAt":"2025-11-28","sido":"경상남도","sigungu":"합천군","dong":"초계면"},{"name":"2청사 주변 공영주차장","type":"공영","category":"노외","address":"경상남도 합천군 합천읍 합천리 799-2","lat":35.5659645,"lng":128.157082,"totalSpaces":50,"isFree":true,"operatingDays":"평일+토요일+공휴일","weekdayOpen":"00:00","weekdayClose":"23:59","weekendOpen":"00:00","weekendClose":"23:59","holidayOpen":"00:00","holidayClose":"23:59","feeInfo":"무료","phone":"055-930-3373","updatedAt":"2025-11-28","sido":"경상남도","sigungu":"합천군","dong":"합천읍"},{"name":"황매산 가족형 주차장","type":"공영","category":"부설","address":"경상남도 합천군 가회면 둔내리 1373-1","lat":35.48311046,"lng":127.9993622,"totalSpaces":50,"isFree":true,"operatingDays":"평일+토요일+공휴일","weekdayOpen":"00:00","weekdayClose":"23:59","weekendOpen":"00:00","weekendClose":"23:59","holidayOpen":"00:00","holidayClose":"23:59","feeInfo":"무료","phone":"055-930-3373","updatedAt":"2025-11-28","sido":"경상남도","sigungu":"합천군","dong":"가회면"},{"name":"합천읍사무소","type":"공영","category":"부설","address":"경상남도 합천군 합천읍 합천리 789","lat":35.56582793,"lng":128.1578168,"totalSpaces":50,"isFree":true,"operatingDays":"평일+토요일+공휴일","weekdayOpen":"00:00","weekdayClose":"23:59","weekendOpen":"00:00","weekendClose":"23:59","holidayOpen":"00:00","holidayClose":"23:59","feeInfo":"무료","phone":"055-930-3373","updatedAt":"2025-11-28","sido":"경상남도","sigungu":"합천군","dong":"합천읍"},{"name":"공설운동장 앞 주차장","type":"공영","category":"부설","address":"경상남도 합천군 합천읍 합천리 923-1","lat":35.56154375,"lng":128.1533466,"totalSpaces":49,"isFree":true,"operatingDays":"평일+토요일+공휴일","weekdayOpen":"00:00","weekdayClose":"23:59","weekendOpen":"00:00","weekendClose":"23:59","holidayOpen":"00:00","holidayClose":"23:59","feeInfo":"무료","phone":"055-930-3373","updatedAt":"2025-11-28","sido":"경상남도","sigungu":"합천군","dong":"합천읍"},{"name":"청덕수변생태공원","type":"공영","category":"부설","address":"경상남도 합천군 청덕면 가현리 55-2","lat":35.57062499,"lng":128.3422842,"totalSpaces":45,"isFree":true,"operatingDays":"평일+토요일+공휴일","weekdayOpen":"00:00","weekdayClose":"23:59","weekendOpen":"00:00","weekendClose":"23:59","holidayOpen":"00:00","holidayClose":"23:59","feeInfo":"무료","phone":"055-930-3373","updatedAt":"2025-11-28","sido":"경상남도","sigungu":"합천군","dong":"청덕면"},{"name":"초계문화복지회관","type":"공영","category":"부설","address":"경상남도 합천군 초계면 초계리 26-3","lat":35.5579296,"lng":128.2683299,"totalSpaces":45,"isFree":true,"operatingDays":"평일+토요일+공휴일","weekdayOpen":"00:00","weekdayClose":"23:59","weekendOpen":"00:00","weekendClose":"23:59","holidayOpen":"00:00","holidayClose":"23:59","feeInfo":"무료","phone":"055-930-3373","updatedAt":"2025-11-28","sido":"경상남도","sigungu":"합천군","dong":"초계면"},{"name":"합천군청 제2주차장","type":"공영","category":"부설","address":"경상남도 합천군 합천읍 합천리 331-1","lat":35.56592718,"lng":128.1649134,"totalSpaces":44,"isFree":true,"operatingDays":"평일+토요일+공휴일","weekdayOpen":"00:00","weekdayClose":"23:59","weekendOpen":"00:00","weekendClose":"23:59","holidayOpen":"00:00","holidayClose":"23:59","feeInfo":"무료","phone":"055-930-3373","updatedAt":"2025-11-28","sido":"경상남도","sigungu":"합천군","dong":"합천읍"},{"name":"합천약국 ~ 우체국 오거리","type":"공영","category":"노상","address":"경상남도 합천군 합천읍 합천리 728-1","lat":35.56677788,"lng":128.1592842,"totalSpaces":42,"isFree":true,"operatingDays":"평일+토요일+공휴일","weekdayOpen":"00:00","weekdayClose":"23:59","weekendOpen":"00:00","weekendClose":"23:59","holidayOpen":"00:00","holidayClose":"23:59","feeInfo":"무료","phone":"055-930-3373","updatedAt":"2025-11-28","sido":"경상남도","sigungu":"합천군","dong":"합천읍"},{"name":"초계면소재지 주거지주차장(구.농어촌공사)","type":"공영","category":"노외","address":"경상남도 합천군 초계면 아막리 75","lat":35.5587957,"lng":128.2709173,"totalSpaces":40,"isFree":true,"operatingDays":"평일+토요일+공휴일","weekdayOpen":"00:00","weekdayClose":"23:59","weekendOpen":"00:00","weekendClose":"23:59","holidayOpen":"00:00","holidayClose":"23:59","feeInfo":"무료","phone":"055-930-3373","updatedAt":"2025-11-28","sido":"경상남도","sigungu":"합천군","dong":"초계면"},{"name":"용주면사무소","type":"공영","category":"부설","address":"경상남도 합천군 용주면 용지리 418-1","lat":35.5406942,"lng":128.1129601,"totalSpaces":40,"isFree":true,"operatingDays":"평일+토요일+공휴일","weekdayOpen":"00:00","weekdayClose":"23:59","weekendOpen":"00:00","weekendClose":"23:59","holidayOpen":"00:00","holidayClose":"23:59","feeInfo":"무료","phone":"055-930-3373","updatedAt":"2025-11-28","sido":"경상남도","sigungu":"합천군","dong":"용주면"},{"name":"새터관광지","type":"공영","category":"부설","address":"경상남도 합천군 봉산면 김봉리 450-1","lat":35.6293648,"lng":128.0437612,"totalSpaces":40,"isFree":true,"operatingDays":"평일+토요일+공휴일","weekdayOpen":"00:00","weekdayClose":"23:59","weekendOpen":"00:00","weekendClose":"23:59","holidayOpen":"00:00","holidayClose":"23:59","feeInfo":"무료","phone":"055-930-3373","updatedAt":"2025-11-28","sido":"경상남도","sigungu":"합천군","dong":"봉산면"},{"name":"합천시네마","type":"공영","category":"부설","address":"경상남도 합천군 합천읍 합천리 516-1","lat":35.56781477,"lng":128.1573936,"totalSpaces":38,"isFree":true,"operatingDays":"평일+토요일+공휴일","weekdayOpen":"00:00","weekdayClose":"23:59","weekendOpen":"00:00","weekendClose":"23:59","holidayOpen":"00:00","holidayClose":"23:59","feeInfo":"무료","phone":"055-930-3373","updatedAt":"2025-11-28","sido":"경상남도","sigungu":"합천군","dong":"합천읍"},{"name":"농업기술센터옆 주차장(SK주유소 맞은편)","type":"공영","category":"노외","address":"경상남도 합천군 합천읍 합천리 875-2","lat":35.56295359,"lng":128.1600682,"totalSpaces":38,"isFree":true,"operatingDays":"평일+토요일+공휴일","weekdayOpen":"00:00","weekdayClose":"23:59","weekendOpen":"00:00","weekendClose":"23:59","holidayOpen":"00:00","holidayClose":"23:59","feeInfo":"무료","phone":"055-930-3373","updatedAt":"2025-11-28","sido":"경상남도","sigungu":"합천군","dong":"합천읍"},{"name":"주차광장_삼가면 일부리(백일정미소 옆)공영주차장","type":"공영","category":"노외","address":"경상남도 합천군 삼가면 일부리 747-5","lat":35.41135373,"lng":128.1230803,"totalSpaces":35,"isFree":true,"operatingDays":"평일+토요일+공휴일","weekdayOpen":"00:00","weekdayClose":"23:59","weekendOpen":"00:00","weekendClose":"23:59","holidayOpen":"00:00","holidayClose":"23:59","feeInfo":"무료","phone":"055-930-3373","updatedAt":"2025-11-28","sido":"경상남도","sigungu":"합천군","dong":"삼가면"},{"name":"쌍책면사무소","type":"공영","category":"부설","address":"경상남도 합천군 쌍책면 성산리 62","lat":35.5747035,"lng":128.286894,"totalSpaces":35,"isFree":true,"operatingDays":"평일+토요일+공휴일","weekdayOpen":"00:00","weekdayClose":"23:59","weekendOpen":"00:00","weekendClose":"23:59","holidayOpen":"00:00","holidayClose":"23:59","feeInfo":"무료","phone":"055-930-3373","updatedAt":"2025-11-28","sido":"경상남도","sigungu":"합천군","dong":"쌍책면"},{"name":"회양관광단지 주차장2(관리사무소위)","type":"공영","category":"부설","address":"경상남도 합천군 대병면 회양리 700-6","lat":35.52276044,"lng":128.0169205,"totalSpaces":34,"isFree":true,"operatingDays":"평일+토요일+공휴일","weekdayOpen":"00:00","weekdayClose":"23:59","weekendOpen":"00:00","weekendClose":"23:59","holidayOpen":"00:00","holidayClose":"23:59","feeInfo":"무료","phone":"055-930-3373","updatedAt":"2025-11-28","sido":"경상남도","sigungu":"합천군","dong":"대병면"},{"name":"삼가시장주차장","type":"공영","category":"부설","address":"경상남도 합천군 삼가면 일부리 908-1","lat":35.41202441,"lng":128.1231136,"totalSpaces":34,"isFree":true,"operatingDays":"평일+토요일+공휴일","weekdayOpen":"00:00","weekdayClose":"23:59","weekendOpen":"00:00","weekendClose":"23:59","holidayOpen":"00:00","holidayClose":"23:59","feeInfo":"무료","phone":"055-930-3373","updatedAt":"2025-11-28","sido":"경상남도","sigungu":"합천군","dong":"삼가면"},{"name":"정대동 공영주차장","type":"공영","category":"노외","address":"경상남도 합천군 합천읍 합천리 705-5","lat":35.5649604,"lng":128.1598159,"totalSpaces":34,"isFree":true,"operatingDays":"평일+토요일+공휴일","weekdayOpen":"00:00","weekdayClose":"23:59","weekendOpen":"00:00","weekendClose":"23:59","holidayOpen":"00:00","holidayClose":"23:59","feeInfo":"무료","phone":"055-930-3373","updatedAt":"2025-11-28","sido":"경상남도","sigungu":"합천군","dong":"합천읍"},{"name":"가야체육문화센터주차장","type":"공영","category":"부설","address":"경상남도 합천군 가야면 야천리 471-1","lat":35.76330977,"lng":128.1388078,"totalSpaces":33,"isFree":true,"operatingDays":"평일+토요일+공휴일","weekdayOpen":"00:00","weekdayClose":"23:59","weekendOpen":"00:00","weekendClose":"23:59","holidayOpen":"00:00","holidayClose":"23:59","feeInfo":"무료","phone":"055-930-3373","updatedAt":"2025-11-28","sido":"경상남도","sigungu":"합천군","dong":"가야면"},{"name":"삼가공영주차장(해인축산 옆)","type":"공영","category":"노외","address":"경상남도 합천군 삼가면 일부리 828","lat":35.413134,"lng":128.1241275,"totalSpaces":32,"isFree":true,"operatingDays":"평일+토요일+공휴일","weekdayOpen":"00:00","weekdayClose":"23:59","weekendOpen":"00:00","weekendClose":"23:59","holidayOpen":"00:00","holidayClose":"23:59","feeInfo":"무료","phone":"055-930-3373","updatedAt":"2025-11-28","sido":"경상남도","sigungu":"합천군","dong":"삼가면"},{"name":"봉산체육공원","type":"공영","category":"부설","address":"경상남도 합천군 봉산면 김봉리 1","lat":35.62784763,"lng":128.0446772,"totalSpaces":32,"isFree":true,"operatingDays":"평일+토요일+공휴일","weekdayOpen":"00:00","weekdayClose":"23:59","weekendOpen":"00:00","weekendClose":"23:59","holidayOpen":"00:00","holidayClose":"23:59","feeInfo":"무료","phone":"055-930-3373","updatedAt":"2025-11-28","sido":"경상남도","sigungu":"합천군","dong":"봉산면"},{"name":"청덕면사무소","type":"공영","category":"부설","address":"경상남도 합천군 청덕면 두곡리 374-1","lat":35.5599961,"lng":128.3172314,"totalSpaces":31,"isFree":true,"operatingDays":"평일+토요일+공휴일","weekdayOpen":"00:00","weekdayClose":"23:59","weekendOpen":"00:00","weekendClose":"23:59","holidayOpen":"00:00","holidayClose":"23:59","feeInfo":"무료","phone":"055-930-3373","updatedAt":"2025-11-28","sido":"경상남도","sigungu":"합천군","dong":"청덕면"},{"name":"합천군청 생활관 1","type":"공영","category":"부설","address":"경상남도 합천군 합천읍 합천리 1281-3","lat":35.56963625,"lng":128.1524887,"totalSpaces":31,"isFree":true,"operatingDays":"평일+토요일+공휴일","weekdayOpen":"00:00","weekdayClose":"23:59","weekendOpen":"00:00","weekendClose":"23:59","holidayOpen":"00:00","holidayClose":"23:59","feeInfo":"무료","phone":"055-930-3373","updatedAt":"2025-11-28","sido":"경상남도","sigungu":"합천군","dong":"합천읍"},{"name":"초계면 중리 공영주차장","type":"공영","category":"노외","address":"경상남도 합천군 초계면 초계리 110","lat":35.5591714,"lng":128.266315,"totalSpaces":30,"isFree":true,"operatingDays":"평일+토요일+공휴일","weekdayOpen":"00:00","weekdayClose":"23:59","weekendOpen":"00:00","weekendClose":"23:59","holidayOpen":"00:00","holidayClose":"23:59","feeInfo":"무료","phone":"055-930-3373","updatedAt":"2025-11-28","sido":"경상남도","sigungu":"합천군","dong":"초계면"},{"name":"축구장 주차장","type":"공영","category":"부설","address":"경상남도 합천군 초계면 초계리 33-4","lat":35.55657331,"lng":128.2719213,"totalSpaces":30,"isFree":true,"operatingDays":"평일+토요일+공휴일","weekdayOpen":"00:00","weekdayClose":"23:59","weekendOpen":"00:00","weekendClose":"23:59","holidayOpen":"00:00","holidayClose":"23:59","feeInfo":"무료","phone":"055-930-3373","updatedAt":"2025-11-28","sido":"경상남도","sigungu":"합천군","dong":"초계면"},{"name":"묘산면사무소","type":"공영","category":"부설","address":"경상남도 합천군 묘산면 산제리 37-3","lat":35.65840704,"lng":128.1130271,"totalSpaces":30,"isFree":true,"operatingDays":"평일+토요일+공휴일","weekdayOpen":"00:00","weekdayClose":"23:59","weekendOpen":"00:00","weekendClose":"23:59","holidayOpen":"00:00","holidayClose":"23:59","feeInfo":"무료","phone":"055-930-3373","updatedAt":"2025-11-28","sido":"경상남도","sigungu":"합천군","dong":"묘산면"},{"name":"묘산면 복합문화센터 주차장","type":"공영","category":"부설","address":"경상남도 합천군 묘산면 도옥리 75-22","lat":35.65869052,"lng":128.1155837,"totalSpaces":30,"isFree":true,"operatingDays":"평일+토요일+공휴일","weekdayOpen":"00:00","weekdayClose":"23:59","weekendOpen":"00:00","weekendClose":"23:59","holidayOpen":"00:00","holidayClose":"23:59","feeInfo":"무료","phone":"055-930-3373","updatedAt":"2025-11-28","sido":"경상남도","sigungu":"합천군","dong":"묘산면"},{"name":"초계면사무소","type":"공영","category":"부설","address":"경상남도 합천군 초계면 초계리 85-1","lat":35.55959331,"lng":128.2654655,"totalSpaces":29,"isFree":true,"operatingDays":"평일+토요일+공휴일","weekdayOpen":"00:00","weekdayClose":"23:59","weekendOpen":"00:00","weekendClose":"23:59","holidayOpen":"00:00","holidayClose":"23:59","feeInfo":"무료","phone":"055-930-3373","updatedAt":"2025-11-28","sido":"경상남도","sigungu":"합천군","dong":"초계면"},{"name":"합천등기소 뒤 공영주차장","type":"공영","category":"노외","address":"경상남도 합천군 합천읍 합천리 394-7","lat":35.56698135,"lng":128.1639074,"totalSpaces":29,"isFree":true,"operatingDays":"평일+토요일+공휴일","weekdayOpen":"00:00","weekdayClose":"23:59","weekendOpen":"00:00","weekendClose":"23:59","holidayOpen":"00:00","holidayClose":"23:59","feeInfo":"무료","phone":"055-930-3373","updatedAt":"2025-11-28","sido":"경상남도","sigungu":"합천군","dong":"합천읍"},{"name":"대장경테마파크9(VIP주차장)","type":"공영","category":"부설","address":"경상남도 합천군 가야면 야천리 954-2","lat":35.76793249,"lng":128.1359547,"totalSpaces":28,"isFree":true,"operatingDays":"평일+토요일+공휴일","weekdayOpen":"00:00","weekdayClose":"23:59","weekendOpen":"00:00","weekendClose":"23:59","holidayOpen":"00:00","holidayClose":"23:59","feeInfo":"무료","phone":"055-930-3373","updatedAt":"2025-11-28","sido":"경상남도","sigungu":"합천군","dong":"가야면"},{"name":"야로체육공원","type":"공영","category":"부설","address":"경상남도 합천군 야로면 구정리 293-1","lat":35.70551693,"lng":128.1673091,"totalSpaces":28,"isFree":true,"operatingDays":"평일+토요일+공휴일","weekdayOpen":"00:00","weekdayClose":"23:59","weekendOpen":"00:00","weekendClose":"23:59","holidayOpen":"00:00","holidayClose":"23:59","feeInfo":"무료","phone":"055-930-3373","updatedAt":"2025-11-28","sido":"경상남도","sigungu":"합천군","dong":"야로면"},{"name":"선거관리위원회 앞 주차장","type":"공영","category":"노외","address":"경상남도 합천군 합천읍 합천리 817-3","lat":35.564539,"lng":128.1580941,"totalSpaces":28,"isFree":true,"operatingDays":"평일+토요일+공휴일","weekdayOpen":"00:00","weekdayClose":"23:59","weekendOpen":"00:00","weekendClose":"23:59","holidayOpen":"00:00","holidayClose":"23:59","feeInfo":"무료","phone":"055-930-3373","updatedAt":"2025-11-28","sido":"경상남도","sigungu":"합천군","dong":"합천읍"},{"name":"합천읍 창동 공용주차장","type":"공영","category":"노외","address":"경상남도 합천군 합천읍 합천리 828-6","lat":35.563123,"lng":128.1586981,"totalSpaces":27,"isFree":true,"operatingDays":"평일+토요일+공휴일","weekdayOpen":"00:00","weekdayClose":"23:59","weekendOpen":"00:00","weekendClose":"23:59","holidayOpen":"00:00","holidayClose":"23:59","feeInfo":"무료","phone":"055-930-3373","updatedAt":"2025-11-28","sido":"경상남도","sigungu":"합천군","dong":"합천읍"},{"name":"쌍백면사무소","type":"공영","category":"부설","address":"경상남도 합천군 쌍백면 평구리 523-1","lat":35.44129189,"lng":128.1454099,"totalSpaces":27,"isFree":true,"operatingDays":"평일+토요일+공휴일","weekdayOpen":"00:00","weekdayClose":"23:59","weekendOpen":"00:00","weekendClose":"23:59","holidayOpen":"00:00","holidayClose":"23:59","feeInfo":"무료","phone":"055-930-3373","updatedAt":"2025-11-28","sido":"경상남도","sigungu":"합천군","dong":"쌍백면"},{"name":"초계공영주차장4","type":"공영","category":"노외","address":"경상남도 합천군 초계면 초계리 63-2","lat":35.5601604,"lng":128.2665485,"totalSpaces":27,"isFree":true,"operatingDays":"평일+토요일+공휴일","weekdayOpen":"00:00","weekdayClose":"23:59","weekendOpen":"00:00","weekendClose":"23:59","holidayOpen":"00:00","holidayClose":"23:59","feeInfo":"무료","phone":"055-930-3373","updatedAt":"2025-11-28","sido":"경상남도","sigungu":"합천군","dong":"초계면"},{"name":"율곡면사무소","type":"공영","category":"부설","address":"경상남도 합천군 율곡면 영전 3길 26","lat":35.5723543949,"lng":128.2180098949,"totalSpaces":27,"isFree":true,"operatingDays":"평일+토요일+공휴일","weekdayOpen":"00:00","weekdayClose":"23:59","weekendOpen":"00:00","weekendClose":"23:59","holidayOpen":"00:00","holidayClose":"23:59","feeInfo":"무료","phone":"055-930-3373","updatedAt":"2025-11-28","sido":"경상남도","sigungu":"합천군","dong":""},{"name":"봉산면사무소","type":"공영","category":"부설","address":"경상남도 합천군 봉산면 김봉리 343-5","lat":35.62632985,"lng":128.0418885,"totalSpaces":27,"isFree":true,"operatingDays":"평일+토요일+공휴일","weekdayOpen":"00:00","weekdayClose":"23:59","weekendOpen":"00:00","weekendClose":"23:59","holidayOpen":"00:00","holidayClose":"23:59","feeInfo":"무료","phone":"055-930-3373","updatedAt":"2025-11-28","sido":"경상남도","sigungu":"합천군","dong":"봉산면"},{"name":"대병면사무소","type":"공영","category":"부설","address":"경상남도 합천군 대병면 회양리 896-1","lat":35.52143222,"lng":128.0147071,"totalSpaces":26,"isFree":true,"operatingDays":"평일+토요일+공휴일","weekdayOpen":"00:00","weekdayClose":"23:59","weekendOpen":"00:00","weekendClose":"23:59","holidayOpen":"00:00","holidayClose":"23:59","feeInfo":"무료","phone":"055-930-3373","updatedAt":"2025-11-28","sido":"경상남도","sigungu":"합천군","dong":"대병면"},{"name":"정대2동 공영주차장","type":"공영","category":"노외","address":"경상남도 합천군 합천읍 합천리 881-5","lat":35.5628487,"lng":128.1616539,"totalSpaces":26,"isFree":true,"operatingDays":"평일+토요일+공휴일","weekdayOpen":"00:00","weekdayClose":"23:59","weekendOpen":"00:00","weekendClose":"23:59","holidayOpen":"00:00","holidayClose":"23:59","feeInfo":"무료","phone":"055-930-3373","updatedAt":"2025-11-28","sido":"경상남도","sigungu":"합천군","dong":"합천읍"},{"name":"적중면 체육공원","type":"공영","category":"부설","address":"경상남도 합천군 적중면 상부리 1263","lat":35.5419831,"lng":128.2791416,"totalSpaces":25,"isFree":true,"operatingDays":"평일+토요일+공휴일","weekdayOpen":"00:00","weekdayClose":"23:59","weekendOpen":"00:00","weekendClose":"23:59","holidayOpen":"00:00","holidayClose":"23:59","feeInfo":"무료","phone":"055-930-3373","updatedAt":"2025-11-28","sido":"경상남도","sigungu":"합천군","dong":"적중면"},{"name":"주차광장_정양늪생태공원","type":"공영","category":"부설","address":"경상남도 합천군 대양면 정양리 605-5","lat":35.5535769,"lng":128.1624055,"totalSpaces":25,"isFree":true,"operatingDays":"평일+토요일+공휴일","weekdayOpen":"00:00","weekdayClose":"23:59","weekendOpen":"00:00","weekendClose":"23:59","holidayOpen":"00:00","holidayClose":"23:59","feeInfo":"무료","phone":"055-930-3373","updatedAt":"2025-11-28","sido":"경상남도","sigungu":"합천군","dong":"대양면"},{"name":"호국공원","type":"공영","category":"부설","address":"경상남도 합천군 합천읍 합천리 246-3","lat":35.56275306,"lng":128.1626304,"totalSpaces":25,"isFree":true,"operatingDays":"평일+토요일+공휴일","weekdayOpen":"00:00","weekdayClose":"23:59","weekendOpen":"00:00","weekendClose":"23:59","holidayOpen":"00:00","holidayClose":"23:59","feeInfo":"무료","phone":"055-930-3373","updatedAt":"2025-11-28","sido":"경상남도","sigungu":"합천군","dong":"합천읍"},{"name":"자투리 땅 활용 생활주차장 6","type":"공영","category":"노외","address":"경상남도 합천군 합천읍 합천리 709-23","lat":35.5654194,"lng":128.1603022,"totalSpaces":24,"isFree":true,"operatingDays":"평일+토요일+공휴일","weekdayOpen":"00:00","weekdayClose":"23:59","weekendOpen":"00:00","weekendClose":"23:59","holidayOpen":"00:00","holidayClose":"23:59","feeInfo":"무료","phone":"055-930-3373","updatedAt":"2025-11-28","sido":"경상남도","sigungu":"합천군","dong":"합천읍"},{"name":"창동 임대주차장(구 행복가든)","type":"공영","category":"노외","address":"경상남도 합천군 합천읍 합천리 959-1","lat":35.56233626,"lng":128.1571329,"totalSpaces":24,"isFree":true,"operatingDays":"평일+토요일+공휴일","weekdayOpen":"00:00","weekdayClose":"23:59","weekendOpen":"00:00","weekendClose":"23:59","holidayOpen":"00:00","holidayClose":"23:59","feeInfo":"무료","phone":"055-930-3373","updatedAt":"2025-11-28","sido":"경상남도","sigungu":"합천군","dong":"합천읍"},{"name":"그라운드골프장 주차장","type":"공영","category":"부설","address":"경상남도 합천군 초계면 초계리 192-8","lat":35.55733135,"lng":128.263564,"totalSpaces":24,"isFree":true,"operatingDays":"평일+토요일+공휴일","weekdayOpen":"00:00","weekdayClose":"23:59","weekendOpen":"00:00","weekendClose":"23:59","holidayOpen":"00:00","holidayClose":"23:59","feeInfo":"무료","phone":"055-930-3373","updatedAt":"2025-11-28","sido":"경상남도","sigungu":"합천군","dong":"초계면"},{"name":"주차광장_봉산소재지 주차장","type":"공영","category":"노외","address":"경상남도 합천군 봉산면 김봉리 352-8","lat":35.62777971,"lng":128.0429493,"totalSpaces":24,"isFree":true,"operatingDays":"평일+토요일+공휴일","weekdayOpen":"00:00","weekdayClose":"23:59","weekendOpen":"00:00","weekendClose":"23:59","holidayOpen":"00:00","holidayClose":"23:59","feeInfo":"무료","phone":"055-930-3373","updatedAt":"2025-11-28","sido":"경상남도","sigungu":"합천군","dong":"봉산면"},{"name":"합천유치원 인근 공영주차장","type":"공영","category":"노외","address":"경상남도 합천군 합천읍 합천리 1260","lat":35.5688143,"lng":128.1556861,"totalSpaces":23,"isFree":true,"operatingDays":"평일+토요일+공휴일","weekdayOpen":"00:00","weekdayClose":"23:59","weekendOpen":"00:00","weekendClose":"23:59","holidayOpen":"00:00","holidayClose":"23:59","feeInfo":"무료","phone":"055-930-3373","updatedAt":"2025-11-28","sido":"경상남도","sigungu":"합천군","dong":"합천읍"},{"name":"가회면복지회관","type":"공영","category":"부설","address":"경상남도 합천군 가회면 덕촌리 380-1","lat":35.4348177,"lng":128.0330224,"totalSpaces":23,"isFree":true,"operatingDays":"평일+토요일+공휴일","weekdayOpen":"00:00","weekdayClose":"23:59","weekendOpen":"00:00","weekendClose":"23:59","holidayOpen":"00:00","holidayClose":"23:59","feeInfo":"무료","phone":"055-930-3373","updatedAt":"2025-11-28","sido":"경상남도","sigungu":"합천군","dong":"가회면"},{"name":"청덕다목적복지회관","type":"공영","category":"부설","address":"경상남도 합천군 청덕면 가현리 951-7","lat":35.5607011,"lng":128.3217053,"totalSpaces":23,"isFree":true,"operatingDays":"평일+토요일+공휴일","weekdayOpen":"00:00","weekdayClose":"23:59","weekendOpen":"00:00","weekendClose":"23:59","holidayOpen":"00:00","holidayClose":"23:59","feeInfo":"무료","phone":"055-930-3373","updatedAt":"2025-11-28","sido":"경상남도","sigungu":"합천군","dong":"청덕면"},{"name":"합천군청 생활관 2","type":"공영","category":"부설","address":"경상남도 합천군 합천읍 합천리 358","lat":35.56680884,"lng":128.1671615,"totalSpaces":23,"isFree":true,"operatingDays":"평일+토요일+공휴일","weekdayOpen":"00:00","weekdayClose":"23:59","weekendOpen":"00:00","weekendClose":"23:59","holidayOpen":"00:00","holidayClose":"23:59","feeInfo":"무료","phone":"055-930-3373","updatedAt":"2025-11-28","sido":"경상남도","sigungu":"합천군","dong":"합천읍"},{"name":"대야주희망정원","type":"공영","category":"부설","address":"경상남도 합천군 합천읍 합천리 364-8","lat":35.56767232,"lng":128.1669819,"totalSpaces":22,"isFree":true,"operatingDays":"평일+토요일+공휴일","weekdayOpen":"00:00","weekdayClose":"23:59","weekendOpen":"00:00","weekendClose":"23:59","holidayOpen":"00:00","holidayClose":"23:59","feeInfo":"무료","phone":"055-930-3373","updatedAt":"2025-11-28","sido":"경상남도","sigungu":"합천군","dong":"합천읍"},{"name":"보건소 맞은편","type":"공영","category":"노외","address":"경상남도 합천군 합천읍 합천리 1224","lat":35.5676238,"lng":128.1565116,"totalSpaces":21,"isFree":true,"operatingDays":"평일+토요일+공휴일","weekdayOpen":"00:00","weekdayClose":"23:59","weekendOpen":"00:00","weekendClose":"23:59","holidayOpen":"00:00","holidayClose":"23:59","feeInfo":"무료","phone":"055-930-3373","updatedAt":"2025-11-28","sido":"경상남도","sigungu":"합천군","dong":"합천읍"},{"name":"합천군 산림조합 인근 공영주차장","type":"공영","category":"노외","address":"경상남도 합천군 합천읍 합천리 410-1","lat":35.5676525,"lng":128.1620497,"totalSpaces":21,"isFree":true,"operatingDays":"평일+토요일+공휴일","weekdayOpen":"00:00","weekdayClose":"23:59","weekendOpen":"00:00","weekendClose":"23:59","holidayOpen":"00:00","holidayClose":"23:59","feeInfo":"무료","phone":"055-930-3373","updatedAt":"2025-11-28","sido":"경상남도","sigungu":"합천군","dong":"합천읍"},{"name":"합천시장 배수장 주차장","type":"공영","category":"노외","address":"경상남도 합천군 합천읍 합천리 1364-17","lat":35.5694763,"lng":128.1599066,"totalSpaces":20,"isFree":true,"operatingDays":"평일+토요일+공휴일","weekdayOpen":"00:00","weekdayClose":"23:59","weekendOpen":"00:00","weekendClose":"23:59","holidayOpen":"00:00","holidayClose":"23:59","feeInfo":"무료","phone":"055-930-3373","updatedAt":"2025-11-28","sido":"경상남도","sigungu":"합천군","dong":"합천읍"},{"name":"회양관광단지 주차장1(북어마을 뒤편)","type":"공영","category":"부설","address":"경상남도 합천군 대병면 회양리 700-15","lat":35.52508682,"lng":128.0183107,"totalSpaces":20,"isFree":true,"operatingDays":"평일+토요일+공휴일","weekdayOpen":"00:00","weekdayClose":"23:59","weekendOpen":"00:00","weekendClose":"23:59","holidayOpen":"00:00","holidayClose":"23:59","feeInfo":"무료","phone":"055-930-3373","updatedAt":"2025-11-28","sido":"경상남도","sigungu":"합천군","dong":"대병면"},{"name":"대양면복지회관","type":"공영","category":"부설","address":"경상남도 합천군 대양면 덕정리 925-3","lat":35.51566076,"lng":128.1744089,"totalSpaces":20,"isFree":true,"operatingDays":"평일+토요일+공휴일","weekdayOpen":"00:00","weekdayClose":"23:59","weekendOpen":"00:00","weekendClose":"23:59","holidayOpen":"00:00","holidayClose":"23:59","feeInfo":"무료","phone":"055-930-3373","updatedAt":"2025-11-28","sido":"경상남도","sigungu":"합천군","dong":"대양면"},{"name":"청소년 문화의 집","type":"공영","category":"부설","address":"경상남도 합천군 합천읍 합천리 706-4","lat":35.4140588,"lng":128.1211219,"totalSpaces":20,"isFree":true,"operatingDays":"평일+토요일+공휴일","weekdayOpen":"00:00","weekdayClose":"23:59","weekendOpen":"00:00","weekendClose":"23:59","holidayOpen":"00:00","holidayClose":"23:59","feeInfo":"무료","phone":"055-930-3373","updatedAt":"2025-11-28","sido":"경상남도","sigungu":"합천군","dong":"합천읍"},{"name":"남정교 주차장","type":"공영","category":"노외","address":"경상남도 합천군 합천읍 합천리 893-4","lat":35.56109253,"lng":128.1613211,"totalSpaces":20,"isFree":true,"operatingDays":"평일+토요일+공휴일","weekdayOpen":"00:00","weekdayClose":"23:59","weekendOpen":"00:00","weekendClose":"23:59","holidayOpen":"00:00","holidayClose":"23:59","feeInfo":"무료","phone":"055-930-3373","updatedAt":"2025-11-28","sido":"경상남도","sigungu":"합천군","dong":"합천읍"},{"name":"합천읍 교동 주거지주차장","type":"공영","category":"노외","address":"경상남도 합천군 합천읍 합천리 213","lat":35.5629126,"lng":128.1647646,"totalSpaces":19,"isFree":true,"operatingDays":"평일+토요일+공휴일","weekdayOpen":"00:00","weekdayClose":"23:59","weekendOpen":"00:00","weekendClose":"23:59","holidayOpen":"00:00","holidayClose":"23:59","feeInfo":"무료","phone":"055-930-3373","updatedAt":"2025-11-28","sido":"경상남도","sigungu":"합천군","dong":"합천읍"},{"name":"망향의동산","type":"공영","category":"부설","address":"경상남도 합천군 봉산면 김봉리 산52-3","lat":35.6172438,"lng":128.0323895,"totalSpaces":19,"isFree":true,"operatingDays":"평일+토요일+공휴일","weekdayOpen":"00:00","weekdayClose":"23:59","weekendOpen":"00:00","weekendClose":"23:59","holidayOpen":"00:00","holidayClose":"23:59","feeInfo":"무료","phone":"055-930-3373","updatedAt":"2025-11-28","sido":"경상남도","sigungu":"합천군","dong":"봉산면"},{"name":"중흥동(남정사거리) 공영주차장","type":"공영","category":"노외","address":"경상남도 합천군 합천읍 합천리 918-7","lat":35.5610333,"lng":128.1550796,"totalSpaces":18,"isFree":true,"operatingDays":"평일+토요일+공휴일","weekdayOpen":"00:00","weekdayClose":"23:59","weekendOpen":"00:00","weekendClose":"23:59","holidayOpen":"00:00","holidayClose":"23:59","feeInfo":"무료","phone":"055-930-3373","updatedAt":"2025-11-28","sido":"경상남도","sigungu":"합천군","dong":"합천읍"},{"name":"가회면공영주차장","type":"공영","category":"노외","address":"경상남도 합천군 가회면 덕촌리 373-2","lat":35.43601434,"lng":128.0335763,"totalSpaces":18,"isFree":true,"operatingDays":"평일+토요일+공휴일","weekdayOpen":"00:00","weekdayClose":"23:59","weekendOpen":"00:00","weekendClose":"23:59","holidayOpen":"00:00","holidayClose":"23:59","feeInfo":"무료","phone":"055-930-3373","updatedAt":"2025-11-28","sido":"경상남도","sigungu":"합천군","dong":"가회면"},{"name":"대양면사무소","type":"공영","category":"부설","address":"경상남도 합천군 대양면 덕정리 870-3","lat":35.51669802,"lng":128.1742555,"totalSpaces":18,"isFree":true,"operatingDays":"평일+토요일+공휴일","weekdayOpen":"00:00","weekdayClose":"23:59","weekendOpen":"00:00","weekendClose":"23:59","holidayOpen":"00:00","holidayClose":"23:59","feeInfo":"무료","phone":"055-930-3373","updatedAt":"2025-11-28","sido":"경상남도","sigungu":"합천군","dong":"대양면"},{"name":"옥산동 주거지주차장","type":"공영","category":"노외","address":"경상남도 합천군 합천읍 합천리 643-1","lat":35.56781933,"lng":128.1605037,"totalSpaces":18,"isFree":true,"operatingDays":"평일+토요일+공휴일","weekdayOpen":"08:00","weekdayClose":"23:59","weekendOpen":"00:00","weekendClose":"23:59","holidayOpen":"00:00","holidayClose":"23:59","feeInfo":"무료","phone":"055-930-3373","updatedAt":"2025-11-28","sido":"경상남도","sigungu":"합천군","dong":"합천읍"},{"name":"적중면사무소 2","type":"공영","category":"부설","address":"경상남도 합천군 적중면 상부리 70-2","lat":35.5476496,"lng":128.2787897,"totalSpaces":17,"isFree":true,"operatingDays":"평일+토요일+공휴일","weekdayOpen":"00:00","weekdayClose":"23:59","weekendOpen":"00:00","weekendClose":"23:59","holidayOpen":"00:00","holidayClose":"23:59","feeInfo":"무료","phone":"055-930-3373","updatedAt":"2025-11-28","sido":"경상남도","sigungu":"합천군","dong":"적중면"},{"name":"합천시장주차장2","type":"공영","category":"부설","address":"경상남도 합천군 합천읍 합천리 471-3","lat":35.56872766,"lng":128.1606531,"totalSpaces":17,"isFree":true,"operatingDays":"평일+토요일+공휴일","weekdayOpen":"00:00","weekdayClose":"23:59","weekendOpen":"00:00","weekendClose":"23:59","holidayOpen":"00:00","holidayClose":"23:59","feeInfo":"무료","phone":"055-930-3373","updatedAt":"2025-11-28","sido":"경상남도","sigungu":"합천군","dong":"합천읍"},{"name":"합천읍 정대동(녹수탕 옆)공영주차장","type":"공영","category":"노외","address":"경상남도 합천군 합천읍 합천리 706-6","lat":35.5646356,"lng":128.1600469,"totalSpaces":16,"isFree":true,"operatingDays":"평일+토요일+공휴일","weekdayOpen":"00:00","weekdayClose":"23:59","weekendOpen":"00:00","weekendClose":"23:59","holidayOpen":"00:00","holidayClose":"23:59","feeInfo":"무료","phone":"055-930-3373","updatedAt":"2025-11-28","sido":"경상남도","sigungu":"합천군","dong":"합천읍"},{"name":"합천철공소~연호장여관 뒤","type":"공영","category":"노상","address":"경상남도 합천군 합천읍 합천리 893-8","lat":35.5616781,"lng":128.160725,"totalSpaces":15,"isFree":true,"operatingDays":"평일+토요일+공휴일","weekdayOpen":"00:00","weekdayClose":"23:59","weekendOpen":"00:00","weekendClose":"23:59","holidayOpen":"00:00","holidayClose":"23:59","feeInfo":"무료","phone":"055-930-3373","updatedAt":"2025-11-28","sido":"경상남도","sigungu":"합천군","dong":"합천읍"},{"name":"합천 교동 공영주차장","type":"공영","category":"노외","address":"경상남도 합천군 합천읍 합천리 271-3","lat":35.56356324,"lng":128.1654348,"totalSpaces":15,"isFree":true,"operatingDays":"평일+토요일+공휴일","weekdayOpen":"00:00","weekdayClose":"23:59","weekendOpen":"00:00","weekendClose":"23:59","holidayOpen":"00:00","holidayClose":"23:59","feeInfo":"무료","phone":"055-930-3373","updatedAt":"2025-11-28","sido":"경상남도","sigungu":"합천군","dong":"합천읍"},{"name":"대성아파트 ~ 별다방","type":"공영","category":"노상","address":"경상남도 합천군 합천읍 합천리 403-23","lat":35.56725246,"lng":128.1623023,"totalSpaces":14,"isFree":true,"operatingDays":"평일+토요일+공휴일","weekdayOpen":"00:00","weekdayClose":"23:59","weekendOpen":"00:00","weekendClose":"23:59","holidayOpen":"00:00","holidayClose":"23:59","feeInfo":"무료","phone":"055-930-3373","updatedAt":"2025-11-28","sido":"경상남도","sigungu":"합천군","dong":"합천읍"},{"name":"야로체육공원(2)","type":"공영","category":"부설","address":"경상남도 합천군 야로면 구정리 463-1","lat":35.7058054,"lng":128.1659194,"totalSpaces":14,"isFree":true,"operatingDays":"평일+토요일+공휴일","weekdayOpen":"00:00","weekdayClose":"23:59","weekendOpen":"00:00","weekendClose":"23:59","holidayOpen":"00:00","holidayClose":"23:59","feeInfo":"무료","phone":"055-930-3373","updatedAt":"2025-11-28","sido":"경상남도","sigungu":"합천군","dong":"야로면"},{"name":"초계공영주차장3","type":"공영","category":"노외","address":"경상남도 합천군 초계면 초계리 166","lat":35.55867723,"lng":128.2638142,"totalSpaces":14,"isFree":true,"operatingDays":"평일+토요일+공휴일","weekdayOpen":"00:00","weekdayClose":"23:59","weekendOpen":"00:00","weekendClose":"23:59","holidayOpen":"00:00","holidayClose":"23:59","feeInfo":"무료","phone":"055-930-3373","updatedAt":"2025-11-28","sido":"경상남도","sigungu":"합천군","dong":"초계면"},{"name":"삼성합천병원 ~ 이화빌딩","type":"공영","category":"노상","address":"경상남도 합천군 합천읍 합천리 403-21","lat":35.5674076,"lng":128.1631634,"totalSpaces":13,"isFree":true,"operatingDays":"평일+토요일+공휴일","weekdayOpen":"00:00","weekdayClose":"23:59","weekendOpen":"00:00","weekendClose":"23:59","holidayOpen":"00:00","holidayClose":"23:59","feeInfo":"무료","phone":"055-930-3373","updatedAt":"2025-11-28","sido":"경상남도","sigungu":"합천군","dong":"합천읍"},{"name":"가회면사무소","type":"공영","category":"부설","address":"경상남도 합천군 가회면 둔내리 385-2","lat":35.4899405,"lng":128.0188853,"totalSpaces":13,"isFree":true,"operatingDays":"평일+토요일+공휴일","weekdayOpen":"00:00","weekdayClose":"23:59","weekendOpen":"00:00","weekendClose":"23:59","holidayOpen":"00:00","holidayClose":"23:59","feeInfo":"무료","phone":"055-930-3373","updatedAt":"2025-11-28","sido":"경상남도","sigungu":"합천군","dong":"가회면"},{"name":"적중면사무소 1","type":"공영","category":"부설","address":"경상남도 합천군 적중면 상부리 18-1","lat":35.5477276,"lng":128.2782969,"totalSpaces":13,"isFree":true,"operatingDays":"평일+토요일+공휴일","weekdayOpen":"00:00","weekdayClose":"23:59","weekendOpen":"00:00","weekendClose":"23:59","holidayOpen":"00:00","holidayClose":"23:59","feeInfo":"무료","phone":"055-930-3373","updatedAt":"2025-11-28","sido":"경상남도","sigungu":"합천군","dong":"적중면"},{"name":"옥산동 마을회관 앞 공영주차장","type":"공영","category":"노외","address":"경상남도 합천군 합천읍 합천리 1557","lat":35.56942349,"lng":128.1628168,"totalSpaces":13,"isFree":true,"operatingDays":"평일+토요일+공휴일","weekdayOpen":"00:00","weekdayClose":"23:59","weekendOpen":"00:00","weekendClose":"23:59","holidayOpen":"00:00","holidayClose":"23:59","feeInfo":"무료","phone":"055-930-3373","updatedAt":"2025-11-28","sido":"경상남도","sigungu":"합천군","dong":"합천읍"},{"name":"합천축협 뒤 공영주차장(구 농산물품질관리원)","type":"공영","category":"노외","address":"경상남도 합천군 합천읍 합천리 677-3","lat":35.56547978,"lng":128.1620966,"totalSpaces":12,"isFree":true,"operatingDays":"평일+토요일+공휴일","weekdayOpen":"00:00","weekdayClose":"23:59","weekendOpen":"00:00","weekendClose":"23:59","holidayOpen":"00:00","holidayClose":"23:59","feeInfo":"무료","phone":"055-930-3373","updatedAt":"2025-11-28","sido":"경상남도","sigungu":"합천군","dong":"합천읍"},{"name":"청덕체육관","type":"공영","category":"부설","address":"경상남도 합천군 청덕면 두곡리 376-1","lat":35.5568165,"lng":128.3190123,"totalSpaces":12,"isFree":true,"operatingDays":"평일+토요일+공휴일","weekdayOpen":"00:00","weekdayClose":"23:59","weekendOpen":"00:00","weekendClose":"23:59","holidayOpen":"00:00","holidayClose":"23:59","feeInfo":"무료","phone":"055-930-3373","updatedAt":"2025-11-28","sido":"경상남도","sigungu":"합천군","dong":"청덕면"},{"name":"합천초등학교 인근 공영주차장","type":"공영","category":"노외","address":"경상남도 합천군 합천읍 합천리 267-2","lat":35.5643593,"lng":128.1643818,"totalSpaces":12,"isFree":true,"operatingDays":"평일+토요일+공휴일","weekdayOpen":"00:00","weekdayClose":"23:59","weekendOpen":"00:00","weekendClose":"23:59","holidayOpen":"00:00","holidayClose":"23:59","feeInfo":"무료","phone":"055-930-3373","updatedAt":"2025-11-28","sido":"경상남도","sigungu":"합천군","dong":"합천읍"},{"name":"자투리 땅 활용 생활주차장 7","type":"공영","category":"노외","address":"경상남도 합천군 합천읍 합천리 714-2","lat":35.5657708,"lng":128.1604243,"totalSpaces":11,"isFree":true,"operatingDays":"평일+토요일+공휴일","weekdayOpen":"00:00","weekdayClose":"23:59","weekendOpen":"00:00","weekendClose":"23:59","holidayOpen":"00:00","holidayClose":"23:59","feeInfo":"무료","phone":"055-930-3373","updatedAt":"2025-11-28","sido":"경상남도","sigungu":"합천군","dong":"합천읍"},{"name":"자투리 땅 활용 생활주차장 9","type":"공영","category":"노외","address":"경상남도 합천군 합천읍 합천리 842-3","lat":35.5633771,"lng":128.157452,"totalSpaces":11,"isFree":true,"operatingDays":"평일+토요일+공휴일","weekdayOpen":"00:00","weekdayClose":"23:59","weekendOpen":"00:00","weekendClose":"23:59","holidayOpen":"00:00","holidayClose":"23:59","feeInfo":"무료","phone":"055-930-3373","updatedAt":"2025-11-28","sido":"경상남도","sigungu":"합천군","dong":"합천읍"},{"name":"중흥동(합천여고 옆)주차장","type":"공영","category":"노외","address":"경상남도 합천군 합천읍 합천리 952-7","lat":35.5630822,"lng":128.1554327,"totalSpaces":11,"isFree":true,"operatingDays":"평일+토요일+공휴일","weekdayOpen":"00:00","weekdayClose":"23:59","weekendOpen":"00:00","weekendClose":"23:59","holidayOpen":"00:00","holidayClose":"23:59","feeInfo":"무료","phone":"055-930-3373","updatedAt":"2025-11-28","sido":"경상남도","sigungu":"합천군","dong":"합천읍"},{"name":"면사무소 앞 공영주차장","type":"공영","category":"노외","address":"경상남도 합천군 삼가면 일부리 927-1","lat":35.4140528,"lng":128.1209357,"totalSpaces":11,"isFree":true,"operatingDays":"평일+토요일+공휴일","weekdayOpen":"00:00","weekdayClose":"23:59","weekendOpen":"00:00","weekendClose":"23:59","holidayOpen":"00:00","holidayClose":"23:59","feeInfo":"무료","phone":"055-930-3373","updatedAt":"2025-11-28","sido":"경상남도","sigungu":"합천군","dong":"삼가면"},{"name":"덕곡면사무소","type":"공영","category":"부설","address":"경상남도 합천군 덕곡면 율지리 143-2","lat":35.61516118,"lng":128.3591181,"totalSpaces":11,"isFree":true,"operatingDays":"평일+토요일+공휴일","weekdayOpen":"00:00","weekdayClose":"23:59","weekendOpen":"00:00","weekendClose":"23:59","holidayOpen":"00:00","holidayClose":"23:59","feeInfo":"무료","phone":"055-930-3373","updatedAt":"2025-11-28","sido":"경상남도","sigungu":"합천군","dong":"덕곡면"},{"name":"우체국 ~ 합천읍사무소","type":"공영","category":"노상","address":"경상남도 합천군 합천읍 합천리 570-3","lat":35.56666234,"lng":128.1586501,"totalSpaces":10,"isFree":true,"operatingDays":"평일+토요일+공휴일","weekdayOpen":"00:00","weekdayClose":"23:59","weekendOpen":"00:00","weekendClose":"23:59","holidayOpen":"00:00","holidayClose":"23:59","feeInfo":"무료","phone":"055-930-3373","updatedAt":"2025-11-28","sido":"경상남도","sigungu":"합천군","dong":"합천읍"},{"name":"골프장","type":"공영","category":"부설","address":"경상남도 합천군 대병면 회양리 750","lat":35.52493691,"lng":128.0154293,"totalSpaces":10,"isFree":true,"operatingDays":"평일+토요일+공휴일","weekdayOpen":"00:00","weekdayClose":"23:59","weekendOpen":"00:00","weekendClose":"23:59","holidayOpen":"00:00","holidayClose":"23:59","feeInfo":"무료","phone":"055-930-3373","updatedAt":"2025-11-28","sido":"경상남도","sigungu":"합천군","dong":"대병면"},{"name":"삼가면복지회관주차장","type":"공영","category":"부설","address":"경상남도 합천군 삼가면 일부리 884-4","lat":35.4133739,"lng":128.1228684,"totalSpaces":10,"isFree":true,"operatingDays":"평일+토요일+공휴일","weekdayOpen":"00:00","weekdayClose":"23:59","weekendOpen":"00:00","weekendClose":"23:59","holidayOpen":"00:00","holidayClose":"23:59","feeInfo":"무료","phone":"055-930-3373","updatedAt":"2025-11-28","sido":"경상남도","sigungu":"합천군","dong":"삼가면"},{"name":"가회면보건지소","type":"공영","category":"부설","address":"경상남도 합천군 가회면 덕촌리 273","lat":35.43670818,"lng":128.0344446,"totalSpaces":10,"isFree":true,"operatingDays":"평일+토요일+공휴일","weekdayOpen":"00:00","weekdayClose":"23:59","weekendOpen":"00:00","weekendClose":"23:59","holidayOpen":"00:00","holidayClose":"23:59","feeInfo":"무료","phone":"055-930-3373","updatedAt":"2025-11-28","sido":"경상남도","sigungu":"합천군","dong":"가회면"},{"name":"가야면사무소","type":"공영","category":"부설","address":"경상남도 합천군 가야면 야천리 465-5","lat":35.76297455,"lng":128.139577,"totalSpaces":10,"isFree":true,"operatingDays":"평일+토요일+공휴일","weekdayOpen":"00:00","weekdayClose":"23:59","weekendOpen":"00:00","weekendClose":"23:59","holidayOpen":"00:00","holidayClose":"23:59","feeInfo":"무료","phone":"055-930-3373","updatedAt":"2025-11-28","sido":"경상남도","sigungu":"합천군","dong":"가야면"},{"name":"초계공영주차장1","type":"공영","category":"노외","address":"경상남도 합천군 초계면 초계리 223-7","lat":35.5592283,"lng":128.2630689,"totalSpaces":10,"isFree":true,"operatingDays":"평일+토요일+공휴일","weekdayOpen":"00:00","weekdayClose":"23:59","weekendOpen":"00:00","weekendClose":"23:59","holidayOpen":"00:00","holidayClose":"23:59","feeInfo":"무료","phone":"055-930-3373","updatedAt":"2025-11-28","sido":"경상남도","sigungu":"합천군","dong":"초계면"},{"name":"합천군 선관위 인근 공영주차장","type":"공영","category":"노외","address":"경상남도 합천군 합천읍 합천리 816-16","lat":35.56514775,"lng":128.1581184,"totalSpaces":10,"isFree":true,"operatingDays":"평일+토요일+공휴일","weekdayOpen":"00:00","weekdayClose":"23:59","weekendOpen":"00:00","weekendClose":"23:59","holidayOpen":"00:00","holidayClose":"23:59","feeInfo":"무료","phone":"055-930-3373","updatedAt":"2025-11-28","sido":"경상남도","sigungu":"합천군","dong":"합천읍"},{"name":"자투리 땅 활용 생활주차장 10","type":"공영","category":"노외","address":"경상남도 합천군 합천읍 합천리 845-12","lat":35.5628451,"lng":128.1575503,"totalSpaces":9,"isFree":true,"operatingDays":"평일+토요일+공휴일","weekdayOpen":"00:00","weekdayClose":"23:59","weekendOpen":"00:00","weekendClose":"23:59","holidayOpen":"00:00","holidayClose":"23:59","feeInfo":"무료","phone":"055-930-3373","updatedAt":"2025-11-28","sido":"경상남도","sigungu":"합천군","dong":"합천읍"},{"name":"합천읍 교동 공영주차장","type":"공영","category":"노외","address":"경상남도 합천군 합천읍 합천리 262-1","lat":35.5636032,"lng":128.1636411,"totalSpaces":9,"isFree":true,"operatingDays":"평일+토요일+공휴일","weekdayOpen":"00:00","weekdayClose":"23:59","weekendOpen":"00:00","weekendClose":"23:59","holidayOpen":"00:00","holidayClose":"23:59","feeInfo":"무료","phone":"055-930-3373","updatedAt":"2025-11-28","sido":"경상남도","sigungu":"합천군","dong":"합천읍"},{"name":"한주아파트 주변","type":"공영","category":"노상","address":"경상남도 합천군 합천읍 합천리 1275-9","lat":35.5688252,"lng":128.154484,"totalSpaces":9,"isFree":true,"operatingDays":"평일+토요일+공휴일","weekdayOpen":"00:00","weekdayClose":"23:59","weekendOpen":"00:00","weekendClose":"23:59","holidayOpen":"00:00","holidayClose":"23:59","feeInfo":"무료","phone":"055-930-3373","updatedAt":"2025-11-28","sido":"경상남도","sigungu":"합천군","dong":"합천읍"},{"name":"초계중앙로 공영주차장","type":"공영","category":"노외","address":"경상남도 합천군 초계면 초계리 132","lat":35.5587898,"lng":128.2661343,"totalSpaces":9,"isFree":true,"operatingDays":"평일+토요일+공휴일","weekdayOpen":"00:00","weekdayClose":"23:59","weekendOpen":"00:00","weekendClose":"23:59","holidayOpen":"00:00","holidayClose":"23:59","feeInfo":"무료","phone":"055-930-3373","updatedAt":"2025-11-28","sido":"경상남도","sigungu":"합천군","dong":"초계면"},{"name":"자투리 땅 활용 생활주차장 1","type":"공영","category":"노외","address":"경상남도 합천군 합천읍 합천리 296-9","lat":35.5653027,"lng":128.166591,"totalSpaces":8,"isFree":true,"operatingDays":"평일+토요일+공휴일","weekdayOpen":"00:00","weekdayClose":"23:59","weekendOpen":"00:00","weekendClose":"23:59","holidayOpen":"00:00","holidayClose":"23:59","feeInfo":"무료","phone":"055-930-3373","updatedAt":"2025-11-28","sido":"경상남도","sigungu":"합천군","dong":"합천읍"},{"name":"덕곡면 보건지소","type":"공영","category":"부설","address":"경상남도 합천군 덕곡면 율지리 144-2","lat":35.61523379,"lng":128.3594775,"totalSpaces":8,"isFree":true,"operatingDays":"평일+토요일+공휴일","weekdayOpen":"00:00","weekdayClose":"23:59","weekendOpen":"00:00","weekendClose":"23:59","holidayOpen":"00:00","holidayClose":"23:59","feeInfo":"무료","phone":"055-930-3373","updatedAt":"2025-11-28","sido":"경상남도","sigungu":"합천군","dong":"덕곡면"},{"name":"가야 산정갤러리 앞 주차장","type":"공영","category":"노외","address":"경상남도 합천군 가야면 구원리 52-2","lat":35.77958406,"lng":128.1281018,"totalSpaces":8,"isFree":true,"operatingDays":"평일+토요일+공휴일","weekdayOpen":"00:00","weekdayClose":"23:59","weekendOpen":"00:00","weekendClose":"23:59","holidayOpen":"00:00","holidayClose":"23:59","feeInfo":"무료","phone":"055-930-3373","updatedAt":"2025-11-28","sido":"경상남도","sigungu":"합천군","dong":"가야면"},{"name":"주차광장_봉산면 노인회 분회 인근 주차장","type":"공영","category":"노외","address":"경상남도 합천군 봉산면 김봉리 339-7","lat":35.62771773,"lng":128.0420807,"totalSpaces":8,"isFree":true,"operatingDays":"평일+토요일+공휴일","weekdayOpen":"00:00","weekdayClose":"23:59","weekendOpen":"00:00","weekendClose":"23:59","holidayOpen":"00:00","holidayClose":"23:59","feeInfo":"무료","phone":"055-930-3373","updatedAt":"2025-11-28","sido":"경상남도","sigungu":"합천군","dong":"봉산면"},{"name":"자투리 땅 활용 생활주차장 15","type":"공영","category":"노외","address":"경상남도 합천군 합천읍 영창리 583-2","lat":35.57041257,"lng":128.1586381,"totalSpaces":7,"isFree":true,"operatingDays":"평일+토요일+공휴일","weekdayOpen":"00:00","weekdayClose":"23:59","weekendOpen":"00:00","weekendClose":"23:59","holidayOpen":"00:00","holidayClose":"23:59","feeInfo":"무료","phone":"055-930-3373","updatedAt":"2025-11-28","sido":"경상남도","sigungu":"합천군","dong":"합천읍"},{"name":"서향슈퍼앞","type":"공영","category":"노상","address":"경상남도 합천군 합천읍 합천리 975-32","lat":35.5644384,"lng":128.1557342,"totalSpaces":7,"isFree":true,"operatingDays":"평일+토요일+공휴일","weekdayOpen":"00:00","weekdayClose":"23:59","weekendOpen":"00:00","weekendClose":"23:59","holidayOpen":"00:00","holidayClose":"23:59","feeInfo":"무료","phone":"055-930-3373","updatedAt":"2025-11-28","sido":"경상남도","sigungu":"합천군","dong":"합천읍"},{"name":"선우APT앞 공영주차장","type":"공영","category":"노외","address":"경상남도 합천군 합천읍 합천리 948-9","lat":35.5617264,"lng":128.1550378,"totalSpaces":7,"isFree":true,"operatingDays":"평일+토요일+공휴일","weekdayOpen":"00:00","weekdayClose":"23:59","weekendOpen":"00:00","weekendClose":"23:59","holidayOpen":"00:00","holidayClose":"23:59","feeInfo":"무료","phone":"055-930-3373","updatedAt":"2025-11-28","sido":"경상남도","sigungu":"합천군","dong":"합천읍"},{"name":"초계공영주차장2","type":"공영","category":"노외","address":"경상남도 합천군 초계면 초계리 206","lat":35.5589523,"lng":128.263341,"totalSpaces":7,"isFree":true,"operatingDays":"평일+토요일+공휴일","weekdayOpen":"00:00","weekdayClose":"23:59","weekendOpen":"00:00","weekendClose":"23:59","holidayOpen":"00:00","holidayClose":"23:59","feeInfo":"무료","phone":"055-930-3373","updatedAt":"2025-11-28","sido":"경상남도","sigungu":"합천군","dong":"초계면"},{"name":"묘산시장주차장","type":"공영","category":"부설","address":"경상남도 합천군 묘산면 산제리 41-5","lat":35.6579039,"lng":128.1120746,"totalSpaces":7,"isFree":true,"operatingDays":"평일+토요일+공휴일","weekdayOpen":"00:00","weekdayClose":"23:59","weekendOpen":"00:00","weekendClose":"23:59","holidayOpen":"00:00","holidayClose":"23:59","feeInfo":"무료","phone":"055-930-3373","updatedAt":"2025-11-28","sido":"경상남도","sigungu":"합천군","dong":"묘산면"},{"name":"적중면 보건소&복지회관","type":"공영","category":"부설","address":"경상남도 합천군 적중면 부수리 835-5","lat":35.5479151,"lng":128.2800463,"totalSpaces":6,"isFree":true,"operatingDays":"평일+토요일+공휴일","weekdayOpen":"00:00","weekdayClose":"23:59","weekendOpen":"00:00","weekendClose":"23:59","holidayOpen":"00:00","holidayClose":"23:59","feeInfo":"무료","phone":"055-930-3373","updatedAt":"2025-11-28","sido":"경상남도","sigungu":"합천군","dong":"적중면"},{"name":"대양면보건지소","type":"공영","category":"부설","address":"경상남도 합천군 대양면 덕정리 924-7","lat":35.51621997,"lng":128.173666,"totalSpaces":6,"isFree":true,"operatingDays":"평일+토요일+공휴일","weekdayOpen":"00:00","weekdayClose":"23:59","weekendOpen":"00:00","weekendClose":"23:59","holidayOpen":"00:00","holidayClose":"23:59","feeInfo":"무료","phone":"055-930-3373","updatedAt":"2025-11-28","sido":"경상남도","sigungu":"합천군","dong":"대양면"},{"name":"율곡면 보건소&복지회관","type":"공영","category":"부설","address":"경상남도 합천군 율곡면 영전리 455-1","lat":35.57235439,"lng":128.2180099,"totalSpaces":6,"isFree":true,"operatingDays":"평일+토요일+공휴일","weekdayOpen":"00:00","weekdayClose":"23:59","weekendOpen":"00:00","weekendClose":"23:59","holidayOpen":"00:00","holidayClose":"23:59","feeInfo":"무료","phone":"055-930-3373","updatedAt":"2025-11-28","sido":"경상남도","sigungu":"합천군","dong":"율곡면"},{"name":"합천읍 강양향교주변 공영주차장","type":"공영","category":"노외","address":"경상남도 합천군 합천읍 합천리 691-14","lat":35.5629576,"lng":128.1610805,"totalSpaces":5,"isFree":true,"operatingDays":"평일+토요일+공휴일","weekdayOpen":"00:00","weekdayClose":"23:59","weekendOpen":"00:00","weekendClose":"23:59","holidayOpen":"00:00","holidayClose":"23:59","feeInfo":"무료","phone":"055-930-3373","updatedAt":"2025-11-28","sido":"경상남도","sigungu":"합천군","dong":"합천읍"},{"name":"대성아파트 앞","type":"공영","category":"노상","address":"경상남도 합천군 합천읍 합천리 409-4","lat":35.5676879,"lng":128.1625242,"totalSpaces":5,"isFree":true,"operatingDays":"평일+토요일+공휴일","weekdayOpen":"00:00","weekdayClose":"23:59","weekendOpen":"00:00","weekendClose":"23:59","holidayOpen":"00:00","holidayClose":"23:59","feeInfo":"무료","phone":"055-930-3373","updatedAt":"2025-11-28","sido":"경상남도","sigungu":"합천군","dong":"합천읍"},{"name":"회양관광단지 관리사무소","type":"공영","category":"부설","address":"경상남도 합천군 대병면 회양리 700-7","lat":35.52325805,"lng":128.0170652,"totalSpaces":5,"isFree":true,"operatingDays":"평일+토요일+공휴일","weekdayOpen":"00:00","weekdayClose":"23:59","weekendOpen":"00:00","weekendClose":"23:59","holidayOpen":"00:00","holidayClose":"23:59","feeInfo":"무료","phone":"055-930-3373","updatedAt":"2025-11-28","sido":"경상남도","sigungu":"합천군","dong":"대병면"},{"name":"삼가면보건지소","type":"공영","category":"부설","address":"경상남도 합천군 삼가면 소오리 25-3","lat":35.4092206,"lng":128.120723,"totalSpaces":5,"isFree":true,"operatingDays":"평일+토요일+공휴일","weekdayOpen":"00:00","weekdayClose":"23:59","weekendOpen":"00:00","weekendClose":"23:59","holidayOpen":"00:00","holidayClose":"23:59","feeInfo":"무료","phone":"055-930-3373","updatedAt":"2025-11-28","sido":"경상남도","sigungu":"합천군","dong":"삼가면"},{"name":"쌍백면복지회관","type":"공영","category":"부설","address":"경상남도 합천군 쌍백면 평구리 523-3","lat":35.4408496,"lng":128.1451327,"totalSpaces":5,"isFree":true,"operatingDays":"평일+토요일+공휴일","weekdayOpen":"00:00","weekdayClose":"23:59","weekendOpen":"00:00","weekendClose":"23:59","holidayOpen":"00:00","holidayClose":"23:59","feeInfo":"무료","phone":"055-930-3373","updatedAt":"2025-11-28","sido":"경상남도","sigungu":"합천군","dong":"쌍백면"},{"name":"초계면보건지소","type":"공영","category":"부설","address":"경상남도 합천군 초계면 초계리 27-4","lat":35.5573989,"lng":128.2680623,"totalSpaces":5,"isFree":true,"operatingDays":"평일+토요일+공휴일","weekdayOpen":"00:00","weekdayClose":"23:59","weekendOpen":"00:00","weekendClose":"23:59","holidayOpen":"00:00","holidayClose":"23:59","feeInfo":"무료","phone":"055-930-3373","updatedAt":"2025-11-28","sido":"경상남도","sigungu":"합천군","dong":"초계면"},{"name":"쌍책면보건지소","type":"공영","category":"부설","address":"경상남도 합천군 쌍책면 성산리 125-2","lat":35.57488561,"lng":128.2878487,"totalSpaces":5,"isFree":true,"operatingDays":"평일+토요일+공휴일","weekdayOpen":"00:00","weekdayClose":"23:59","weekendOpen":"00:00","weekendClose":"23:59","holidayOpen":"00:00","holidayClose":"23:59","feeInfo":"무료","phone":"055-930-3373","updatedAt":"2025-11-28","sido":"경상남도","sigungu":"합천군","dong":"쌍책면"},{"name":"가야면보건지소","type":"공영","category":"부설","address":"경상남도 합천군 가야면 야천리 468","lat":35.7627289,"lng":128.1387509,"totalSpaces":5,"isFree":true,"operatingDays":"평일+토요일+공휴일","weekdayOpen":"00:00","weekdayClose":"23:59","weekendOpen":"00:00","weekendClose":"23:59","holidayOpen":"00:00","holidayClose":"23:59","feeInfo":"무료","phone":"055-930-3373","updatedAt":"2025-11-28","sido":"경상남도","sigungu":"합천군","dong":"가야면"},{"name":"주차광장_가야면 숭산 공영주차장","type":"공영","category":"노외","address":"경상남도 합천군 가야면 매안리 398-5","lat":35.731575,"lng":128.1081442,"totalSpaces":5,"isFree":true,"operatingDays":"평일+토요일+공휴일","weekdayOpen":"00:00","weekdayClose":"23:59","weekendOpen":"00:00","weekendClose":"23:59","holidayOpen":"00:00","holidayClose":"23:59","feeInfo":"무료","phone":"055-930-3373","updatedAt":"2025-11-28","sido":"경상남도","sigungu":"합천군","dong":"가야면"},{"name":"평생학습관","type":"공영","category":"부설","address":"경상남도 합천군 합천읍 합천리 387-4","lat":35.56727745,"lng":128.1658988,"totalSpaces":5,"isFree":true,"operatingDays":"평일+토요일+공휴일","weekdayOpen":"00:00","weekdayClose":"23:59","weekendOpen":"00:00","weekendClose":"23:59","holidayOpen":"00:00","holidayClose":"23:59","feeInfo":"무료","phone":"055-930-3373","updatedAt":"2025-11-28","sido":"경상남도","sigungu":"합천군","dong":"합천읍"},{"name":"봉산면복지회관","type":"공영","category":"부설","address":"경상남도 합천군 봉산면 김봉리 349-9","lat":35.6239506,"lng":128.040175,"totalSpaces":5,"isFree":true,"operatingDays":"평일+토요일+공휴일","weekdayOpen":"00:00","weekdayClose":"23:59","weekendOpen":"00:00","weekendClose":"23:59","holidayOpen":"00:00","holidayClose":"23:59","feeInfo":"무료","phone":"055-930-3373","updatedAt":"2025-11-28","sido":"경상남도","sigungu":"합천군","dong":"봉산면"},{"name":"중앙식육식당 옆","type":"공영","category":"노외","address":"경상남도 합천군 합천읍 합천리 653-3","lat":35.5677801,"lng":128.161024,"totalSpaces":5,"isFree":true,"operatingDays":"평일+토요일+공휴일","weekdayOpen":"00:00","weekdayClose":"23:59","weekendOpen":"00:00","weekendClose":"23:59","holidayOpen":"00:00","holidayClose":"23:59","feeInfo":"무료","phone":"055-930-3373","updatedAt":"2025-11-28","sido":"경상남도","sigungu":"합천군","dong":"합천읍"},{"name":"와리보건진료소","type":"공영","category":"부설","address":"경상남도 합천군 율곡면 와리 735-9","lat":35.6111922,"lng":128.1962554,"totalSpaces":4,"isFree":true,"operatingDays":"평일+토요일+공휴일","weekdayOpen":"00:00","weekdayClose":"23:59","weekendOpen":"00:00","weekendClose":"23:59","holidayOpen":"00:00","holidayClose":"23:59","feeInfo":"무료","phone":"055-930-3373","updatedAt":"2025-11-28","sido":"경상남도","sigungu":"합천군","dong":"율곡면"},{"name":"자투리 땅 활용 생활주차장 11","type":"공영","category":"노외","address":"경상남도 합천군 합천읍 합천리 300-4","lat":35.56496786,"lng":128.1657951,"totalSpaces":4,"isFree":true,"operatingDays":"평일+토요일+공휴일","weekdayOpen":"00:00","weekdayClose":"23:59","weekendOpen":"00:00","weekendClose":"23:59","holidayOpen":"00:00","holidayClose":"23:59","feeInfo":"무료","phone":"055-930-3373","updatedAt":"2025-11-28","sido":"경상남도","sigungu":"합천군","dong":"합천읍"},{"name":"자투리 땅 활용 생활주차장 16","type":"공영","category":"노외","address":"경상남도 합천군 합천읍 합천리 1019","lat":35.5657034,"lng":128.1561438,"totalSpaces":4,"isFree":true,"operatingDays":"평일+토요일+공휴일","weekdayOpen":"00:00","weekdayClose":"23:59","weekendOpen":"00:00","weekendClose":"23:59","holidayOpen":"00:00","holidayClose":"23:59","feeInfo":"무료","phone":"055-930-3373","updatedAt":"2025-11-28","sido":"경상남도","sigungu":"합천군","dong":"합천읍"},{"name":"농업기술센터 출입로","type":"공영","category":"노상","address":"경상남도 합천군 합천읍 합천리 872-6","lat":35.5625349,"lng":128.1603626,"totalSpaces":4,"isFree":true,"operatingDays":"평일+토요일+공휴일","weekdayOpen":"00:00","weekdayClose":"23:59","weekendOpen":"00:00","weekendClose":"23:59","holidayOpen":"00:00","holidayClose":"23:59","feeInfo":"무료","phone":"055-930-3373","updatedAt":"2025-11-28","sido":"경상남도","sigungu":"합천군","dong":"합천읍"},{"name":"강변주차장(초원장 여관 뒤)","type":"공영","category":"노외","address":"경상남도 합천군 합천읍 합천리 893-2","lat":35.5611827,"lng":128.1604813,"totalSpaces":4,"isFree":true,"operatingDays":"평일+토요일+공휴일","weekdayOpen":"00:00","weekdayClose":"23:59","weekendOpen":"00:00","weekendClose":"23:59","holidayOpen":"00:00","holidayClose":"23:59","feeInfo":"무료","phone":"055-930-3373","updatedAt":"2025-11-28","sido":"경상남도","sigungu":"합천군","dong":"합천읍"},{"name":"덕곡면 대동보건진료소","type":"공영","category":"부설","address":"경상남도 합천군 덕곡면 장리 1316","lat":35.6273686,"lng":128.3241181,"totalSpaces":4,"isFree":true,"operatingDays":"평일+토요일+공휴일","weekdayOpen":"00:00","weekdayClose":"23:59","weekendOpen":"00:00","weekendClose":"23:59","holidayOpen":"00:00","holidayClose":"23:59","feeInfo":"무료","phone":"055-930-3373","updatedAt":"2025-11-28","sido":"경상남도","sigungu":"합천군","dong":"덕곡면"},{"name":"자투리 땅 활용 생활주차장 5","type":"공영","category":"노외","address":"경상남도 합천군 합천읍 합천리 480-3","lat":35.5680081,"lng":128.1592877,"totalSpaces":3,"isFree":true,"operatingDays":"평일+토요일+공휴일","weekdayOpen":"00:00","weekdayClose":"23:59","weekendOpen":"00:00","weekendClose":"23:59","holidayOpen":"00:00","holidayClose":"23:59","feeInfo":"무료","phone":"055-930-3373","updatedAt":"2025-11-28","sido":"경상남도","sigungu":"합천군","dong":"합천읍"},{"name":"자투리 땅 활용 생활주차장 2","type":"공영","category":"노외","address":"경상남도 합천군 합천읍 합천리 795-1","lat":35.5664964,"lng":128.1569838,"totalSpaces":3,"isFree":true,"operatingDays":"평일+토요일+공휴일","weekdayOpen":"00:00","weekdayClose":"23:59","weekendOpen":"00:00","weekendClose":"23:59","holidayOpen":"00:00","holidayClose":"23:59","feeInfo":"무료","phone":"055-930-3373","updatedAt":"2025-11-28","sido":"경상남도","sigungu":"합천군","dong":"합천읍"},{"name":"자투리 땅 활용 생활주차장 3","type":"공영","category":"노외","address":"경상남도 합천군 합천읍 합천리 748-1","lat":35.5654834,"lng":128.1596735,"totalSpaces":3,"isFree":true,"operatingDays":"평일+토요일+공휴일","weekdayOpen":"00:00","weekdayClose":"23:59","weekendOpen":"00:00","weekendClose":"23:59","holidayOpen":"00:00","holidayClose":"23:59","feeInfo":"무료","phone":"055-930-3373","updatedAt":"2025-11-28","sido":"경상남도","sigungu":"합천군","dong":"합천읍"},{"name":"대병면장단보건진료소","type":"공영","category":"부설","address":"경상남도 합천군 대병면 장단리 892-1","lat":35.5157283,"lng":128.0461313,"totalSpaces":3,"isFree":true,"operatingDays":"평일+토요일+공휴일","weekdayOpen":"00:00","weekdayClose":"23:59","weekendOpen":"00:00","weekendClose":"23:59","holidayOpen":"00:00","holidayClose":"23:59","feeInfo":"무료","phone":"055-930-3373","updatedAt":"2025-11-28","sido":"경상남도","sigungu":"합천군","dong":"대병면"},{"name":"평지보건진료소","type":"공영","category":"부설","address":"경상남도 합천군 쌍백면 평지리 589-2","lat":35.44013165,"lng":128.171649,"totalSpaces":3,"isFree":true,"operatingDays":"평일+토요일+공휴일","weekdayOpen":"00:00","weekdayClose":"23:59","weekendOpen":"00:00","weekendClose":"23:59","holidayOpen":"00:00","holidayClose":"23:59","feeInfo":"무료","phone":"055-930-3373","updatedAt":"2025-11-28","sido":"경상남도","sigungu":"합천군","dong":"쌍백면"},{"name":"숭산보건진료소","type":"공영","category":"부설","address":"경상남도 합천군 가야면 매안리 523-5","lat":35.73138934,"lng":128.1057891,"totalSpaces":3,"isFree":true,"operatingDays":"평일+토요일+공휴일","weekdayOpen":"00:00","weekdayClose":"23:59","weekendOpen":"00:00","weekendClose":"23:59","holidayOpen":"00:00","holidayClose":"23:59","feeInfo":"무료","phone":"055-930-3373","updatedAt":"2025-11-28","sido":"경상남도","sigungu":"합천군","dong":"가야면"},{"name":"자투리 땅 활용 생활주차장 4","type":"공영","category":"노외","address":"경상남도 합천군 합천읍 합천리 1000-2","lat":35.566831,"lng":128.156135,"totalSpaces":2,"isFree":true,"operatingDays":"평일+토요일+공휴일","weekdayOpen":"00:00","weekdayClose":"23:59","weekendOpen":"00:00","weekendClose":"23:59","holidayOpen":"00:00","holidayClose":"23:59","feeInfo":"무료","phone":"055-930-3373","updatedAt":"2025-11-28","sido":"경상남도","sigungu":"합천군","dong":"합천읍"},{"name":"자투리 땅 활용 생활주차장 8","type":"공영","category":"노외","address":"경상남도 합천군 합천읍 합천리 840-18","lat":35.5630885,"lng":128.1575508,"totalSpaces":2,"isFree":true,"operatingDays":"평일+토요일+공휴일","weekdayOpen":"00:00","weekdayClose":"23:59","weekendOpen":"00:00","weekendClose":"23:59","holidayOpen":"00:00","holidayClose":"23:59","feeInfo":"무료","phone":"055-930-3373","updatedAt":"2025-11-28","sido":"경상남도","sigungu":"합천군","dong":"합천읍"},{"name":"자투리 땅 활용 생활주차장 12","type":"공영","category":"노외","address":"경상남도 합천군 합천읍 합천리 978-10","lat":35.5652272,"lng":128.1556906,"totalSpaces":2,"isFree":true,"operatingDays":"평일+토요일+공휴일","weekdayOpen":"00:00","weekdayClose":"23:59","weekendOpen":"00:00","weekendClose":"23:59","holidayOpen":"00:00","holidayClose":"23:59","feeInfo":"무료","phone":"055-930-3373","updatedAt":"2025-11-28","sido":"경상남도","sigungu":"합천군","dong":"합천읍"},{"name":"자투리 땅 활용 생활주차장 14","type":"공영","category":"노외","address":"경상남도 합천군 합천읍 합천리 1020-19","lat":35.5655334,"lng":128.1558897,"totalSpaces":2,"isFree":true,"operatingDays":"평일+토요일+공휴일","weekdayOpen":"00:00","weekdayClose":"23:59","weekendOpen":"00:00","weekendClose":"23:59","holidayOpen":"00:00","holidayClose":"23:59","feeInfo":"무료","phone":"055-930-3373","updatedAt":"2025-11-28","sido":"경상남도","sigungu":"합천군","dong":"합천읍"},{"name":"대병면병목보건진료소","type":"공영","category":"부설","address":"경상남도 합천군 대병면 유전리 960","lat":35.54043114,"lng":127.9890811,"totalSpaces":2,"isFree":true,"operatingDays":"평일+토요일+공휴일","weekdayOpen":"00:00","weekdayClose":"23:59","weekendOpen":"00:00","weekendClose":"23:59","holidayOpen":"00:00","holidayClose":"23:59","feeInfo":"무료","phone":"055-930-3373","updatedAt":"2025-11-28","sido":"경상남도","sigungu":"합천군","dong":"대병면"},{"name":"대병면보건지소","type":"공영","category":"부설","address":"경상남도 합천군 대병면 회양리 896-1","lat":35.52143222,"lng":128.0147071,"totalSpaces":2,"isFree":true,"operatingDays":"평일+토요일+공휴일","weekdayOpen":"00:00","weekdayClose":"23:59","weekendOpen":"00:00","weekendClose":"23:59","holidayOpen":"00:00","holidayClose":"23:59","feeInfo":"무료","phone":"055-930-3373","updatedAt":"2025-11-28","sido":"경상남도","sigungu":"합천군","dong":"대병면"},{"name":"덕곡면 다목적 강당","type":"공영","category":"부설","address":"경상남도 합천군 덕곡면 율지리 143-2","lat":35.61516118,"lng":128.3591181,"totalSpaces":2,"isFree":true,"operatingDays":"평일+토요일+공휴일","weekdayOpen":"00:00","weekdayClose":"23:59","weekendOpen":"00:00","weekendClose":"23:59","holidayOpen":"00:00","holidayClose":"23:59","feeInfo":"무료","phone":"055-930-3373","updatedAt":"2025-11-28","sido":"경상남도","sigungu":"합천군","dong":"덕곡면"},{"name":"쌍백면 보건지소","type":"공영","category":"부설","address":"경상남도 합천군 쌍백면 평구리 546-4","lat":35.4397573,"lng":128.1460456,"totalSpaces":2,"isFree":true,"operatingDays":"평일+토요일+공휴일","weekdayOpen":"00:00","weekdayClose":"23:59","weekendOpen":"00:00","weekendClose":"23:59","holidayOpen":"00:00","holidayClose":"23:59","feeInfo":"무료","phone":"055-930-3373","updatedAt":"2025-11-28","sido":"경상남도","sigungu":"합천군","dong":"쌍백면"},{"name":"삼가면 공영주차장","type":"공영","category":"노외","address":"경상남도 합천군 삼가면 일부리 878-1","lat":35.4141376,"lng":128.1232306,"totalSpaces":88,"isFree":false,"operatingDays":"평일+토요일+공휴일","weekdayOpen":"00:00","weekdayClose":"23:59","weekendOpen":"00:00","weekendClose":"23:59","holidayOpen":"00:00","holidayClose":"23:59","feeInfo":"기본 120분 500원 / 추가 30분당 500원","phone":"055-930-3373","updatedAt":"2025-11-28","sido":"경상남도","sigungu":"합천군","dong":"삼가면"},{"name":"핫들 공영주차장","type":"공영","category":"노외","address":"경상남도 합천군 합천읍 합천리 426-21","lat":35.569809,"lng":128.1663467,"totalSpaces":72,"isFree":false,"operatingDays":"평일+토요일+공휴일","weekdayOpen":"00:00","weekdayClose":"23:59","weekendOpen":"00:00","weekendClose":"23:59","holidayOpen":"00:00","holidayClose":"23:59","feeInfo":"기본 120분 500원 / 추가 30분당 500원","phone":"055-930-3373","updatedAt":"2025-11-28","sido":"경상남도","sigungu":"합천군","dong":"합천읍"},{"name":"합천 왕후시장 공영주차장","type":"공영","category":"노외","address":"경상남도 합천군 합천읍 합천리 467-3","lat":35.56810894,"lng":128.1609775,"totalSpaces":68,"isFree":false,"operatingDays":"평일+토요일+공휴일","weekdayOpen":"00:00","weekdayClose":"23:59","weekendOpen":"00:00","weekendClose":"23:59","holidayOpen":"00:00","holidayClose":"23:59","feeInfo":"기본 120분 500원 / 추가 30분당 500원","phone":"055-930-3373","updatedAt":"2025-11-28","sido":"경상남도","sigungu":"합천군","dong":"합천읍"},{"name":"합천읍 공영주차장","type":"공영","category":"노외","address":"경상남도 합천군 합천읍 합천리 668-19","lat":35.5663279,"lng":128.1617271,"totalSpaces":68,"isFree":false,"operatingDays":"평일+토요일+공휴일","weekdayOpen":"00:00","weekdayClose":"23:59","weekendOpen":"00:00","weekendClose":"23:59","holidayOpen":"00:00","holidayClose":"23:59","feeInfo":"기본 120분 500원 / 추가 30분당 500원","phone":"055-930-3373","updatedAt":"2025-11-28","sido":"경상남도","sigungu":"합천군","dong":"합천읍"},{"name":"합천터미널 앞 공영주차장","type":"공영","category":"노외","address":"경상남도 합천군 합천읍 합천리 397-4","lat":35.56737831,"lng":128.1642887,"totalSpaces":47,"isFree":false,"operatingDays":"평일+토요일+공휴일","weekdayOpen":"00:00","weekdayClose":"23:59","weekendOpen":"00:00","weekendClose":"23:59","holidayOpen":"00:00","holidayClose":"23:59","feeInfo":"기본 120분 500원 / 추가 30분당 500원","phone":"055-930-3373","updatedAt":"2025-11-28","sido":"경상남도","sigungu":"합천군","dong":"합천읍"},{"name":"이화예식장 ~ 합천시장입구","type":"공영","category":"노상","address":"경상남도 합천군 합천읍 합천리 413-8","lat":35.56826173,"lng":128.1626183,"totalSpaces":28,"isFree":false,"operatingDays":"평일+토요일+공휴일","weekdayOpen":"00:00","weekdayClose":"23:59","weekendOpen":"00:00","weekendClose":"23:59","holidayOpen":"00:00","holidayClose":"23:59","feeInfo":"기본 120분 500원 / 추가 30분당 500원","phone":"055-930-3373","updatedAt":"2025-11-28","sido":"경상남도","sigungu":"합천군","dong":"합천읍"},{"name":"합천약국 사거리 인근 공영주차장","type":"공영","category":"노외","address":"경상남도 합천군 합천읍 합천리 948-16","lat":35.5622919,"lng":128.1556866,"totalSpaces":18,"isFree":false,"operatingDays":"평일+토요일+공휴일","weekdayOpen":"00:00","weekdayClose":"23:59","weekendOpen":"00:00","weekendClose":"23:59","holidayOpen":"00:00","holidayClose":"23:59","feeInfo":"기본 120분 500원 / 추가 30분당 500원","phone":"055-930-3373","updatedAt":"2025-11-28","sido":"경상남도","sigungu":"합천군","dong":"합천읍"},{"name":"농협군지부 인근 공영주차장","type":"공영","category":"노외","address":"경상남도 합천군 합천읍 합천리 672-3","lat":35.5662446,"lng":128.1603121,"totalSpaces":14,"isFree":false,"operatingDays":"평일+토요일+공휴일","weekdayOpen":"00:00","weekdayClose":"23:59","weekendOpen":"00:00","weekendClose":"23:59","holidayOpen":"00:00","holidayClose":"23:59","feeInfo":"기본 120분 500원 / 추가 30분당 500원","phone":"055-930-3373","updatedAt":"2025-11-28","sido":"경상남도","sigungu":"합천군","dong":"합천읍"}]}