{"sido":"세종특별자치시","sigungu":"세종특별자치시","totalCount":96,"validCount":96,"items":[{"name":"나성동(CDS1)","type":"공영","category":"노외","address":"세종특별자치시 나성동 361-55","lat":36.48859775,"lng":127.2585226,"totalSpaces":665,"isFree":true,"operatingDays":"평일+토요일+공휴일","weekdayOpen":"07:00","weekdayClose":"23:00","weekendOpen":"07:00","weekendClose":"23:00","holidayOpen":"07:00","holidayClose":"23:00","feeInfo":"무료","phone":"044-300-5533","updatedAt":"2025-12-26","sido":"세종특별자치시","sigungu":"세종특별자치시","dong":"나성동"},{"name":"어진동(C47)","type":"공영","category":"노외","address":"세종특별자치시 어진동 645","lat":36.49734559,"lng":127.2674606,"totalSpaces":208,"isFree":true,"operatingDays":"평일+토요일+공휴일","weekdayOpen":"07:00","weekdayClose":"23:00","weekendOpen":"07:00","weekendClose":"23:00","holidayOpen":"07:00","holidayClose":"23:00","feeInfo":"무료","phone":"044-300-5533","updatedAt":"2025-12-26","sido":"세종특별자치시","sigungu":"세종특별자치시","dong":"어진동"},{"name":"가람동(주S-3)","type":"공영","category":"노외","address":"세종특별자치시 가람동 65","lat":36.46939307,"lng":127.2531644,"totalSpaces":180,"isFree":true,"operatingDays":"평일+토요일+공휴일","weekdayOpen":"07:00","weekdayClose":"23:00","weekendOpen":"07:00","weekendClose":"23:00","holidayOpen":"07:00","holidayClose":"23:00","feeInfo":"무료","phone":"044-300-5533","updatedAt":"2025-12-26","sido":"세종특별자치시","sigungu":"세종특별자치시","dong":"가람동"},{"name":"원리1","type":"공영","category":"노외","address":"세종특별자치시 조치원읍 원리 154-1","lat":36.59695663,"lng":127.2968062,"totalSpaces":129,"isFree":true,"operatingDays":"평일+토요일+공휴일","weekdayOpen":"07:00","weekdayClose":"23:00","weekendOpen":"07:00","weekendClose":"23:00","holidayOpen":"07:00","holidayClose":"23:00","feeInfo":"무료","phone":"044-300-5533","updatedAt":"2025-12-26","sido":"세종특별자치시","sigungu":"세종특별자치시","dong":"조치원읍"},{"name":"금남면","type":"공영","category":"노외","address":"세종특별자치시 금남면 용포로 37-1","lat":36.46193665,"lng":127.280204,"totalSpaces":108,"isFree":true,"operatingDays":"평일+토요일+공휴일","weekdayOpen":"07:00","weekdayClose":"23:00","weekendOpen":"07:00","weekendClose":"23:00","holidayOpen":"07:00","holidayClose":"23:00","feeInfo":"무료","phone":"044-300-5533","updatedAt":"2025-12-26","sido":"세종특별자치시","sigungu":"세종특별자치시","dong":"금남면"},{"name":"한솔동","type":"공영","category":"노외","address":"세종특별자치시 한솔동 961-1","lat":36.47658585,"lng":127.2562744,"totalSpaces":98,"isFree":true,"operatingDays":"평일+토요일+공휴일","weekdayOpen":"07:00","weekdayClose":"23:00","weekendOpen":"07:00","weekendClose":"23:00","holidayOpen":"07:00","holidayClose":"23:00","feeInfo":"무료","phone":"044-300-5533","updatedAt":"2025-12-26","sido":"세종특별자치시","sigungu":"세종특별자치시","dong":"한솔동"},{"name":"소담동(주3-7)","type":"공영","category":"노외","address":"세종특별자치시 소담동 549","lat":36.48481709,"lng":127.2946232,"totalSpaces":58,"isFree":true,"operatingDays":"평일+토요일+공휴일","weekdayOpen":"07:00","weekdayClose":"23:00","weekendOpen":"07:00","weekendClose":"23:00","holidayOpen":"07:00","holidayClose":"23:00","feeInfo":"무료","phone":"044-300-5533","updatedAt":"2025-12-26","sido":"세종특별자치시","sigungu":"세종특별자치시","dong":"소담동"},{"name":"대평동","type":"공영","category":"노외","address":"세종특별자치시 대평동 666","lat":36.4758394,"lng":127.2769765,"totalSpaces":56,"isFree":true,"operatingDays":"평일+토요일+공휴일","weekdayOpen":"07:00","weekdayClose":"23:00","weekendOpen":"07:00","weekendClose":"23:00","holidayOpen":"07:00","holidayClose":"23:00","feeInfo":"무료","phone":"044-300-5533","updatedAt":"2025-12-26","sido":"세종특별자치시","sigungu":"세종특별자치시","dong":"대평동"},{"name":"교리","type":"공영","category":"노외","address":"세종특별자치시 조치원읍 교리 1-14","lat":36.6064637,"lng":127.2989399,"totalSpaces":49,"isFree":true,"operatingDays":"평일+토요일+공휴일","weekdayOpen":"07:00","weekdayClose":"23:00","weekendOpen":"07:00","weekendClose":"23:00","holidayOpen":"07:00","holidayClose":"23:00","feeInfo":"무료","phone":"044-300-5533","updatedAt":"2025-12-26","sido":"세종특별자치시","sigungu":"세종특별자치시","dong":"조치원읍"},{"name":"신안리","type":"공영","category":"노외","address":"세종특별자치시 조치원읍 신안리 541","lat":36.6167035,"lng":127.2847418,"totalSpaces":49,"isFree":true,"operatingDays":"평일+토요일+공휴일","weekdayOpen":"07:00","weekdayClose":"23:00","weekendOpen":"07:00","weekendClose":"23:00","holidayOpen":"07:00","holidayClose":"23:00","feeInfo":"무료","phone":"044-300-5533","updatedAt":"2025-12-26","sido":"세종특별자치시","sigungu":"세종특별자치시","dong":"조치원읍"},{"name":"남리","type":"공영","category":"노외","address":"세종특별자치시 조치원읍 남리 433","lat":36.5949536,"lng":127.2996409,"totalSpaces":45,"isFree":true,"operatingDays":"평일+토요일+공휴일","weekdayOpen":"07:00","weekdayClose":"23:00","weekendOpen":"07:00","weekendClose":"23:00","holidayOpen":"07:00","holidayClose":"23:00","feeInfo":"무료","phone":"044-300-5533","updatedAt":"2025-12-26","sido":"세종특별자치시","sigungu":"세종특별자치시","dong":"조치원읍"},{"name":"고복자연공원 방문자센터","type":"공영","category":"노외","address":"세종특별자치시 연서면 용암리 203-6","lat":36.59986238,"lng":127.2276795,"totalSpaces":43,"isFree":true,"operatingDays":"평일+토요일+공휴일","weekdayOpen":"00:00","weekdayClose":"23:59","weekendOpen":"00:00","weekendClose":"23:59","holidayOpen":"00:00","holidayClose":"23:59","feeInfo":"무료","phone":"044-301-3962","updatedAt":"2025-12-26","sido":"세종특별자치시","sigungu":"세종특별자치시","dong":"연서면"},{"name":"원리2","type":"공영","category":"노외","address":"세종특별자치시 조치원읍 원리 154-11","lat":36.5975716,"lng":127.2971762,"totalSpaces":40,"isFree":true,"operatingDays":"평일+토요일+공휴일","weekdayOpen":"07:00","weekdayClose":"23:00","weekendOpen":"07:00","weekendClose":"23:00","holidayOpen":"07:00","holidayClose":"23:00","feeInfo":"무료","phone":"044-300-5533","updatedAt":"2025-12-26","sido":"세종특별자치시","sigungu":"세종특별자치시","dong":"조치원읍"},{"name":"원리3","type":"공영","category":"노외","address":"세종특별자치시 조치원읍 원리 154-13","lat":36.59686001,"lng":127.2974185,"totalSpaces":38,"isFree":true,"operatingDays":"평일+토요일+공휴일","weekdayOpen":"07:00","weekdayClose":"23:00","weekendOpen":"07:00","weekendClose":"23:00","holidayOpen":"07:00","holidayClose":"23:00","feeInfo":"무료","phone":"044-300-5533","updatedAt":"2025-12-26","sido":"세종특별자치시","sigungu":"세종특별자치시","dong":"조치원읍"},{"name":"죽림리8","type":"공영","category":"노외","address":"세종특별자치시 조치원읍 죽림리 156-14","lat":36.5914303,"lng":127.2954557,"totalSpaces":38,"isFree":true,"operatingDays":"평일+토요일+공휴일","weekdayOpen":"07:00","weekdayClose":"23:00","weekendOpen":"07:00","weekendClose":"23:00","holidayOpen":"07:00","holidayClose":"23:00","feeInfo":"무료","phone":"044-300-5533","updatedAt":"2025-12-26","sido":"세종특별자치시","sigungu":"세종특별자치시","dong":"조치원읍"},{"name":"봉산리","type":"공영","category":"노외","address":"세종특별자치시 조치원읍 봉산리 382","lat":36.6023591,"lng":127.2826619,"totalSpaces":38,"isFree":true,"operatingDays":"평일+토요일+공휴일","weekdayOpen":"07:00","weekdayClose":"23:00","weekendOpen":"07:00","weekendClose":"23:00","holidayOpen":"07:00","holidayClose":"23:00","feeInfo":"무료","phone":"044-300-5533","updatedAt":"2025-12-26","sido":"세종특별자치시","sigungu":"세종특별자치시","dong":"조치원읍"},{"name":"죽림리4","type":"공영","category":"노외","address":"세종특별자치시 조치원읍 죽림본로 48-1","lat":36.5909418,"lng":127.2933655,"totalSpaces":32,"isFree":true,"operatingDays":"평일+토요일+공휴일","weekdayOpen":"07:00","weekdayClose":"23:00","weekendOpen":"07:00","weekendClose":"23:00","holidayOpen":"07:00","holidayClose":"23:00","feeInfo":"무료","phone":"044-300-5533","updatedAt":"2025-12-26","sido":"세종특별자치시","sigungu":"세종특별자치시","dong":"조치원읍"},{"name":"죽림리6","type":"공영","category":"노외","address":"세종특별자치시 조치원읍 죽림리 212-2","lat":36.59143398,"lng":127.2973612,"totalSpaces":29,"isFree":true,"operatingDays":"평일+토요일+공휴일","weekdayOpen":"07:00","weekdayClose":"23:00","weekendOpen":"07:00","weekendClose":"23:00","holidayOpen":"07:00","holidayClose":"23:00","feeInfo":"무료","phone":"044-300-5533","updatedAt":"2025-12-26","sido":"세종특별자치시","sigungu":"세종특별자치시","dong":"조치원읍"},{"name":"신흥리1","type":"공영","category":"노외","address":"세종특별자치시 조치원읍 신흥리 1-18","lat":36.59718139,"lng":127.2948157,"totalSpaces":28,"isFree":true,"operatingDays":"평일+토요일+공휴일","weekdayOpen":"07:00","weekdayClose":"23:00","weekendOpen":"07:00","weekendClose":"23:00","holidayOpen":"07:00","holidayClose":"23:00","feeInfo":"무료","phone":"044-300-5533","updatedAt":"2025-12-26","sido":"세종특별자치시","sigungu":"세종특별자치시","dong":"조치원읍"},{"name":"죽림리3","type":"공영","category":"노외","address":"세종특별자치시 조치원읍 죽림리 139","lat":36.5914934,"lng":127.2925297,"totalSpaces":25,"isFree":true,"operatingDays":"평일+토요일+공휴일","weekdayOpen":"07:00","weekdayClose":"23:00","weekendOpen":"07:00","weekendClose":"23:00","holidayOpen":"07:00","holidayClose":"23:00","feeInfo":"무료","phone":"044-300-5533","updatedAt":"2025-12-26","sido":"세종특별자치시","sigungu":"세종특별자치시","dong":"조치원읍"},{"name":"침산리18","type":"공영","category":"노외","address":"세종특별자치시 조치원읍 침산리 251-9","lat":36.6048758,"lng":127.2910161,"totalSpaces":23,"isFree":true,"operatingDays":"평일+토요일+공휴일","weekdayOpen":"07:00","weekdayClose":"23:00","weekendOpen":"07:00","weekendClose":"23:00","holidayOpen":"07:00","holidayClose":"23:00","feeInfo":"무료","phone":"044-300-5533","updatedAt":"2025-12-26","sido":"세종특별자치시","sigungu":"세종특별자치시","dong":"조치원읍"},{"name":"죽림리1","type":"공영","category":"노외","address":"세종특별자치시 조치원읍 죽림리 97-3","lat":36.5922536,"lng":127.2957203,"totalSpaces":22,"isFree":true,"operatingDays":"평일+토요일+공휴일","weekdayOpen":"07:00","weekdayClose":"23:00","weekendOpen":"07:00","weekendClose":"23:00","holidayOpen":"07:00","holidayClose":"23:00","feeInfo":"무료","phone":"044-300-5533","updatedAt":"2025-12-26","sido":"세종특별자치시","sigungu":"세종특별자치시","dong":"조치원읍"},{"name":"침산리1","type":"공영","category":"노외","address":"세종특별자치시 조치원읍 침산리 254-8","lat":36.6052085,"lng":127.2929447,"totalSpaces":21,"isFree":true,"operatingDays":"평일+토요일+공휴일","weekdayOpen":"07:00","weekdayClose":"23:00","weekendOpen":"07:00","weekendClose":"23:00","holidayOpen":"07:00","holidayClose":"23:00","feeInfo":"무료","phone":"044-300-5533","updatedAt":"2025-12-26","sido":"세종특별자치시","sigungu":"세종특별자치시","dong":"조치원읍"},{"name":"침산리19","type":"공영","category":"노외","address":"세종특별자치시 조치원읍 침산리 252-10","lat":36.6049246,"lng":127.2914987,"totalSpaces":21,"isFree":true,"operatingDays":"평일+토요일+공휴일","weekdayOpen":"07:00","weekdayClose":"23:00","weekendOpen":"07:00","weekendClose":"23:00","holidayOpen":"07:00","holidayClose":"23:00","feeInfo":"무료","phone":"044-300-5533","updatedAt":"2025-12-26","sido":"세종특별자치시","sigungu":"세종특별자치시","dong":"조치원읍"},{"name":"부강리3","type":"공영","category":"노외","address":"세종특별자치시 부강면 부강리 434-30","lat":36.52842168,"lng":127.3673136,"totalSpaces":21,"isFree":true,"operatingDays":"평일+토요일+공휴일","weekdayOpen":"07:00","weekdayClose":"23:00","weekendOpen":"07:00","weekendClose":"23:00","holidayOpen":"07:00","holidayClose":"23:00","feeInfo":"무료","phone":"044-300-5533","updatedAt":"2025-12-26","sido":"세종특별자치시","sigungu":"세종특별자치시","dong":"부강면"},{"name":"침산리16","type":"공영","category":"노외","address":"세종특별자치시 조치원읍 침산리 264-6","lat":36.6043613,"lng":127.292332,"totalSpaces":19,"isFree":true,"operatingDays":"평일+토요일+공휴일","weekdayOpen":"07:00","weekdayClose":"23:00","weekendOpen":"07:00","weekendClose":"23:00","holidayOpen":"07:00","holidayClose":"23:00","feeInfo":"무료","phone":"044-300-5533","updatedAt":"2025-12-26","sido":"세종특별자치시","sigungu":"세종특별자치시","dong":"조치원읍"},{"name":"침산리20","type":"공영","category":"노외","address":"세종특별자치시 조치원읍 침산리 259-6","lat":36.6040541,"lng":127.2937427,"totalSpaces":19,"isFree":true,"operatingDays":"평일+토요일+공휴일","weekdayOpen":"07:00","weekdayClose":"23:00","weekendOpen":"07:00","weekendClose":"23:00","holidayOpen":"07:00","holidayClose":"23:00","feeInfo":"무료","phone":"044-300-5533","updatedAt":"2025-12-26","sido":"세종특별자치시","sigungu":"세종특별자치시","dong":"조치원읍"},{"name":"고운동(주1-12)","type":"공영","category":"노외","address":"세종특별자치시 고운동 1785","lat":36.50198043,"lng":127.2388442,"totalSpaces":18,"isFree":true,"operatingDays":"평일+토요일+공휴일","weekdayOpen":"07:00","weekdayClose":"23:00","weekendOpen":"07:00","weekendClose":"23:00","holidayOpen":"07:00","holidayClose":"23:00","feeInfo":"무료","phone":"044-300-5533","updatedAt":"2025-12-26","sido":"세종특별자치시","sigungu":"세종특별자치시","dong":"고운동"},{"name":"죽림리5","type":"공영","category":"노외","address":"세종특별자치시 조치원읍 죽림리 136","lat":36.5909599,"lng":127.2931045,"totalSpaces":17,"isFree":true,"operatingDays":"평일+토요일+공휴일","weekdayOpen":"07:00","weekdayClose":"23:00","weekendOpen":"07:00","weekendClose":"23:00","holidayOpen":"07:00","holidayClose":"23:00","feeInfo":"무료","phone":"044-300-5533","updatedAt":"2025-12-26","sido":"세종특별자치시","sigungu":"세종특별자치시","dong":"조치원읍"},{"name":"침산리8","type":"공영","category":"노외","address":"세종특별자치시 조치원읍 침산리 270-6","lat":36.6030928,"lng":127.2908008,"totalSpaces":17,"isFree":true,"operatingDays":"평일+토요일+공휴일","weekdayOpen":"07:00","weekdayClose":"23:00","weekendOpen":"07:00","weekendClose":"23:00","holidayOpen":"07:00","holidayClose":"23:00","feeInfo":"무료","phone":"044-300-5533","updatedAt":"2025-12-26","sido":"세종특별자치시","sigungu":"세종특별자치시","dong":"조치원읍"},{"name":"침산리15","type":"공영","category":"노외","address":"세종특별자치시 조치원읍 침산리 251-8","lat":36.6050106,"lng":127.2909562,"totalSpaces":17,"isFree":true,"operatingDays":"평일+토요일+공휴일","weekdayOpen":"07:00","weekdayClose":"23:00","weekendOpen":"07:00","weekendClose":"23:00","holidayOpen":"07:00","holidayClose":"23:00","feeInfo":"무료","phone":"044-300-5533","updatedAt":"2025-12-26","sido":"세종특별자치시","sigungu":"세종특별자치시","dong":"조치원읍"},{"name":"침산리4","type":"공영","category":"노외","address":"세종특별자치시 조치원읍 침산리 266-11","lat":36.6045048,"lng":127.2907768,"totalSpaces":16,"isFree":true,"operatingDays":"평일+토요일+공휴일","weekdayOpen":"07:00","weekdayClose":"23:00","weekendOpen":"07:00","weekendClose":"23:00","holidayOpen":"07:00","holidayClose":"23:00","feeInfo":"무료","phone":"044-300-5533","updatedAt":"2025-12-26","sido":"세종특별자치시","sigungu":"세종특별자치시","dong":"조치원읍"},{"name":"고운동(주1-7)","type":"공영","category":"노외","address":"세종특별자치시 고운동 1218","lat":36.51683709,"lng":127.2350177,"totalSpaces":16,"isFree":true,"operatingDays":"평일+토요일+공휴일","weekdayOpen":"07:00","weekdayClose":"23:00","weekendOpen":"07:00","weekendClose":"23:00","holidayOpen":"07:00","holidayClose":"23:00","feeInfo":"무료","phone":"044-300-5533","updatedAt":"2025-12-26","sido":"세종특별자치시","sigungu":"세종특별자치시","dong":"고운동"},{"name":"신흥리2","type":"공영","category":"노외","address":"세종특별자치시 조치원읍 신흥샛터길 21","lat":36.5970124,"lng":127.2929002,"totalSpaces":16,"isFree":true,"operatingDays":"평일+토요일+공휴일","weekdayOpen":"07:00","weekdayClose":"23:00","weekendOpen":"07:00","weekendClose":"23:00","holidayOpen":"07:00","holidayClose":"23:00","feeInfo":"무료","phone":"044-300-5533","updatedAt":"2025-12-26","sido":"세종특별자치시","sigungu":"세종특별자치시","dong":"조치원읍"},{"name":"부강리2","type":"공영","category":"노외","address":"세종특별자치시 부강면 부촌길 24","lat":36.52869512,"lng":127.3678869,"totalSpaces":15,"isFree":true,"operatingDays":"평일+토요일+공휴일","weekdayOpen":"07:00","weekdayClose":"23:00","weekendOpen":"07:00","weekendClose":"23:00","holidayOpen":"07:00","holidayClose":"23:00","feeInfo":"무료","phone":"044-300-5533","updatedAt":"2025-12-26","sido":"세종특별자치시","sigungu":"세종특별자치시","dong":"부강면"},{"name":"번암리1","type":"공영","category":"노외","address":"세종특별자치시 조치원읍 번암리 90-1","lat":36.5859156,"lng":127.2943109,"totalSpaces":15,"isFree":true,"operatingDays":"평일+토요일+공휴일","weekdayOpen":"07:00","weekdayClose":"23:00","weekendOpen":"07:00","weekendClose":"23:00","holidayOpen":"07:00","holidayClose":"23:00","feeInfo":"무료","phone":"044-300-5533","updatedAt":"2025-12-26","sido":"세종특별자치시","sigungu":"세종특별자치시","dong":"조치원읍"},{"name":"고운동(주1-13)","type":"공영","category":"노외","address":"세종특별자치시 고운동 1812","lat":36.5012893,"lng":127.2358746,"totalSpaces":14,"isFree":true,"operatingDays":"평일+토요일+공휴일","weekdayOpen":"07:00","weekdayClose":"23:00","weekendOpen":"07:00","weekendClose":"23:00","holidayOpen":"07:00","holidayClose":"23:00","feeInfo":"무료","phone":"044-300-5533","updatedAt":"2025-12-26","sido":"세종특별자치시","sigungu":"세종특별자치시","dong":"고운동"},{"name":"고운동(주1-14)","type":"공영","category":"노외","address":"세종특별자치시 고운동 1910","lat":36.50130085,"lng":127.2364885,"totalSpaces":14,"isFree":true,"operatingDays":"평일+토요일+공휴일","weekdayOpen":"07:00","weekdayClose":"23:00","weekendOpen":"07:00","weekendClose":"23:00","holidayOpen":"07:00","holidayClose":"23:00","feeInfo":"무료","phone":"044-300-5533","updatedAt":"2025-12-26","sido":"세종특별자치시","sigungu":"세종특별자치시","dong":"고운동"},{"name":"부강리1","type":"공영","category":"노외","address":"세종특별자치시 부강면 부강리 462-12","lat":36.52927377,"lng":127.368217,"totalSpaces":13,"isFree":true,"operatingDays":"평일+토요일+공휴일","weekdayOpen":"07:00","weekdayClose":"23:00","weekendOpen":"07:00","weekendClose":"23:00","holidayOpen":"07:00","holidayClose":"23:00","feeInfo":"무료","phone":"044-300-5533","updatedAt":"2025-12-26","sido":"세종특별자치시","sigungu":"세종특별자치시","dong":"부강면"},{"name":"상리","type":"공영","category":"노외","address":"세종특별자치시 조치원읍 상리 19-2","lat":36.60282502,"lng":127.3032063,"totalSpaces":13,"isFree":true,"operatingDays":"평일+토요일+공휴일","weekdayOpen":"07:00","weekdayClose":"23:00","weekendOpen":"07:00","weekendClose":"23:00","holidayOpen":"07:00","holidayClose":"23:00","feeInfo":"무료","phone":"044-300-5533","updatedAt":"2025-12-26","sido":"세종특별자치시","sigungu":"세종특별자치시","dong":"조치원읍"},{"name":"번암리2","type":"공영","category":"노외","address":"세종특별자치시 조치원읍 번암리 209-14","lat":36.5829588,"lng":127.2904448,"totalSpaces":13,"isFree":true,"operatingDays":"평일+토요일+공휴일","weekdayOpen":"07:00","weekdayClose":"23:00","weekendOpen":"07:00","weekendClose":"23:00","holidayOpen":"07:00","holidayClose":"23:00","feeInfo":"무료","phone":"044-300-5533","updatedAt":"2025-12-26","sido":"세종특별자치시","sigungu":"세종특별자치시","dong":"조치원읍"},{"name":"침산리5","type":"공영","category":"노외","address":"세종특별자치시 조치원읍 침산리 254-3","lat":36.6054656,"lng":127.2930825,"totalSpaces":12,"isFree":true,"operatingDays":"평일+토요일+공휴일","weekdayOpen":"07:00","weekdayClose":"23:00","weekendOpen":"07:00","weekendClose":"23:00","holidayOpen":"07:00","holidayClose":"23:00","feeInfo":"무료","phone":"044-300-5533","updatedAt":"2025-12-26","sido":"세종특별자치시","sigungu":"세종특별자치시","dong":"조치원읍"},{"name":"침산리6","type":"공영","category":"노외","address":"세종특별자치시 조치원읍 침산리 251-13","lat":36.6047987,"lng":127.2902572,"totalSpaces":12,"isFree":true,"operatingDays":"평일+토요일+공휴일","weekdayOpen":"07:00","weekdayClose":"23:00","weekendOpen":"07:00","weekendClose":"23:00","holidayOpen":"07:00","holidayClose":"23:00","feeInfo":"무료","phone":"044-300-5533","updatedAt":"2025-12-26","sido":"세종특별자치시","sigungu":"세종특별자치시","dong":"조치원읍"},{"name":"고운동(주1-10)","type":"공영","category":"노외","address":"세종특별자치시 고운동 1527","lat":36.50735711,"lng":127.2317493,"totalSpaces":12,"isFree":true,"operatingDays":"평일+토요일+공휴일","weekdayOpen":"07:00","weekdayClose":"23:00","weekendOpen":"07:00","weekendClose":"23:00","holidayOpen":"07:00","holidayClose":"23:00","feeInfo":"무료","phone":"044-300-5533","updatedAt":"2025-12-26","sido":"세종특별자치시","sigungu":"세종특별자치시","dong":"고운동"},{"name":"서창리2","type":"공영","category":"노외","address":"세종특별자치시 조치원읍 서창리 289-2","lat":36.60801006,"lng":127.2930005,"totalSpaces":12,"isFree":true,"operatingDays":"평일+토요일+공휴일","weekdayOpen":"07:00","weekdayClose":"23:00","weekendOpen":"07:00","weekendClose":"23:00","holidayOpen":"07:00","holidayClose":"23:00","feeInfo":"무료","phone":"044-300-5533","updatedAt":"2025-12-26","sido":"세종특별자치시","sigungu":"세종특별자치시","dong":"조치원읍"},{"name":"침산리9","type":"공영","category":"노외","address":"세종특별자치시 조치원읍 침산리 284-7","lat":36.5996042,"lng":127.2894163,"totalSpaces":11,"isFree":true,"operatingDays":"평일+토요일+공휴일","weekdayOpen":"07:00","weekdayClose":"23:00","weekendOpen":"07:00","weekendClose":"23:00","holidayOpen":"07:00","holidayClose":"23:00","feeInfo":"무료","phone":"044-300-5533","updatedAt":"2025-12-26","sido":"세종특별자치시","sigungu":"세종특별자치시","dong":"조치원읍"},{"name":"침산리13","type":"공영","category":"노외","address":"세종특별자치시 조치원읍 침산리 268-12","lat":36.6037189,"lng":127.2904399,"totalSpaces":11,"isFree":true,"operatingDays":"평일+토요일+공휴일","weekdayOpen":"07:00","weekdayClose":"23:00","weekendOpen":"07:00","weekendClose":"23:00","holidayOpen":"07:00","holidayClose":"23:00","feeInfo":"무료","phone":"044-300-5533","updatedAt":"2025-12-26","sido":"세종특별자치시","sigungu":"세종특별자치시","dong":"조치원읍"},{"name":"서창리1","type":"공영","category":"노외","address":"세종특별자치시 조치원읍 서창리 291-8","lat":36.6071061,"lng":127.2934859,"totalSpaces":11,"isFree":true,"operatingDays":"평일+토요일+공휴일","weekdayOpen":"07:00","weekdayClose":"23:00","weekendOpen":"07:00","weekendClose":"23:00","holidayOpen":"07:00","holidayClose":"23:00","feeInfo":"무료","phone":"044-300-5533","updatedAt":"2025-12-26","sido":"세종특별자치시","sigungu":"세종특별자치시","dong":"조치원읍"},{"name":"침산리2","type":"공영","category":"노외","address":"세종특별자치시 조치원읍 침산리 253-5","lat":36.605094,"lng":127.2927184,"totalSpaces":10,"isFree":true,"operatingDays":"평일+토요일+공휴일","weekdayOpen":"07:00","weekdayClose":"23:00","weekendOpen":"07:00","weekendClose":"23:00","holidayOpen":"07:00","holidayClose":"23:00","feeInfo":"무료","phone":"044-300-5533","updatedAt":"2025-12-26","sido":"세종특별자치시","sigungu":"세종특별자치시","dong":"조치원읍"},{"name":"침산리17","type":"공영","category":"노외","address":"세종특별자치시 조치원읍 침산리 277-13","lat":36.60192428,"lng":127.2883287,"totalSpaces":10,"isFree":true,"operatingDays":"평일+토요일+공휴일","weekdayOpen":"07:00","weekdayClose":"23:00","weekendOpen":"07:00","weekendClose":"23:00","holidayOpen":"07:00","holidayClose":"23:00","feeInfo":"무료","phone":"044-300-5533","updatedAt":"2025-12-26","sido":"세종특별자치시","sigungu":"세종특별자치시","dong":"조치원읍"},{"name":"침산리10","type":"공영","category":"노외","address":"세종특별자치시 조치원읍 침산리 252-3","lat":36.6051481,"lng":127.2916974,"totalSpaces":9,"isFree":true,"operatingDays":"평일+토요일+공휴일","weekdayOpen":"07:00","weekdayClose":"23:00","weekendOpen":"07:00","weekendClose":"23:00","holidayOpen":"07:00","holidayClose":"23:00","feeInfo":"무료","phone":"044-300-5533","updatedAt":"2025-12-26","sido":"세종특별자치시","sigungu":"세종특별자치시","dong":"조치원읍"},{"name":"죽림리7","type":"공영","category":"노외","address":"세종특별자치시 조치원읍 죽림리 359-4","lat":36.5897515,"lng":127.2921139,"totalSpaces":9,"isFree":true,"operatingDays":"평일+토요일+공휴일","weekdayOpen":"07:00","weekdayClose":"23:00","weekendOpen":"07:00","weekendClose":"23:00","holidayOpen":"07:00","holidayClose":"23:00","feeInfo":"무료","phone":"044-300-5533","updatedAt":"2025-12-26","sido":"세종특별자치시","sigungu":"세종특별자치시","dong":"조치원읍"},{"name":"침산리7","type":"공영","category":"노외","address":"세종특별자치시 조치원읍 침산리 260-7","lat":36.6039083,"lng":127.2933385,"totalSpaces":8,"isFree":true,"operatingDays":"평일+토요일+공휴일","weekdayOpen":"07:00","weekdayClose":"23:00","weekendOpen":"07:00","weekendClose":"23:00","holidayOpen":"07:00","holidayClose":"23:00","feeInfo":"무료","phone":"044-300-5533","updatedAt":"2025-12-26","sido":"세종특별자치시","sigungu":"세종특별자치시","dong":"조치원읍"},{"name":"침산리3","type":"공영","category":"노외","address":"세종특별자치시 조치원읍 침산리 272-9","lat":36.6022069,"lng":127.291497,"totalSpaces":6,"isFree":true,"operatingDays":"평일+토요일+공휴일","weekdayOpen":"07:00","weekdayClose":"23:00","weekendOpen":"07:00","weekendClose":"23:00","holidayOpen":"07:00","holidayClose":"23:00","feeInfo":"무료","phone":"044-300-5533","updatedAt":"2025-12-26","sido":"세종특별자치시","sigungu":"세종특별자치시","dong":"조치원읍"},{"name":"침산리12","type":"공영","category":"노외","address":"세종특별자치시 조치원읍 침산리 259-3","lat":36.6044805,"lng":127.2936375,"totalSpaces":6,"isFree":true,"operatingDays":"평일+토요일+공휴일","weekdayOpen":"07:00","weekdayClose":"23:00","weekendOpen":"07:00","weekendClose":"23:00","holidayOpen":"07:00","holidayClose":"23:00","feeInfo":"무료","phone":"044-300-5533","updatedAt":"2025-12-26","sido":"세종특별자치시","sigungu":"세종특별자치시","dong":"조치원읍"},{"name":"침산리14","type":"공영","category":"노외","address":"세종특별자치시 조치원읍 침산리 284-9","lat":36.5995664,"lng":127.289066,"totalSpaces":6,"isFree":true,"operatingDays":"평일+토요일+공휴일","weekdayOpen":"07:00","weekdayClose":"23:00","weekendOpen":"07:00","weekendClose":"23:00","holidayOpen":"07:00","holidayClose":"23:00","feeInfo":"무료","phone":"044-300-5533","updatedAt":"2025-12-26","sido":"세종특별자치시","sigungu":"세종특별자치시","dong":"조치원읍"},{"name":"죽림리2","type":"공영","category":"노외","address":"세종특별자치시 조치원읍 죽림리 97-6","lat":36.59212688,"lng":127.2954506,"totalSpaces":4,"isFree":true,"operatingDays":"평일+토요일+공휴일","weekdayOpen":"07:00","weekdayClose":"23:00","weekendOpen":"07:00","weekendClose":"23:00","holidayOpen":"07:00","holidayClose":"23:00","feeInfo":"무료","phone":"044-300-5533","updatedAt":"2025-12-26","sido":"세종특별자치시","sigungu":"세종특별자치시","dong":"조치원읍"},{"name":"침산리11","type":"공영","category":"노외","address":"세종특별자치시 조치원읍 침산리 255-2","lat":36.60589417,"lng":127.2934734,"totalSpaces":4,"isFree":true,"operatingDays":"평일+토요일+공휴일","weekdayOpen":"07:00","weekdayClose":"23:00","weekendOpen":"07:00","weekendClose":"23:00","holidayOpen":"07:00","holidayClose":"23:00","feeInfo":"무료","phone":"044-300-5533","updatedAt":"2025-12-26","sido":"세종특별자치시","sigungu":"세종특별자치시","dong":"조치원읍"},{"name":"정부세종청사BRT환승센터","type":"공영","category":"노외","address":"세종특별자치시 도움3로 5","lat":36.502083,"lng":127.2594886,"totalSpaces":568,"isFree":false,"operatingDays":"평일+토요일+공휴일","weekdayOpen":"08:00","weekdayClose":"22:00","weekendOpen":"08:00","weekendClose":"22:00","holidayOpen":"08:00","holidayClose":"22:00","feeInfo":"기본 15분 500원 / 추가 15분당 300원","phone":"044-850-1295","updatedAt":"2025-12-26","sido":"세종특별자치시","sigungu":"세종특별자치시","dong":""},{"name":"정부세종청사 BRT환승센터","type":"공영","category":"노외","address":"세종특별자치시 도움3로 5","lat":36.502083,"lng":127.2594886,"totalSpaces":568,"isFree":false,"operatingDays":"평일+토요일+공휴일","weekdayOpen":"08:00","weekdayClose":"22:00","weekendOpen":"08:00","weekendClose":"22:00","holidayOpen":"08:00","holidayClose":"22:00","feeInfo":"기본 30분 500원 / 추가 15분당 500원","phone":"044-850-1295","updatedAt":"2026-01-02","sido":"세종특별자치시","sigungu":"세종특별자치시","dong":""},{"name":"세종남부brt 환승센터","type":"공영","category":"노외","address":"세종특별자치시 소담동 554","lat":36.48657687,"lng":127.3023583,"totalSpaces":464,"isFree":false,"operatingDays":"평일+토요일+공휴일","weekdayOpen":"08:00","weekdayClose":"22:00","weekendOpen":"08:00","weekendClose":"22:00","holidayOpen":"08:00","holidayClose":"22:00","feeInfo":"기본 30분 500원 / 추가 10분당 300원","phone":"044-850-1295","updatedAt":"2025-12-26","sido":"세종특별자치시","sigungu":"세종특별자치시","dong":"소담동"},{"name":"세종남부 BRT환승센터","type":"공영","category":"노외","address":"세종특별자치시 소담동 554","lat":36.48657687,"lng":127.3023583,"totalSpaces":464,"isFree":false,"operatingDays":"평일+토요일+공휴일","weekdayOpen":"08:00","weekdayClose":"22:00","weekendOpen":"08:00","weekendClose":"22:00","holidayOpen":"08:00","holidayClose":"22:00","feeInfo":"기본 30분 500원 / 추가 15분당 500원","phone":"044-850-1295","updatedAt":"2026-01-02","sido":"세종특별자치시","sigungu":"세종특별자치시","dong":"소담동"},{"name":"2생활권 환승주차장A","type":"공영","category":"노외","address":"세종특별자치시 한솔동로 26","lat":36.48081974,"lng":127.261498,"totalSpaces":270,"isFree":false,"operatingDays":"평일+토요일+공휴일","weekdayOpen":"08:00","weekdayClose":"22:00","weekendOpen":"08:00","weekendClose":"22:00","holidayOpen":"08:00","holidayClose":"22:00","feeInfo":"기본 30분 500원 / 추가 10분당 300원","phone":"044-850-1295","updatedAt":"2025-12-26","sido":"세종특별자치시","sigungu":"세종특별자치시","dong":"나성동"},{"name":"2생활권 환승주차장B","type":"공영","category":"노외","address":"세종특별자치시 나성남로 7-7","lat":36.48125005,"lng":127.2623967,"totalSpaces":270,"isFree":false,"operatingDays":"평일+토요일+공휴일","weekdayOpen":"08:00","weekdayClose":"22:00","weekendOpen":"08:00","weekendClose":"22:00","holidayOpen":"08:00","holidayClose":"22:00","feeInfo":"기본 30분 500원 / 추가 10분당 300원","phone":"044-850-1295","updatedAt":"2025-12-26","sido":"세종특별자치시","sigungu":"세종특별자치시","dong":"나성동"},{"name":"첫마을 BRT환승센터A","type":"공영","category":"노외","address":"세종특별자치시 한솔동로 26","lat":36.48081974,"lng":127.261498,"totalSpaces":269,"isFree":false,"operatingDays":"평일+토요일+공휴일","weekdayOpen":"08:00","weekdayClose":"22:00","weekendOpen":"08:00","weekendClose":"22:00","holidayOpen":"08:00","holidayClose":"22:00","feeInfo":"기본 30분 500원 / 추가 15분당 500원","phone":"044-850-1295","updatedAt":"2026-01-02","sido":"세종특별자치시","sigungu":"세종특별자치시","dong":"나성동"},{"name":"첫마을 BRT환승센터B","type":"공영","category":"노외","address":"세종특별자치시 나성남로 7-7","lat":36.48125005,"lng":127.2623967,"totalSpaces":269,"isFree":false,"operatingDays":"평일+토요일+공휴일","weekdayOpen":"08:00","weekdayClose":"22:00","weekendOpen":"08:00","weekendClose":"22:00","holidayOpen":"08:00","holidayClose":"22:00","feeInfo":"기본 30분 500원 / 추가 15분당 500원","phone":"044-850-1295","updatedAt":"2026-01-02","sido":"세종특별자치시","sigungu":"세종특별자치시","dong":"나성동"},{"name":"도시상징광장주차장","type":"공영","category":"노외","address":"세종특별자치시 어울누리로 30","lat":36.48519056,"lng":127.2621038,"totalSpaces":262,"isFree":false,"operatingDays":"평일+토요일+공휴일","weekdayOpen":"08:00","weekdayClose":"22:00","weekendOpen":"08:00","weekendClose":"22:00","holidayOpen":"08:00","holidayClose":"22:00","feeInfo":"기본 30분 500원 / 추가 10분당 300원","phone":"044-850-1295","updatedAt":"2025-12-26","sido":"세종특별자치시","sigungu":"세종특별자치시","dong":"나성동"},{"name":"도시상징광장주차장","type":"공영","category":"노외","address":"세종특별자치시 어울누리로 30","lat":36.48519056,"lng":127.2621038,"totalSpaces":262,"isFree":false,"operatingDays":"평일+토요일+공휴일","weekdayOpen":"08:00","weekdayClose":"22:00","weekendOpen":"08:00","weekendClose":"22:00","holidayOpen":"08:00","holidayClose":"22:00","feeInfo":"기본 30분 500원 / 추가 15분당 500원","phone":"044-850-1295","updatedAt":"2026-01-02","sido":"세종특별자치시","sigungu":"세종특별자치시","dong":"나성동"},{"name":"아름동공영주차장","type":"공영","category":"노외","address":"세종특별자치시 보듬3로 105","lat":36.511372,"lng":127.247876,"totalSpaces":236,"isFree":false,"operatingDays":"평일+토요일+공휴일","weekdayOpen":"08:00","weekdayClose":"22:00","weekendOpen":"08:00","weekendClose":"22:00","holidayOpen":"08:00","holidayClose":"22:00","feeInfo":"기본 30분 500원 / 추가 10분당 300원","phone":"044-850-1295","updatedAt":"2025-12-26","sido":"세종특별자치시","sigungu":"세종특별자치시","dong":"아름동"},{"name":"아름동공영주차장","type":"공영","category":"노외","address":"세종특별자치시 보듬3로 105","lat":36.511372,"lng":127.247876,"totalSpaces":233,"isFree":false,"operatingDays":"평일+토요일+공휴일","weekdayOpen":"08:00","weekdayClose":"22:00","weekendOpen":"08:00","weekendClose":"22:00","holidayOpen":"08:00","holidayClose":"22:00","feeInfo":"기본 30분 500원 / 추가 15분당 500원","phone":"044-850-1295","updatedAt":"2026-01-02","sido":"세종특별자치시","sigungu":"세종특별자치시","dong":"아름동"},{"name":"조치원주차타워","type":"공영","category":"노외","address":"세종특별자치시 조치원읍 새내로 99","lat":36.60063524,"lng":127.297778,"totalSpaces":200,"isFree":false,"operatingDays":"평일+토요일+공휴일","weekdayOpen":"08:00","weekdayClose":"22:00","weekendOpen":"08:00","weekendClose":"22:00","holidayOpen":"08:00","holidayClose":"22:00","feeInfo":"기본 30분 0원 / 추가 15분당 400원","phone":"044-850-1295","updatedAt":"2025-12-26","sido":"세종특별자치시","sigungu":"세종특별자치시","dong":"조치원읍"},{"name":"세종전통시장 제1공영주차장","type":"공영","category":"노외","address":"세종특별자치시 조치원읍 새내로 99","lat":36.60063524,"lng":127.297778,"totalSpaces":193,"isFree":false,"operatingDays":"평일+토요일+공휴일","weekdayOpen":"08:00","weekdayClose":"22:00","weekendOpen":"08:00","weekendClose":"22:00","holidayOpen":"08:00","holidayClose":"22:00","feeInfo":"기본 60분 0원 / 추가 15분당 400원","phone":"044-850-1295","updatedAt":"2026-01-02","sido":"세종특별자치시","sigungu":"세종특별자치시","dong":"조치원읍"},{"name":"종촌동공영주차장","type":"공영","category":"노외","address":"세종특별자치시 달빛로 53","lat":36.503721,"lng":127.249759,"totalSpaces":163,"isFree":false,"operatingDays":"평일+토요일+공휴일","weekdayOpen":"08:00","weekdayClose":"22:00","weekendOpen":"08:00","weekendClose":"22:00","holidayOpen":"08:00","holidayClose":"22:00","feeInfo":"기본 30분 500원 / 추가 15분당 500원","phone":"044-850-1295","updatedAt":"2026-01-02","sido":"세종특별자치시","sigungu":"세종특별자치시","dong":"종촌동"},{"name":"종촌동공영주차장","type":"공영","category":"노외","address":"세종특별자치시 달빛로 53","lat":36.503721,"lng":127.249759,"totalSpaces":160,"isFree":false,"operatingDays":"평일+토요일+공휴일","weekdayOpen":"08:00","weekdayClose":"22:00","weekendOpen":"08:00","weekendClose":"22:00","holidayOpen":"08:00","holidayClose":"22:00","feeInfo":"기본 30분 500원 / 추가 10분당 300원","phone":"044-850-1295","updatedAt":"2025-12-26","sido":"세종특별자치시","sigungu":"세종특별자치시","dong":"종촌동"},{"name":"세종전통시장주차타워","type":"공영","category":"노외","address":"세종특별자치시 조치원읍 새내8길 17-1","lat":36.599883,"lng":127.299338,"totalSpaces":149,"isFree":false,"operatingDays":"평일+토요일+공휴일","weekdayOpen":"08:00","weekdayClose":"22:00","weekendOpen":"08:00","weekendClose":"22:00","holidayOpen":"08:00","holidayClose":"22:00","feeInfo":"기본 30분 0원 / 추가 15분당 400원","phone":"044-850-1295","updatedAt":"2025-12-26","sido":"세종특별자치시","sigungu":"세종특별자치시","dong":"조치원읍"},{"name":"세종전통시장 제2공영주차장","type":"공영","category":"노외","address":"세종특별자치시 조치원읍 새내8길 17-1","lat":36.599883,"lng":127.299338,"totalSpaces":146,"isFree":false,"operatingDays":"평일+토요일+공휴일","weekdayOpen":"08:00","weekdayClose":"22:00","weekendOpen":"08:00","weekendClose":"22:00","holidayOpen":"08:00","holidayClose":"22:00","feeInfo":"기본 60분 0원 / 추가 15분당 400원","phone":"044-850-1295","updatedAt":"2026-01-02","sido":"세종특별자치시","sigungu":"세종특별자치시","dong":"조치원읍"},{"name":"나성동 공영주차장","type":"공영","category":"노외","address":"세종특별자치시 나성동 42-1","lat":36.48343751,"lng":127.2679595,"totalSpaces":71,"isFree":false,"operatingDays":"평일+토요일+공휴일","weekdayOpen":"08:00","weekdayClose":"22:00","weekendOpen":"07:00","weekendClose":"23:00","holidayOpen":"07:00","holidayClose":"23:00","feeInfo":"기본 30분 500원 / 추가 10분당 300원","phone":"044-850-1295","updatedAt":"2025-12-26","sido":"세종특별자치시","sigungu":"세종특별자치시","dong":"나성동"},{"name":"나성동 공영주차장","type":"공영","category":"노외","address":"세종특별자치시 나성동 42-1","lat":36.48343751,"lng":127.2679595,"totalSpaces":71,"isFree":false,"operatingDays":"평일+토요일+공휴일","weekdayOpen":"08:00","weekdayClose":"22:00","weekendOpen":"08:00","weekendClose":"22:00","holidayOpen":"08:00","holidayClose":"22:00","feeInfo":"기본 30분 500원 / 추가 15분당 500원","phone":"044-850-1295","updatedAt":"2026-01-02","sido":"세종특별자치시","sigungu":"세종특별자치시","dong":"나성동"},{"name":"보람동1 공영주차장","type":"공영","category":"노외","address":"세종특별자치시 보람동 748","lat":36.477648,"lng":127.289592,"totalSpaces":63,"isFree":false,"operatingDays":"평일+토요일+공휴일","weekdayOpen":"08:00","weekdayClose":"22:00","weekendOpen":"07:00","weekendClose":"23:00","holidayOpen":"07:00","holidayClose":"23:00","feeInfo":"기본 30분 500원 / 추가 10분당 300원","phone":"044-850-1295","updatedAt":"2025-12-26","sido":"세종특별자치시","sigungu":"세종특별자치시","dong":"보람동"},{"name":"보람동2 공영주차장","type":"공영","category":"노외","address":"세종특별자치시 보람동 750","lat":36.477651,"lng":127.2886718,"totalSpaces":63,"isFree":false,"operatingDays":"평일+토요일+공휴일","weekdayOpen":"08:00","weekdayClose":"22:00","weekendOpen":"07:00","weekendClose":"23:00","holidayOpen":"07:00","holidayClose":"23:00","feeInfo":"기본 30분 500원 / 추가 10분당 300원","phone":"044-850-1295","updatedAt":"2025-12-26","sido":"세종특별자치시","sigungu":"세종특별자치시","dong":"보람동"},{"name":"보람동2 공영주차장","type":"공영","category":"노외","address":"세종특별자치시 보람동 750","lat":36.477651,"lng":127.2886718,"totalSpaces":62,"isFree":false,"operatingDays":"평일+토요일+공휴일","weekdayOpen":"08:00","weekdayClose":"22:00","weekendOpen":"08:00","weekendClose":"22:00","holidayOpen":"08:00","holidayClose":"22:00","feeInfo":"기본 30분 500원 / 추가 15분당 500원","phone":"044-850-1295","updatedAt":"2026-01-02","sido":"세종특별자치시","sigungu":"세종특별자치시","dong":"보람동"},{"name":"보람동1 공영주차장","type":"공영","category":"노외","address":"세종특별자치시 보람동 748","lat":36.477648,"lng":127.289592,"totalSpaces":61,"isFree":false,"operatingDays":"평일+토요일+공휴일","weekdayOpen":"08:00","weekdayClose":"22:00","weekendOpen":"08:00","weekendClose":"22:00","holidayOpen":"08:00","holidayClose":"22:00","feeInfo":"기본 30분 500원 / 추가 15분당 500원","phone":"044-850-1295","updatedAt":"2026-01-02","sido":"세종특별자치시","sigungu":"세종특별자치시","dong":"보람동"},{"name":"용포로 공영주차장","type":"공영","category":"노외","address":"세종특별자치시 금남면 신촌리 297-11","lat":36.46840169,"lng":127.282307,"totalSpaces":55,"isFree":false,"operatingDays":"평일+토요일+공휴일","weekdayOpen":"08:00","weekdayClose":"22:00","weekendOpen":"08:00","weekendClose":"22:00","holidayOpen":"08:00","holidayClose":"22:00","feeInfo":"기본 30분 0원 / 추가 15분당 400원","phone":"044-850-1295","updatedAt":"2025-12-26","sido":"세종특별자치시","sigungu":"세종특별자치시","dong":"금남면"},{"name":"용포로 공영주차장","type":"공영","category":"노외","address":"세종특별자치시 금남면 신촌리 297-11","lat":36.46840169,"lng":127.282307,"totalSpaces":55,"isFree":false,"operatingDays":"평일+토요일+공휴일","weekdayOpen":"08:00","weekdayClose":"22:00","weekendOpen":"08:00","weekendClose":"22:00","holidayOpen":"08:00","holidayClose":"22:00","feeInfo":"기본 60분 0원 / 추가 15분당 400원","phone":"044-850-1295","updatedAt":"2026-01-02","sido":"세종특별자치시","sigungu":"세종특별자치시","dong":"금남면"},{"name":"반곡동","type":"공영","category":"노외","address":"세종특별자치시 반곡동 41-9번지 일원","lat":36.497926,"lng":127.309578,"totalSpaces":54,"isFree":false,"operatingDays":"평일+토요일+공휴일","weekdayOpen":"08:00","weekdayClose":"22:00","weekendOpen":"08:00","weekendClose":"22:00","holidayOpen":"08:00","holidayClose":"22:00","feeInfo":"기본 30분 500원 / 추가 10분당 300원","phone":"044-850-1295","updatedAt":"2025-12-26","sido":"세종특별자치시","sigungu":"세종특별자치시","dong":"반곡동"},{"name":"반곡동공영주차장","type":"공영","category":"노외","address":"세종특별자치시 반곡동 41-9번지 일원","lat":36.497926,"lng":127.309578,"totalSpaces":54,"isFree":false,"operatingDays":"평일+토요일+공휴일","weekdayOpen":"08:00","weekdayClose":"22:00","weekendOpen":"08:00","weekendClose":"22:00","holidayOpen":"08:00","holidayClose":"22:00","feeInfo":"기본 30분 500원 / 추가 15분당 500원","phone":"044-850-1295","updatedAt":"2026-01-02","sido":"세종특별자치시","sigungu":"세종특별자치시","dong":"반곡동"},{"name":"정리 공영주차장","type":"공영","category":"노상","address":"세종특별자치시 조치원읍 정리 110-5","lat":36.59884803,"lng":127.297507,"totalSpaces":51,"isFree":false,"operatingDays":"평일+토요일+공휴일","weekdayOpen":"08:00","weekdayClose":"22:00","weekendOpen":"08:00","weekendClose":"22:00","holidayOpen":"08:00","holidayClose":"22:00","feeInfo":"기본 30분 500원 / 추가 10분당 300원","phone":"044-850-1295","updatedAt":"2025-12-26","sido":"세종특별자치시","sigungu":"세종특별자치시","dong":"조치원읍"},{"name":"세종전통시장 제3공영주차장","type":"공영","category":"노외","address":"세종특별자치시 조치원읍 정리 110-5","lat":36.59884803,"lng":127.297507,"totalSpaces":51,"isFree":false,"operatingDays":"평일+토요일+공휴일","weekdayOpen":"08:00","weekdayClose":"22:00","weekendOpen":"08:00","weekendClose":"22:00","holidayOpen":"08:00","holidayClose":"22:00","feeInfo":"기본 30분 500원 / 추가 15분당 500원","phone":"044-850-1295","updatedAt":"2026-01-02","sido":"세종특별자치시","sigungu":"세종특별자치시","dong":"조치원읍"},{"name":"세종대평시장공영주차장","type":"공영","category":"노외","address":"세종특별자치시 금남면 용포리 146-1","lat":36.465293,"lng":127.281752,"totalSpaces":41,"isFree":false,"operatingDays":"평일+토요일+공휴일","weekdayOpen":"08:00","weekdayClose":"22:00","weekendOpen":"08:00","weekendClose":"22:00","holidayOpen":"08:00","holidayClose":"22:00","feeInfo":"기본 60분 0원 / 추가 15분당 400원","phone":"044-850-1295","updatedAt":"2025-12-26","sido":"세종특별자치시","sigungu":"세종특별자치시","dong":"금남면"},{"name":"세종대평시장공영주차장","type":"공영","category":"노외","address":"세종특별자치시 금남면 용포리 146-1","lat":36.465293,"lng":127.281752,"totalSpaces":41,"isFree":false,"operatingDays":"평일+토요일+공휴일","weekdayOpen":"08:00","weekdayClose":"22:00","weekendOpen":"08:00","weekendClose":"22:00","holidayOpen":"08:00","holidayClose":"22:00","feeInfo":"기본 60분 0원 / 추가 15분당 400원","phone":"044-850-1295","updatedAt":"2026-01-02","sido":"세종특별자치시","sigungu":"세종특별자치시","dong":"금남면"},{"name":"나성노상무인 주차기","type":"공영","category":"노상","address":"세종특별자치시 나성동 724","lat":36.48137667,"lng":127.2606046,"totalSpaces":33,"isFree":false,"operatingDays":"평일","weekdayOpen":"08:00","weekdayClose":"20:00","weekendOpen":"00:00","weekendClose":"00:00","holidayOpen":"00:00","holidayClose":"00:00","feeInfo":"기본 15분 500원 / 추가 15분당 500원","phone":"044-850-1295","updatedAt":"2025-12-26","sido":"세종특별자치시","sigungu":"세종특별자치시","dong":"나성동"},{"name":"나성노상무인 주차기","type":"공영","category":"노상","address":"세종특별자치시 나성동 724","lat":36.48137667,"lng":127.2606046,"totalSpaces":33,"isFree":false,"operatingDays":"평일","weekdayOpen":"08:00","weekdayClose":"20:00","weekendOpen":"00:00","weekendClose":"00:00","holidayOpen":"00:00","holidayClose":"00:00","feeInfo":"기본 15분 500원 / 추가 15분당 500원","phone":"044-850-1295","updatedAt":"2026-01-02","sido":"세종특별자치시","sigungu":"세종특별자치시","dong":"나성동"},{"name":"이벤트광장","type":"공영","category":"노외","address":"세종특별자치시 조치원읍 장안길 14","lat":36.59986255,"lng":127.3000256,"totalSpaces":25,"isFree":false,"operatingDays":"평일+토요일+공휴일","weekdayOpen":"08:00","weekdayClose":"22:00","weekendOpen":"08:00","weekendClose":"22:00","holidayOpen":"08:00","holidayClose":"22:00","feeInfo":"기본 30분 0원 / 추가 15분당 400원","phone":"044-850-1295","updatedAt":"2025-12-26","sido":"세종특별자치시","sigungu":"세종특별자치시","dong":"조치원읍"},{"name":"이벤트광장","type":"공영","category":"노외","address":"세종특별자치시 조치원읍 장안길 14","lat":36.59986255,"lng":127.3000256,"totalSpaces":25,"isFree":false,"operatingDays":"평일+토요일+공휴일","weekdayOpen":"08:00","weekdayClose":"22:00","weekendOpen":"08:00","weekendClose":"22:00","holidayOpen":"08:00","holidayClose":"22:00","feeInfo":"기본 60분 0원 / 추가 15분당 400원","phone":"044-850-1295","updatedAt":"2026-01-02","sido":"세종특별자치시","sigungu":"세종특별자치시","dong":"조치원읍"},{"name":"도담노상무인 주차기","type":"공영","category":"노상","address":"세종특별자치시 도담동 920","lat":36.51427158,"lng":127.2582387,"totalSpaces":13,"isFree":false,"operatingDays":"평일","weekdayOpen":"08:00","weekdayClose":"20:00","weekendOpen":"00:00","weekendClose":"00:00","holidayOpen":"00:00","holidayClose":"00:00","feeInfo":"기본 15분 500원 / 추가 15분당 500원","phone":"044-850-1295","updatedAt":"2025-12-26","sido":"세종특별자치시","sigungu":"세종특별자치시","dong":"도담동"},{"name":"도담노상무인 주차기","type":"공영","category":"노상","address":"세종특별자치시 도담동 920","lat":36.51427158,"lng":127.2582387,"totalSpaces":13,"isFree":false,"operatingDays":"평일","weekdayOpen":"08:00","weekdayClose":"20:00","weekendOpen":"00:00","weekendClose":"00:00","holidayOpen":"00:00","holidayClose":"00:00","feeInfo":"기본 15분 500원 / 추가 15분당 500원","phone":"044-850-1295","updatedAt":"2026-01-02","sido":"세종특별자치시","sigungu":"세종특별자치시","dong":"도담동"}]}