{"sido":"경상북도","sigungu":"경주시","totalCount":154,"validCount":152,"items":[{"name":"신경주역 공영주차장","type":"공영","category":"노외","address":"경상북도 경주시 건천읍 화천리 1354-1","lat":35.8000764956,"lng":129.1406697931,"totalSpaces":670,"isFree":true,"operatingDays":"평일+토요일+공휴일","weekdayOpen":"09:00","weekdayClose":"20:00","weekendOpen":"09:00","weekendClose":"20:00","holidayOpen":"09:00","holidayClose":"20:00","feeInfo":"무료","phone":"054-779-6531","updatedAt":"2025-09-03","sido":"경상북도","sigungu":"경주시","dong":"건천읍"},{"name":"서천둔치 주차장","type":"공영","category":"노외","address":"경상북도 경주시 서악동 1491-1","lat":35.8347961757,"lng":129.2023259804,"totalSpaces":500,"isFree":true,"operatingDays":"평일+토요일+공휴일","weekdayOpen":"09:00","weekdayClose":"20:00","weekendOpen":"09:00","weekendClose":"20:00","holidayOpen":"09:00","holidayClose":"20:00","feeInfo":"무료","phone":"054-779-6531","updatedAt":"2025-09-03","sido":"경상북도","sigungu":"경주시","dong":"서악동"},{"name":"용황지구 임시 주차장","type":"공영","category":"노외","address":"경상북도 경주시 황성동 1292","lat":35.8816519082,"lng":129.2216816764,"totalSpaces":300,"isFree":true,"operatingDays":"평일+토요일+공휴일","weekdayOpen":"09:00","weekdayClose":"20:00","weekendOpen":"09:00","weekendClose":"20:00","holidayOpen":"09:00","holidayClose":"20:00","feeInfo":"무료","phone":"054-779-6531","updatedAt":"2025-09-03","sido":"경상북도","sigungu":"경주시","dong":"황성동"},{"name":"충효동 녹지길 노상주차장","type":"공영","category":"노상","address":"경상북도 경주시 충효녹지길 44-20(충효동)","lat":35.84265307,"lng":129.1864988,"totalSpaces":229,"isFree":true,"operatingDays":"평일+토요일+공휴일","weekdayOpen":"09:00","weekdayClose":"20:00","weekendOpen":"09:00","weekendClose":"20:00","holidayOpen":"09:00","holidayClose":"20:00","feeInfo":"무료","phone":"054-779-6531","updatedAt":"2025-09-03","sido":"경상북도","sigungu":"경주시","dong":"충효동"},{"name":"황오동 공용주차장","type":"공영","category":"노외","address":"경상북도 경주시 성동동 97-2","lat":35.8462237361,"lng":129.2201481686,"totalSpaces":148,"isFree":true,"operatingDays":"평일+토요일+공휴일","weekdayOpen":"09:00","weekdayClose":"20:00","weekendOpen":"09:00","weekendClose":"20:00","holidayOpen":"09:00","holidayClose":"20:00","feeInfo":"무료","phone":"054-779-6531","updatedAt":"2025-09-03","sido":"경상북도","sigungu":"경주시","dong":"성동동"},{"name":"무장사지 제1공용주차장","type":"공영","category":"노외","address":"경상북도 경주시 암곡동 54","lat":35.8752403566,"lng":129.322129393,"totalSpaces":135,"isFree":true,"operatingDays":"평일+토요일+공휴일","weekdayOpen":"09:00","weekdayClose":"20:00","weekendOpen":"09:00","weekendClose":"20:00","holidayOpen":"09:00","holidayClose":"20:00","feeInfo":"무료","phone":"054-779-6531","updatedAt":"2025-09-03","sido":"경상북도","sigungu":"경주시","dong":"암곡동"},{"name":"산림환경연구원 노상주차장","type":"공영","category":"노상","address":"경상북도 경주시 남산동737-2","lat":35.8118082147,"lng":129.2415099988,"totalSpaces":122,"isFree":true,"operatingDays":"평일+토요일+공휴일","weekdayOpen":"09:00","weekdayClose":"20:00","weekendOpen":"09:00","weekendClose":"20:00","holidayOpen":"09:00","holidayClose":"20:00","feeInfo":"무료","phone":"054-779-6531","updatedAt":"2025-09-03","sido":"경상북도","sigungu":"경주시","dong":""},{"name":"황성동 공용주차장","type":"공영","category":"노외","address":"경상북도 경주시 황성동484-7","lat":35.8647948221,"lng":129.2164894278,"totalSpaces":99,"isFree":true,"operatingDays":"평일+토요일+공휴일","weekdayOpen":"09:00","weekdayClose":"20:00","weekendOpen":"09:00","weekendClose":"20:00","holidayOpen":"09:00","holidayClose":"20:00","feeInfo":"무료","phone":"054-779-6531","updatedAt":"2025-09-03","sido":"경상북도","sigungu":"경주시","dong":""},{"name":"북군동 제1공용주차장","type":"공영","category":"노외","address":"경상북도 경주시 북군동 249-4","lat":35.851967831,"lng":129.2640503588,"totalSpaces":96,"isFree":true,"operatingDays":"평일+토요일+공휴일","weekdayOpen":"09:00","weekdayClose":"20:00","weekendOpen":"09:00","weekendClose":"20:00","holidayOpen":"09:00","holidayClose":"20:00","feeInfo":"무료","phone":"054-779-6531","updatedAt":"2025-09-03","sido":"경상북도","sigungu":"경주시","dong":"북군동"},{"name":"서면 도리 1리","type":"공영","category":"노외","address":"경상북도 경주시 서면 도리 973","lat":35.9216165173,"lng":129.0750025465,"totalSpaces":82,"isFree":true,"operatingDays":"평일+토요일+공휴일","weekdayOpen":"09:00","weekdayClose":"20:00","weekendOpen":"09:00","weekendClose":"20:00","holidayOpen":"09:00","holidayClose":"20:00","feeInfo":"무료","phone":"054-779-6531","updatedAt":"2025-09-03","sido":"경상북도","sigungu":"경주시","dong":"서면"},{"name":"충효동 경주초등학교 노상주차장","type":"공영","category":"노상","address":"경상북도 경주시 충효중앙길 65","lat":35.8435315,"lng":129.1838878,"totalSpaces":82,"isFree":true,"operatingDays":"평일+토요일+공휴일","weekdayOpen":"09:00","weekdayClose":"20:00","weekendOpen":"09:00","weekendClose":"20:00","holidayOpen":"09:00","holidayClose":"20:00","feeInfo":"무료","phone":"054-779-6531","updatedAt":"2025-09-03","sido":"경상북도","sigungu":"경주시","dong":"충효동"},{"name":"성건동 공용(화랑)","type":"공영","category":"노외","address":"경상북도 경주시 성건동 579-1","lat":35.8552688755,"lng":129.2051997787,"totalSpaces":76,"isFree":true,"operatingDays":"평일+토요일+공휴일","weekdayOpen":"09:00","weekdayClose":"20:00","weekendOpen":"09:00","weekendClose":"20:00","holidayOpen":"09:00","holidayClose":"20:00","feeInfo":"무료","phone":"054-779-6531","updatedAt":"2025-09-03","sido":"경상북도","sigungu":"경주시","dong":"성건동"},{"name":"무장사지 제2공용주차장","type":"공영","category":"노외","address":"경상북도 경주시 암곡동 산61-5","lat":35.8612701938,"lng":129.3154307872,"totalSpaces":72,"isFree":true,"operatingDays":"평일+토요일+공휴일","weekdayOpen":"09:00","weekdayClose":"20:00","weekendOpen":"09:00","weekendClose":"20:00","holidayOpen":"09:00","holidayClose":"20:00","feeInfo":"무료","phone":"054-779-6531","updatedAt":"2025-09-03","sido":"경상북도","sigungu":"경주시","dong":"암곡동"},{"name":"서면 서오리","type":"공영","category":"노외","address":"경상북도 경주시 서면 서오리 294","lat":35.8846313654,"lng":129.0419774124,"totalSpaces":53,"isFree":true,"operatingDays":"평일+토요일+공휴일","weekdayOpen":"09:00","weekdayClose":"20:00","weekendOpen":"09:00","weekendClose":"20:00","holidayOpen":"09:00","holidayClose":"20:00","feeInfo":"무료","phone":"054-779-6531","updatedAt":"2025-09-03","sido":"경상북도","sigungu":"경주시","dong":"서면"},{"name":"안강읍 공용주차장","type":"공영","category":"노외","address":"경상북도 경주시 안강읍 안강리 350-5","lat":35.990247066,"lng":129.2257127547,"totalSpaces":48,"isFree":true,"operatingDays":"평일+토요일+공휴일","weekdayOpen":"09:00","weekdayClose":"20:00","weekendOpen":"09:00","weekendClose":"20:00","holidayOpen":"09:00","holidayClose":"20:00","feeInfo":"무료","phone":"054-779-6531","updatedAt":"2025-09-03","sido":"경상북도","sigungu":"경주시","dong":"안강읍"},{"name":"안강읍 양월리 공용주차장","type":"공영","category":"노외","address":"경상북도 경주시 안강읍 양월리 1274-3","lat":35.9902061471,"lng":129.2210686292,"totalSpaces":45,"isFree":true,"operatingDays":"평일+토요일+공휴일","weekdayOpen":"09:00","weekdayClose":"20:00","weekendOpen":"09:00","weekendClose":"20:00","holidayOpen":"09:00","holidayClose":"20:00","feeInfo":"무료","phone":"054-779-6531","updatedAt":"2025-09-03","sido":"경상북도","sigungu":"경주시","dong":"안강읍"},{"name":"건천방내리 단석산 공용주차장","type":"공영","category":"노외","address":"경상북도 경주시 건천읍 방내리387-3","lat":35.8143504715,"lng":129.1028863598,"totalSpaces":38,"isFree":true,"operatingDays":"평일+토요일+공휴일","weekdayOpen":"09:00","weekdayClose":"20:00","weekendOpen":"09:00","weekendClose":"20:00","holidayOpen":"09:00","holidayClose":"20:00","feeInfo":"무료","phone":"054-779-6531","updatedAt":"2025-09-03","sido":"경상북도","sigungu":"경주시","dong":"건천읍"},{"name":"건천읍 모량2리 마을 공용주차장","type":"공영","category":"노외","address":"경상북도 경주시 건천읍 모량리 699-4","lat":35.8210180539,"lng":129.1251139985,"totalSpaces":38,"isFree":true,"operatingDays":"평일+토요일+공휴일","weekdayOpen":"09:00","weekdayClose":"20:00","weekendOpen":"09:00","weekendClose":"20:00","holidayOpen":"09:00","holidayClose":"20:00","feeInfo":"무료","phone":"054-779-6531","updatedAt":"2025-09-03","sido":"경상북도","sigungu":"경주시","dong":"건천읍"},{"name":"황남동 생활문화센터 공영주차장","type":"공영","category":"노외","address":"경상북도 경주시 황남동 306-12","lat":35.8353274658,"lng":129.2108064746,"totalSpaces":35,"isFree":true,"operatingDays":"평일+토요일+공휴일","weekdayOpen":"09:00","weekdayClose":"20:00","weekendOpen":"09:00","weekendClose":"20:00","holidayOpen":"09:00","holidayClose":"20:00","feeInfo":"무료","phone":"054-779-6531","updatedAt":"2025-09-03","sido":"경상북도","sigungu":"경주시","dong":"황남동"},{"name":"외동 입실리 구청사 공용주차장","type":"공영","category":"노외","address":"경상북도 경주시 외동읍 입실리1042-2","lat":35.7158937485,"lng":129.3248699061,"totalSpaces":34,"isFree":true,"operatingDays":"평일+토요일+공휴일","weekdayOpen":"09:00","weekdayClose":"20:00","weekendOpen":"09:00","weekendClose":"20:00","holidayOpen":"09:00","holidayClose":"20:00","feeInfo":"무료","phone":"054-779-6531","updatedAt":"2025-09-03","sido":"경상북도","sigungu":"경주시","dong":"외동읍"},{"name":"북군동 제2공용주차장","type":"공영","category":"노외","address":"경상북도 경주시 북군동 188-2","lat":35.8506533114,"lng":129.2615711859,"totalSpaces":34,"isFree":true,"operatingDays":"평일+토요일+공휴일","weekdayOpen":"09:00","weekdayClose":"20:00","weekendOpen":"09:00","weekendClose":"20:00","holidayOpen":"09:00","holidayClose":"20:00","feeInfo":"무료","phone":"054-779-6531","updatedAt":"2025-09-03","sido":"경상북도","sigungu":"경주시","dong":"북군동"},{"name":"강변로 노상주차장","type":"공영","category":"노상","address":"경상북도 경주시 동천동593-1","lat":35.8484721009,"lng":129.2247001265,"totalSpaces":34,"isFree":true,"operatingDays":"평일+토요일+공휴일","weekdayOpen":"09:00","weekdayClose":"20:00","weekendOpen":"09:00","weekendClose":"20:00","holidayOpen":"09:00","holidayClose":"20:00","feeInfo":"무료","phone":"054-779-6531","updatedAt":"2025-09-03","sido":"경상북도","sigungu":"경주시","dong":""},{"name":"성건동 경주여고사거리 노상주차장","type":"공영","category":"노상","address":"경상북도 경주시 금성로 412","lat":35.85448406,"lng":129.2070592,"totalSpaces":31,"isFree":true,"operatingDays":"평일+토요일+공휴일","weekdayOpen":"09:00","weekdayClose":"20:00","weekendOpen":"09:00","weekendClose":"20:00","holidayOpen":"09:00","holidayClose":"20:00","feeInfo":"무료","phone":"054-779-6531","updatedAt":"2025-09-03","sido":"경상북도","sigungu":"경주시","dong":"성건동"},{"name":"서면 천촌리 공용주차장","type":"공영","category":"노외","address":"경상북도 경주시 서면 천촌리 929","lat":35.8624657399,"lng":129.0337342912,"totalSpaces":30,"isFree":true,"operatingDays":"평일+토요일+공휴일","weekdayOpen":"09:00","weekdayClose":"20:00","weekendOpen":"09:00","weekendClose":"20:00","holidayOpen":"09:00","holidayClose":"20:00","feeInfo":"무료","phone":"054-779-6531","updatedAt":"2025-09-03","sido":"경상북도","sigungu":"경주시","dong":"서면"},{"name":"서면 서오리 상부마을","type":"공영","category":"노외","address":"경상북도 경주시 서면 서오리 654-1","lat":35.8774547809,"lng":129.0376394928,"totalSpaces":30,"isFree":true,"operatingDays":"평일+토요일+공휴일","weekdayOpen":"09:00","weekdayClose":"20:00","weekendOpen":"09:00","weekendClose":"20:00","holidayOpen":"09:00","holidayClose":"20:00","feeInfo":"무료","phone":"054-779-6531","updatedAt":"2025-09-03","sido":"경상북도","sigungu":"경주시","dong":"서면"},{"name":"서면 소재지 공용주차장","type":"공영","category":"노외","address":"경상북도 경주시 서면 아화리 243-2","lat":35.8937494987,"lng":129.0497325492,"totalSpaces":30,"isFree":true,"operatingDays":"평일+토요일+공휴일","weekdayOpen":"09:00","weekdayClose":"20:00","weekendOpen":"09:00","weekendClose":"20:00","holidayOpen":"09:00","holidayClose":"20:00","feeInfo":"무료","phone":"054-779-6531","updatedAt":"2025-09-03","sido":"경상북도","sigungu":"경주시","dong":"서면"},{"name":"광명동 신리마을 공용주차장","type":"공영","category":"노외","address":"경상북도 경주시 광명동 1341-2","lat":35.8305501125,"lng":129.1338744505,"totalSpaces":29,"isFree":true,"operatingDays":"평일+토요일+공휴일","weekdayOpen":"09:00","weekdayClose":"20:00","weekendOpen":"09:00","weekendClose":"20:00","holidayOpen":"09:00","holidayClose":"20:00","feeInfo":"무료","phone":"054-779-6531","updatedAt":"2025-09-03","sido":"경상북도","sigungu":"경주시","dong":"광명동"},{"name":"양남면소재지 공용주차장","type":"공영","category":"노외","address":"경상북도 경주시 양남면 하서리 640-4","lat":35.6751108924,"lng":129.4629254167,"totalSpaces":27,"isFree":true,"operatingDays":"평일+토요일+공휴일","weekdayOpen":"09:00","weekdayClose":"20:00","weekendOpen":"09:00","weekendClose":"20:00","holidayOpen":"09:00","holidayClose":"20:00","feeInfo":"무료","phone":"054-779-6531","updatedAt":"2025-09-03","sido":"경상북도","sigungu":"경주시","dong":"양남면"},{"name":"동천우방아파트 노상주차장","type":"공영","category":"노상","address":"경상북도 경주시 양정로 300(동천동)","lat":35.85948325,"lng":129.2246329,"totalSpaces":25,"isFree":true,"operatingDays":"평일+토요일+공휴일","weekdayOpen":"09:00","weekdayClose":"20:00","weekendOpen":"09:00","weekendClose":"20:00","holidayOpen":"09:00","holidayClose":"20:00","feeInfo":"무료","phone":"054-779-6531","updatedAt":"2025-09-03","sido":"경상북도","sigungu":"경주시","dong":"동천동"},{"name":"강동모서리 공용주차장","type":"공영","category":"노외","address":"경상북도 경주시 강동면 모서리 670-2","lat":35.9516587467,"lng":129.2506026648,"totalSpaces":24,"isFree":true,"operatingDays":"평일+토요일+공휴일","weekdayOpen":"09:00","weekdayClose":"20:00","weekendOpen":"09:00","weekendClose":"20:00","holidayOpen":"09:00","holidayClose":"20:00","feeInfo":"무료","phone":"054-779-6531","updatedAt":"2025-09-03","sido":"경상북도","sigungu":"경주시","dong":"강동면"},{"name":"경주문화원앞","type":"공영","category":"노상","address":"경상북도 경주시 중앙로 67-6","lat":35.8464864285,"lng":129.2111231,"totalSpaces":24,"isFree":true,"operatingDays":"평일","weekdayOpen":"09:00","weekdayClose":"20:00","weekendOpen":"00:00","weekendClose":"00:00","holidayOpen":"00:00","holidayClose":"00:00","feeInfo":"무료","phone":"054-750-8716","updatedAt":"2025-02-12","sido":"경상북도","sigungu":"경주시","dong":"동부동"},{"name":"건천읍 송선1리 공용주차장","type":"공영","category":"노외","address":"경상북도 경주시 건천읍 송선리 453-2","lat":35.8357040545,"lng":129.0790698269,"totalSpaces":24,"isFree":true,"operatingDays":"평일+토요일+공휴일","weekdayOpen":"09:00","weekdayClose":"20:00","weekendOpen":"09:00","weekendClose":"20:00","holidayOpen":"09:00","holidayClose":"20:00","feeInfo":"무료","phone":"054-779-6531","updatedAt":"2025-09-03","sido":"경상북도","sigungu":"경주시","dong":"건천읍"},{"name":"단석산공용주차장","type":"공영","category":"노외","address":"경상북도 경주시 건천읍 송선리1153-1","lat":35.8079472182,"lng":129.0691673458,"totalSpaces":24,"isFree":true,"operatingDays":"평일+토요일+공휴일","weekdayOpen":"09:00","weekdayClose":"20:00","weekendOpen":"09:00","weekendClose":"20:00","holidayOpen":"09:00","holidayClose":"20:00","feeInfo":"무료","phone":"054-779-6531","updatedAt":"2025-09-03","sido":"경상북도","sigungu":"경주시","dong":"건천읍"},{"name":"강동면 면소재지 공용주차장","type":"공영","category":"노외","address":"경상북도 경주시 강동면 인동리 35-6","lat":35.9874017697,"lng":129.2737647642,"totalSpaces":23,"isFree":true,"operatingDays":"평일+토요일+공휴일","weekdayOpen":"09:00","weekdayClose":"20:00","weekendOpen":"09:00","weekendClose":"20:00","holidayOpen":"09:00","holidayClose":"20:00","feeInfo":"무료","phone":"054-779-6531","updatedAt":"2025-09-03","sido":"경상북도","sigungu":"경주시","dong":"강동면"},{"name":"탑동 제2공용주차장","type":"공영","category":"노외","address":"경상북도 경주시 탑동 21","lat":35.8248898684,"lng":129.2131733827,"totalSpaces":22,"isFree":true,"operatingDays":"평일+토요일+공휴일","weekdayOpen":"09:00","weekdayClose":"20:00","weekendOpen":"09:00","weekendClose":"20:00","holidayOpen":"09:00","holidayClose":"20:00","feeInfo":"무료","phone":"054-779-6531","updatedAt":"2025-09-03","sido":"경상북도","sigungu":"경주시","dong":"탑동"},{"name":"선도서악동 큰마을 공용주차장","type":"공영","category":"노외","address":"경상북도 경주시 서악동 592","lat":35.8281762824,"lng":129.1875471718,"totalSpaces":22,"isFree":true,"operatingDays":"평일+토요일+공휴일","weekdayOpen":"09:00","weekdayClose":"20:00","weekendOpen":"09:00","weekendClose":"20:00","holidayOpen":"09:00","holidayClose":"20:00","feeInfo":"무료","phone":"054-779-6531","updatedAt":"2025-09-03","sido":"경상북도","sigungu":"경주시","dong":"서악동"},{"name":"안강읍 육통리 공용주차장","type":"공영","category":"노외","address":"경상북도 경주시 안강읍 육통리 1743","lat":36.0170231073,"lng":129.2076113152,"totalSpaces":22,"isFree":true,"operatingDays":"평일+토요일+공휴일","weekdayOpen":"09:00","weekdayClose":"20:00","weekendOpen":"09:00","weekendClose":"20:00","holidayOpen":"09:00","holidayClose":"20:00","feeInfo":"무료","phone":"054-779-6531","updatedAt":"2025-09-03","sido":"경상북도","sigungu":"경주시","dong":"안강읍"},{"name":"충효 야척마을 공용주차장","type":"공영","category":"노외","address":"경상북도 경주시 충효동923-12","lat":35.8575802216,"lng":129.1604673489,"totalSpaces":22,"isFree":true,"operatingDays":"평일+토요일+공휴일","weekdayOpen":"09:00","weekdayClose":"20:00","weekendOpen":"09:00","weekendClose":"20:00","holidayOpen":"09:00","holidayClose":"20:00","feeInfo":"무료","phone":"054-779-6531","updatedAt":"2025-09-03","sido":"경상북도","sigungu":"경주시","dong":""},{"name":"건천 용명1리 장시마을 공용주차장","type":"공영","category":"노외","address":"경상북도 경주시 건천읍 용명리 2286-6","lat":35.864628653,"lng":129.0865693588,"totalSpaces":21,"isFree":true,"operatingDays":"평일+토요일+공휴일","weekdayOpen":"09:00","weekdayClose":"20:00","weekendOpen":"09:00","weekendClose":"20:00","holidayOpen":"09:00","holidayClose":"20:00","feeInfo":"무료","phone":"054-779-6531","updatedAt":"2025-09-03","sido":"경상북도","sigungu":"경주시","dong":"건천읍"},{"name":"선도 광명동 고란마을","type":"공영","category":"노외","address":"경상북도 경주시 광명동 744","lat":35.8334952924,"lng":129.1407675699,"totalSpaces":21,"isFree":true,"operatingDays":"평일+토요일+공휴일","weekdayOpen":"09:00","weekdayClose":"20:00","weekendOpen":"09:00","weekendClose":"20:00","holidayOpen":"09:00","holidayClose":"20:00","feeInfo":"무료","phone":"054-779-6531","updatedAt":"2025-09-03","sido":"경상북도","sigungu":"경주시","dong":"광명동"},{"name":"내남 부지1리 천면공용주차장","type":"공영","category":"노외","address":"경상북도 경주시 내남면 부지리 43-5","lat":35.7671421867,"lng":129.1943630416,"totalSpaces":21,"isFree":true,"operatingDays":"평일+토요일+공휴일","weekdayOpen":"09:00","weekdayClose":"20:00","weekendOpen":"09:00","weekendClose":"20:00","holidayOpen":"09:00","holidayClose":"20:00","feeInfo":"무료","phone":"054-779-6531","updatedAt":"2025-09-03","sido":"경상북도","sigungu":"경주시","dong":"내남면"},{"name":"황성동 갓뒤마을 공용주차장","type":"공영","category":"노외","address":"경상북도 경주시 황성동 213","lat":35.8716514321,"lng":129.2171939966,"totalSpaces":21,"isFree":true,"operatingDays":"평일+토요일+공휴일","weekdayOpen":"09:00","weekdayClose":"20:00","weekendOpen":"09:00","weekendClose":"20:00","holidayOpen":"09:00","holidayClose":"20:00","feeInfo":"무료","phone":"054-779-6531","updatedAt":"2025-09-03","sido":"경상북도","sigungu":"경주시","dong":"황성동"},{"name":"남산동(탑마을)공용주차장","type":"공영","category":"노외","address":"경상북도 경주시 남산동 1156-134","lat":35.7894067515,"lng":129.2435381234,"totalSpaces":21,"isFree":true,"operatingDays":"평일+토요일+공휴일","weekdayOpen":"09:00","weekdayClose":"20:00","weekendOpen":"09:00","weekendClose":"20:00","holidayOpen":"09:00","holidayClose":"20:00","feeInfo":"무료","phone":"054-779-6531","updatedAt":"2025-09-03","sido":"경상북도","sigungu":"경주시","dong":"남산동"},{"name":"동천동 제1 공용","type":"공영","category":"노외","address":"경상북도 경주시 동천동 987-40","lat":35.8584031314,"lng":129.2246641652,"totalSpaces":20,"isFree":true,"operatingDays":"평일+토요일+공휴일","weekdayOpen":"09:00","weekdayClose":"20:00","weekendOpen":"09:00","weekendClose":"20:00","holidayOpen":"09:00","holidayClose":"20:00","feeInfo":"무료","phone":"054-779-6531","updatedAt":"2025-09-03","sido":"경상북도","sigungu":"경주시","dong":"동천동"},{"name":"서면 사라리 공용주차장","type":"공영","category":"노외","address":"경상북도 경주시 서면 사라리 592","lat":35.8912987002,"lng":129.0727708887,"totalSpaces":20,"isFree":true,"operatingDays":"평일+토요일+공휴일","weekdayOpen":"09:00","weekdayClose":"20:00","weekendOpen":"09:00","weekendClose":"20:00","holidayOpen":"09:00","holidayClose":"20:00","feeInfo":"무료","phone":"054-779-6531","updatedAt":"2025-09-03","sido":"경상북도","sigungu":"경주시","dong":"서면"},{"name":"율동 두대마을 공용주차장","type":"공영","category":"노외","address":"경상북도 경주시 율동1153-6","lat":35.8120009214,"lng":129.1723253863,"totalSpaces":20,"isFree":true,"operatingDays":"평일+토요일+공휴일","weekdayOpen":"09:00","weekdayClose":"20:00","weekendOpen":"09:00","weekendClose":"20:00","holidayOpen":"09:00","holidayClose":"20:00","feeInfo":"무료","phone":"054-779-6531","updatedAt":"2025-09-03","sido":"경상북도","sigungu":"경주시","dong":""},{"name":"배반동 공용주차장","type":"공영","category":"노외","address":"경상북도 경주시 배반동1090-5","lat":35.8178384327,"lng":129.2355554839,"totalSpaces":20,"isFree":true,"operatingDays":"평일+토요일+공휴일","weekdayOpen":"09:00","weekdayClose":"20:00","weekendOpen":"09:00","weekendClose":"20:00","holidayOpen":"09:00","holidayClose":"20:00","feeInfo":"무료","phone":"054-779-6531","updatedAt":"2025-09-03","sido":"경상북도","sigungu":"경주시","dong":""},{"name":"사정동(국당마을)공용주차장","type":"공영","category":"노외","address":"경상북도 경주시 사정동 249","lat":35.8275763395,"lng":129.2079693493,"totalSpaces":20,"isFree":true,"operatingDays":"평일+토요일+공휴일","weekdayOpen":"09:00","weekdayClose":"20:00","weekendOpen":"09:00","weekendClose":"20:00","holidayOpen":"09:00","holidayClose":"20:00","feeInfo":"무료","phone":"054-779-6531","updatedAt":"2025-09-03","sido":"경상북도","sigungu":"경주시","dong":"사정동"},{"name":"월성 도지앞마을 공용주차장","type":"공영","category":"노외","address":"경상북도 경주시 도지동167-2,168-5","lat":35.7938937708,"lng":129.275746313,"totalSpaces":19,"isFree":true,"operatingDays":"평일+토요일+공휴일","weekdayOpen":"09:00","weekdayClose":"20:00","weekendOpen":"09:00","weekendClose":"20:00","holidayOpen":"09:00","holidayClose":"20:00","feeInfo":"무료","phone":"054-779-6531","updatedAt":"2025-09-03","sido":"경상북도","sigungu":"경주시","dong":""},{"name":"건천읍 공영주차장","type":"공영","category":"노외","address":"경상북도 경주시 건천읍 건천리 245-5","lat":35.8503266277,"lng":129.1019575925,"totalSpaces":17,"isFree":true,"operatingDays":"평일+토요일+공휴일","weekdayOpen":"09:00","weekdayClose":"20:00","weekendOpen":"09:00","weekendClose":"20:00","holidayOpen":"09:00","holidayClose":"20:00","feeInfo":"무료","phone":"054-779-6531","updatedAt":"2025-09-03","sido":"경상북도","sigungu":"경주시","dong":"건천읍"},{"name":"건천 조전2리 공용","type":"공영","category":"노외","address":"경상북도 경주시 외동읍 입실리 1042-2","lat":35.7158937485,"lng":129.3248699061,"totalSpaces":17,"isFree":true,"operatingDays":"평일+토요일+공휴일","weekdayOpen":"09:00","weekdayClose":"20:00","weekendOpen":"09:00","weekendClose":"20:00","holidayOpen":"09:00","holidayClose":"20:00","feeInfo":"무료","phone":"054-779-6531","updatedAt":"2025-09-03","sido":"경상북도","sigungu":"경주시","dong":"외동읍"},{"name":"황남동 제2공용주차장","type":"공영","category":"노외","address":"경상북도 경주시 황남동 487-12","lat":35.826397723,"lng":129.2093689006,"totalSpaces":17,"isFree":true,"operatingDays":"평일+토요일+공휴일","weekdayOpen":"09:00","weekdayClose":"20:00","weekendOpen":"09:00","weekendClose":"20:00","holidayOpen":"09:00","holidayClose":"20:00","feeInfo":"무료","phone":"054-779-6531","updatedAt":"2025-09-03","sido":"경상북도","sigungu":"경주시","dong":"황남동"},{"name":"황남동(포석로) 제1공용주차장","type":"공영","category":"노외","address":"경상북도 경주시 황남동 280","lat":35.8374082961,"lng":129.2099537036,"totalSpaces":17,"isFree":true,"operatingDays":"평일+토요일+공휴일","weekdayOpen":"09:00","weekdayClose":"20:00","weekendOpen":"09:00","weekendClose":"20:00","holidayOpen":"09:00","holidayClose":"20:00","feeInfo":"무료","phone":"054-779-6531","updatedAt":"2025-09-03","sido":"경상북도","sigungu":"경주시","dong":"황남동"},{"name":"강동유금3리 공용주차장","type":"공영","category":"노외","address":"경상북도 경주시 강동면 유금리 1215","lat":35.9961271294,"lng":129.276875309,"totalSpaces":16,"isFree":true,"operatingDays":"평일+토요일+공휴일","weekdayOpen":"09:00","weekdayClose":"20:00","weekendOpen":"09:00","weekendClose":"20:00","holidayOpen":"09:00","holidayClose":"20:00","feeInfo":"무료","phone":"054-779-6531","updatedAt":"2025-09-03","sido":"경상북도","sigungu":"경주시","dong":"강동면"},{"name":"광명윗마을회관앞공용주차장","type":"공영","category":"노외","address":"경상북도 경주시 광명동 219-4","lat":35.8168009618,"lng":129.1480938277,"totalSpaces":16,"isFree":true,"operatingDays":"평일+토요일+공휴일","weekdayOpen":"09:00","weekdayClose":"20:00","weekendOpen":"09:00","weekendClose":"20:00","holidayOpen":"09:00","holidayClose":"20:00","feeInfo":"무료","phone":"054-779-6531","updatedAt":"2025-09-03","sido":"경상북도","sigungu":"경주시","dong":"광명동"},{"name":"강동 단구2리 공용주차장","type":"공영","category":"노외","address":"경상북도 경주시 강동면 단구리 873","lat":36.0595961031,"lng":129.2491906512,"totalSpaces":16,"isFree":true,"operatingDays":"평일+토요일+공휴일","weekdayOpen":"09:00","weekdayClose":"20:00","weekendOpen":"09:00","weekendClose":"20:00","holidayOpen":"09:00","holidayClose":"20:00","feeInfo":"무료","phone":"054-779-6531","updatedAt":"2025-09-03","sido":"경상북도","sigungu":"경주시","dong":"강동면"},{"name":"천북면(신당리) 공용주차장","type":"공영","category":"노외","address":"경상북도 경주시 천북면 신당리 861","lat":35.888067659,"lng":129.2401586899,"totalSpaces":16,"isFree":true,"operatingDays":"평일+토요일+공휴일","weekdayOpen":"09:00","weekdayClose":"20:00","weekendOpen":"09:00","weekendClose":"20:00","holidayOpen":"09:00","holidayClose":"20:00","feeInfo":"무료","phone":"054-779-6531","updatedAt":"2025-09-03","sido":"경상북도","sigungu":"경주시","dong":"천북면"},{"name":"선도 광명동 공용주차장","type":"공영","category":"노외","address":"경상북도 경주시 광명동609-2","lat":35.8296199529,"lng":129.1407183874,"totalSpaces":15,"isFree":true,"operatingDays":"평일+토요일+공휴일","weekdayOpen":"09:00","weekdayClose":"20:00","weekendOpen":"09:00","weekendClose":"20:00","holidayOpen":"09:00","holidayClose":"20:00","feeInfo":"무료","phone":"054-779-6531","updatedAt":"2025-09-03","sido":"경상북도","sigungu":"경주시","dong":""},{"name":"터미널옆공영주차장","type":"공영","category":"노외","address":"경상북도 경주시 태종로 685번길 9","lat":35.83903462,"lng":129.2026723,"totalSpaces":15,"isFree":true,"operatingDays":"평일+토요일+공휴일","weekdayOpen":"09:00","weekdayClose":"18:00","weekendOpen":"09:00","weekendClose":"18:00","holidayOpen":"09:00","holidayClose":"18:00","feeInfo":"무료","phone":"054-750-8715","updatedAt":"2025-02-12","sido":"경상북도","sigungu":"경주시","dong":"노서동"},{"name":"건천 방내리 마을회관앞 공용주차장","type":"공영","category":"노외","address":"경상북도 경주시 건천읍 방내리 585-2","lat":35.8245337628,"lng":129.1074639998,"totalSpaces":15,"isFree":true,"operatingDays":"평일+토요일+공휴일","weekdayOpen":"09:00","weekdayClose":"20:00","weekendOpen":"09:00","weekendClose":"20:00","holidayOpen":"09:00","holidayClose":"20:00","feeInfo":"무료","phone":"054-779-6531","updatedAt":"2025-09-03","sido":"경상북도","sigungu":"경주시","dong":"건천읍"},{"name":"감포3리 공용주차장","type":"공영","category":"노외","address":"경상북도 경주시 감포읍 감포리 369-1","lat":35.8064258141,"lng":129.502501821,"totalSpaces":15,"isFree":true,"operatingDays":"평일+토요일+공휴일","weekdayOpen":"09:00","weekdayClose":"20:00","weekendOpen":"09:00","weekendClose":"20:00","holidayOpen":"09:00","holidayClose":"20:00","feeInfo":"무료","phone":"054-779-6531","updatedAt":"2025-09-03","sido":"경상북도","sigungu":"경주시","dong":"감포읍"},{"name":"터미널옆공영주차장","type":"공영","category":"노외","address":"경상북도 경주시 노서동 247-4","lat":35.83903462,"lng":129.2026723,"totalSpaces":15,"isFree":true,"operatingDays":"평일+토요일+공휴일","weekdayOpen":"09:00","weekdayClose":"20:00","weekendOpen":"09:00","weekendClose":"18:00","holidayOpen":"09:00","holidayClose":"18:00","feeInfo":"무료","phone":"054-779-6531","updatedAt":"2025-09-03","sido":"경상북도","sigungu":"경주시","dong":"노서동"},{"name":"천북 신당2리","type":"공영","category":"노외","address":"경상북도 경주시 천북면 신당리 831-10","lat":35.8886203958,"lng":129.2405245385,"totalSpaces":14,"isFree":true,"operatingDays":"평일+토요일+공휴일","weekdayOpen":"09:00","weekdayClose":"20:00","weekendOpen":"09:00","weekendClose":"20:00","holidayOpen":"09:00","holidayClose":"20:00","feeInfo":"무료","phone":"054-779-6531","updatedAt":"2025-09-03","sido":"경상북도","sigungu":"경주시","dong":"천북면"},{"name":"현곡 하구3리 공용주차장","type":"공영","category":"노외","address":"경상북도 경주시 현곡면 하구리 1055-7","lat":35.8876671094,"lng":129.1808584826,"totalSpaces":14,"isFree":true,"operatingDays":"평일+토요일+공휴일","weekdayOpen":"09:00","weekdayClose":"20:00","weekendOpen":"09:00","weekendClose":"20:00","holidayOpen":"09:00","holidayClose":"20:00","feeInfo":"무료","phone":"054-779-6531","updatedAt":"2025-09-03","sido":"경상북도","sigungu":"경주시","dong":"현곡면"},{"name":"서면 운대2리 공용주차장","type":"공영","category":"노외","address":"경상북도 경주시 서면 운대리 182-16","lat":35.8876037282,"lng":129.0773104636,"totalSpaces":14,"isFree":true,"operatingDays":"평일+토요일+공휴일","weekdayOpen":"09:00","weekdayClose":"20:00","weekendOpen":"09:00","weekendClose":"20:00","holidayOpen":"09:00","holidayClose":"20:00","feeInfo":"무료","phone":"054-779-6531","updatedAt":"2025-09-03","sido":"경상북도","sigungu":"경주시","dong":"서면"},{"name":"천북동산2리 공용주차장","type":"공영","category":"노외","address":"경상북도 경주시 천북면 동산리 767","lat":35.8960363447,"lng":129.2658888517,"totalSpaces":14,"isFree":true,"operatingDays":"평일+토요일+공휴일","weekdayOpen":"09:00","weekdayClose":"20:00","weekendOpen":"09:00","weekendClose":"20:00","holidayOpen":"09:00","holidayClose":"20:00","feeInfo":"무료","phone":"054-779-6531","updatedAt":"2025-09-03","sido":"경상북도","sigungu":"경주시","dong":"천북면"},{"name":"현곡 가정2리 공용주차장","type":"공영","category":"노외","address":"경상북도 경주시 현곡면 가정리59-8","lat":35.899538929,"lng":129.1641719466,"totalSpaces":13,"isFree":true,"operatingDays":"평일+토요일+공휴일","weekdayOpen":"09:00","weekdayClose":"20:00","weekendOpen":"09:00","weekendClose":"20:00","holidayOpen":"09:00","holidayClose":"20:00","feeInfo":"무료","phone":"054-779-6531","updatedAt":"2025-09-03","sido":"경상북도","sigungu":"경주시","dong":"현곡면"},{"name":"건천4리 마을공용주차장","type":"공영","category":"노외","address":"경상북도 경주시 건천읍 건천리411-5","lat":35.8461318444,"lng":129.1122170485,"totalSpaces":13,"isFree":true,"operatingDays":"평일+토요일+공휴일","weekdayOpen":"09:00","weekdayClose":"20:00","weekendOpen":"09:00","weekendClose":"20:00","holidayOpen":"09:00","holidayClose":"20:00","feeInfo":"무료","phone":"054-779-6531","updatedAt":"2025-09-03","sido":"경상북도","sigungu":"경주시","dong":"건천읍"},{"name":"산내면 우라1리 공용주차장","type":"공영","category":"노외","address":"경상북도 경주시 산내면 우라리 963-1","lat":35.8132035534,"lng":129.0127927741,"totalSpaces":13,"isFree":true,"operatingDays":"평일+토요일+공휴일","weekdayOpen":"09:00","weekdayClose":"20:00","weekendOpen":"09:00","weekendClose":"20:00","holidayOpen":"09:00","holidayClose":"20:00","feeInfo":"무료","phone":"054-779-6531","updatedAt":"2025-09-03","sido":"경상북도","sigungu":"경주시","dong":"산내면"},{"name":"서악동 큰마을 공용주차장","type":"공영","category":"노외","address":"경상북도 경주시 서악동 604","lat":35.8289400746,"lng":129.1885031422,"totalSpaces":12,"isFree":true,"operatingDays":"평일+토요일+공휴일","weekdayOpen":"09:00","weekdayClose":"20:00","weekendOpen":"09:00","weekendClose":"20:00","holidayOpen":"09:00","holidayClose":"20:00","feeInfo":"무료","phone":"054-779-6531","updatedAt":"2025-09-03","sido":"경상북도","sigungu":"경주시","dong":"서악동"},{"name":"천북면 동산리 공용주차장","type":"공영","category":"노외","address":"경상북도 경주시 천북면 동산리 107-5","lat":35.8972746768,"lng":129.2727205471,"totalSpaces":12,"isFree":true,"operatingDays":"평일+토요일+공휴일","weekdayOpen":"09:00","weekdayClose":"20:00","weekendOpen":"09:00","weekendClose":"20:00","holidayOpen":"09:00","holidayClose":"20:00","feeInfo":"무료","phone":"054-779-6531","updatedAt":"2025-09-03","sido":"경상북도","sigungu":"경주시","dong":"천북면"},{"name":"탑동제 1공용주차장","type":"공영","category":"노외","address":"경상북도 경주시 탑동 402-1","lat":35.8216601365,"lng":129.2114373025,"totalSpaces":11,"isFree":true,"operatingDays":"평일+토요일+공휴일","weekdayOpen":"09:00","weekdayClose":"20:00","weekendOpen":"09:00","weekendClose":"20:00","holidayOpen":"09:00","holidayClose":"20:00","feeInfo":"무료","phone":"054-779-6531","updatedAt":"2025-09-03","sido":"경상북도","sigungu":"경주시","dong":"탑동"},{"name":"서면 서오리 하부마을공용주차장","type":"공영","category":"노외","address":"경상북도 경주시 서면 서오리 542-1","lat":35.8872724386,"lng":129.0383270014,"totalSpaces":11,"isFree":true,"operatingDays":"평일+토요일+공휴일","weekdayOpen":"09:00","weekdayClose":"20:00","weekendOpen":"09:00","weekendClose":"20:00","holidayOpen":"09:00","holidayClose":"20:00","feeInfo":"무료","phone":"054-779-6531","updatedAt":"2025-09-03","sido":"경상북도","sigungu":"경주시","dong":"서면"},{"name":"서면 천촌리(원당골)공용주차장","type":"공영","category":"노외","address":"경상북도 경주시 서면 천촌리 791","lat":35.8612970003,"lng":129.0320885871,"totalSpaces":10,"isFree":true,"operatingDays":"평일+토요일+공휴일","weekdayOpen":"09:00","weekdayClose":"20:00","weekendOpen":"09:00","weekendClose":"20:00","holidayOpen":"09:00","holidayClose":"20:00","feeInfo":"무료","phone":"054-779-6531","updatedAt":"2025-09-03","sido":"경상북도","sigungu":"경주시","dong":"서면"},{"name":"천북동산리노인회관앞공용주차장","type":"공영","category":"노외","address":"경상북도 경주시 천북면 동산리 537-1","lat":35.8960277492,"lng":129.2672315423,"totalSpaces":10,"isFree":true,"operatingDays":"평일+토요일+공휴일","weekdayOpen":"09:00","weekdayClose":"20:00","weekendOpen":"09:00","weekendClose":"20:00","holidayOpen":"09:00","holidayClose":"20:00","feeInfo":"무료","phone":"054-779-6531","updatedAt":"2025-09-03","sido":"경상북도","sigungu":"경주시","dong":"천북면"},{"name":"감포오류 공용주차장","type":"공영","category":"노외","address":"경상북도 경주시 감포읍 오류리 277-6","lat":35.8226767998,"lng":129.5085951158,"totalSpaces":10,"isFree":true,"operatingDays":"평일+토요일+공휴일","weekdayOpen":"09:00","weekdayClose":"20:00","weekendOpen":"09:00","weekendClose":"20:00","holidayOpen":"09:00","holidayClose":"20:00","feeInfo":"무료","phone":"054-779-6531","updatedAt":"2025-09-03","sido":"경상북도","sigungu":"경주시","dong":"감포읍"},{"name":"서면 도리1리 마을경로당앞 공용주차장","type":"공영","category":"노외","address":"경상북도 경주시 서면 도리 1119-2","lat":35.9188622936,"lng":129.0774556779,"totalSpaces":10,"isFree":true,"operatingDays":"평일+토요일+공휴일","weekdayOpen":"09:00","weekdayClose":"20:00","weekendOpen":"09:00","weekendClose":"20:00","holidayOpen":"09:00","holidayClose":"20:00","feeInfo":"무료","phone":"054-779-6531","updatedAt":"2025-09-03","sido":"경상북도","sigungu":"경주시","dong":"서면"},{"name":"보문숲머리 공용주차장","type":"공영","category":"노외","address":"경상북도 경주시 보문동 49-11","lat":35.8409916143,"lng":129.2499243182,"totalSpaces":10,"isFree":true,"operatingDays":"평일+토요일+공휴일","weekdayOpen":"09:00","weekdayClose":"20:00","weekendOpen":"09:00","weekendClose":"20:00","holidayOpen":"09:00","holidayClose":"20:00","feeInfo":"무료","phone":"054-779-6531","updatedAt":"2025-09-03","sido":"경상북도","sigungu":"경주시","dong":"보문동"},{"name":"서면아화2리 공용주차장","type":"공영","category":"노외","address":"경상북도 경주시 서면 아화리 1229","lat":35.8925650469,"lng":129.0436435799,"totalSpaces":9,"isFree":true,"operatingDays":"평일+토요일+공휴일","weekdayOpen":"09:00","weekdayClose":"20:00","weekendOpen":"09:00","weekendClose":"20:00","holidayOpen":"09:00","holidayClose":"20:00","feeInfo":"무료","phone":"054-779-6531","updatedAt":"2025-09-03","sido":"경상북도","sigungu":"경주시","dong":"서면"},{"name":"건천1리 공용주차장","type":"공영","category":"노외","address":"경상북도 경주시 건천읍 건천리 315","lat":35.8472280254,"lng":129.1022214173,"totalSpaces":8,"isFree":true,"operatingDays":"평일+토요일+공휴일","weekdayOpen":"09:00","weekdayClose":"20:00","weekendOpen":"09:00","weekendClose":"20:00","holidayOpen":"09:00","holidayClose":"20:00","feeInfo":"무료","phone":"054-779-6531","updatedAt":"2025-09-03","sido":"경상북도","sigungu":"경주시","dong":"건천읍"},{"name":"강동 호명 공용","type":"공영","category":"노외","address":"경상북도 경주시 강동면 호명리 193","lat":35.9707559343,"lng":129.2488973108,"totalSpaces":7,"isFree":true,"operatingDays":"평일+토요일+공휴일","weekdayOpen":"09:00","weekdayClose":"20:00","weekendOpen":"09:00","weekendClose":"20:00","holidayOpen":"09:00","holidayClose":"20:00","feeInfo":"무료","phone":"054-779-6531","updatedAt":"2025-09-03","sido":"경상북도","sigungu":"경주시","dong":"강동면"},{"name":"서면아화1리 공용주차장","type":"공영","category":"노외","address":"경상북도 경주시 서면 아화리 411-114","lat":35.8926585824,"lng":129.049716881,"totalSpaces":7,"isFree":true,"operatingDays":"평일+토요일+공휴일","weekdayOpen":"09:00","weekdayClose":"20:00","weekendOpen":"09:00","weekendClose":"20:00","holidayOpen":"09:00","holidayClose":"20:00","feeInfo":"무료","phone":"054-779-6531","updatedAt":"2025-09-03","sido":"경상북도","sigungu":"경주시","dong":"서면"},{"name":"보덕 암곡동 노상주차장","type":"공영","category":"노상","address":"경상북도 경주시 암곡동730","lat":35.8605202329,"lng":129.3120998399,"totalSpaces":7,"isFree":true,"operatingDays":"평일+토요일+공휴일","weekdayOpen":"09:00","weekdayClose":"20:00","weekendOpen":"09:00","weekendClose":"20:00","holidayOpen":"09:00","holidayClose":"20:00","feeInfo":"무료","phone":"054-779-6531","updatedAt":"2025-09-03","sido":"경상북도","sigungu":"경주시","dong":""},{"name":"천북오야리 공용주차장","type":"공영","category":"노외","address":"경상북도 경주시 천북면 오야리 468-1","lat":35.9335135249,"lng":129.2536009953,"totalSpaces":6,"isFree":true,"operatingDays":"평일+토요일+공휴일","weekdayOpen":"09:00","weekdayClose":"20:00","weekendOpen":"09:00","weekendClose":"20:00","holidayOpen":"09:00","holidayClose":"20:00","feeInfo":"무료","phone":"054-779-6531","updatedAt":"2025-09-03","sido":"경상북도","sigungu":"경주시","dong":"천북면"},{"name":"양남 하서1리 공용주차장","type":"공영","category":"노외","address":"경상북도 경주시 양남면 하서리 604-6","lat":35.6760893373,"lng":129.4620460333,"totalSpaces":5,"isFree":true,"operatingDays":"평일+토요일+공휴일","weekdayOpen":"09:00","weekdayClose":"20:00","weekendOpen":"09:00","weekendClose":"20:00","holidayOpen":"09:00","holidayClose":"20:00","feeInfo":"무료","phone":"054-779-6531","updatedAt":"2025-09-03","sido":"경상북도","sigungu":"경주시","dong":"양남면"},{"name":"문무대왕면 입천시무내 마을 공용주차장","type":"공영","category":"노외","address":"경상북도 경주시 문무대왕면 입천리792-358","lat":35.7877380491,"lng":129.4223230931,"totalSpaces":5,"isFree":true,"operatingDays":"평일+토요일+공휴일","weekdayOpen":"09:00","weekdayClose":"20:00","weekendOpen":"09:00","weekendClose":"20:00","holidayOpen":"09:00","holidayClose":"20:00","feeInfo":"무료","phone":"054-779-6531","updatedAt":"2025-09-03","sido":"경상북도","sigungu":"경주시","dong":"문무대왕면"},{"name":"건천읍 송선1리 마을주차장","type":"공영","category":"노외","address":"경상북도 경주시 건천읍 송선리 289","lat":35.8389060374,"lng":129.0761688528,"totalSpaces":4,"isFree":true,"operatingDays":"평일+토요일+공휴일","weekdayOpen":"09:00","weekdayClose":"20:00","weekendOpen":"09:00","weekendClose":"20:00","holidayOpen":"09:00","holidayClose":"20:00","feeInfo":"무료","phone":"054-779-6531","updatedAt":"2025-09-03","sido":"경상북도","sigungu":"경주시","dong":"건천읍"},{"name":"용강동 삼환나우빌 정문 노상주차장","type":"공영","category":"노상","address":"경상북도 경주시 용강동 산106","lat":35.8751644716,"lng":129.2331643598,"totalSpaces":4,"isFree":true,"operatingDays":"평일+토요일+공휴일","weekdayOpen":"09:00","weekdayClose":"20:00","weekendOpen":"09:00","weekendClose":"20:00","holidayOpen":"09:00","holidayClose":"20:00","feeInfo":"무료","phone":"054-779-6531","updatedAt":"2025-09-03","sido":"경상북도","sigungu":"경주시","dong":"용강동"},{"name":"KTX신경주역공영주차장","type":"공영","category":"노외","address":"경상북도 경주시 건천읍 화천리 1354-1","lat":35.8000765,"lng":129.1406698,"totalSpaces":670,"isFree":false,"operatingDays":"평일+토요일+공휴일","weekdayOpen":"06:00","weekdayClose":"23:59","weekendOpen":"06:00","weekendClose":"23:59","holidayOpen":"06:00","holidayClose":"23:59","feeInfo":"기본 30분 500원 / 추가 10분당 200원","phone":"054-750-8713","updatedAt":"2025-09-03","sido":"경상북도","sigungu":"경주시","dong":"건천읍"},{"name":"경주역공영주차장","type":"공영","category":"노외","address":"경상북도 경주시 건천읍 신경주역로 80","lat":35.8000764956,"lng":129.1406697931,"totalSpaces":556,"isFree":false,"operatingDays":"평일+토요일+공휴일","weekdayOpen":"00:00","weekdayClose":"23:59","weekendOpen":"00:00","weekendClose":"23:59","holidayOpen":"00:00","holidayClose":"23:59","feeInfo":"기본 30분 500원 / 추가 10분당 200원","phone":"054-750-8712","updatedAt":"2025-02-12","sido":"경상북도","sigungu":"경주시","dong":"건천읍"},{"name":"동천동공영주차장","type":"공영","category":"노외","address":"경상북도 경주시 백률로 53번길 27","lat":35.859396,"lng":129.2250624,"totalSpaces":240,"isFree":false,"operatingDays":"평일","weekdayOpen":"09:00","weekdayClose":"20:00","weekendOpen":"00:00","weekendClose":"00:00","holidayOpen":"00:00","holidayClose":"00:00","feeInfo":"기본 30분 500원 / 추가 10분당 200원","phone":"054-750-8714","updatedAt":"2025-02-12","sido":"경상북도","sigungu":"경주시","dong":"동천동"},{"name":"동천동 공영주차장","type":"공영","category":"노외","address":"경상북도 경주시 백률로53번길 27","lat":35.85933048,"lng":129.2250636,"totalSpaces":240,"isFree":false,"operatingDays":"평일","weekdayOpen":"09:00","weekdayClose":"20:00","weekendOpen":"00:00","weekendClose":"00:00","holidayOpen":"00:00","holidayClose":"00:00","feeInfo":"기본 30분 500원 / 추가 10분당 200원","phone":"054-750-8715","updatedAt":"2025-09-03","sido":"경상북도","sigungu":"경주시","dong":"동천동"},{"name":"성동시장공영주차장","type":"공영","category":"노외","address":"경상북도 경주시 원화로281번길 11","lat":35.84539316,"lng":129.2163119,"totalSpaces":221,"isFree":false,"operatingDays":"평일+토요일+공휴일","weekdayOpen":"06:00","weekdayClose":"21:00","weekendOpen":"06:00","weekendClose":"21:00","holidayOpen":"06:00","holidayClose":"21:00","feeInfo":"기본 30분 500원 / 추가 10분당 200원","phone":"054-750-8712","updatedAt":"2025-02-12","sido":"경상북도","sigungu":"경주시","dong":"성동동"},{"name":"중심상가공영주차장","type":"공영","category":"노외","address":"경상북도 경주시 원효로 121-1","lat":35.84218457,"lng":129.2140346,"totalSpaces":209,"isFree":false,"operatingDays":"평일+토요일+공휴일","weekdayOpen":"09:00","weekdayClose":"21:00","weekendOpen":"09:00","weekendClose":"21:00","holidayOpen":"09:00","holidayClose":"21:00","feeInfo":"기본 30분 500원 / 추가 10분당 200원","phone":"054-750-8718","updatedAt":"2025-02-12","sido":"경상북도","sigungu":"경주시","dong":"황오동"},{"name":"제1공영주차장","type":"공영","category":"노외","address":"경상북도 경주시 중앙로 47번길 13","lat":35.84383404,"lng":129.2103741,"totalSpaces":199,"isFree":false,"operatingDays":"평일+토요일+공휴일","weekdayOpen":"09:00","weekdayClose":"21:00","weekendOpen":"09:00","weekendClose":"21:00","holidayOpen":"09:00","holidayClose":"21:00","feeInfo":"기본 30분 500원 / 추가 10분당 200원","phone":"054-750-8715","updatedAt":"2025-09-03","sido":"경상북도","sigungu":"경주시","dong":"노동동"},{"name":"제1공영주차장","type":"공영","category":"노외","address":"경상북도 경주시 중앙로 47번길 13","lat":35.84383404,"lng":129.2103796,"totalSpaces":198,"isFree":false,"operatingDays":"평일+토요일+공휴일","weekdayOpen":"09:00","weekdayClose":"20:00","weekendOpen":"09:00","weekendClose":"20:00","holidayOpen":"09:00","holidayClose":"20:00","feeInfo":"기본 30분 500원 / 추가 10분당 200원","phone":"054-750-8715","updatedAt":"2025-02-12","sido":"경상북도","sigungu":"경주시","dong":"노동동"},{"name":"대릉원(황남지구)공영주차장","type":"공영","category":"노외","address":"경상북도 경주시 첨성로 300","lat":35.83295639,"lng":129.2128046,"totalSpaces":181,"isFree":false,"operatingDays":"평일+토요일+공휴일","weekdayOpen":"09:00","weekdayClose":"20:00","weekendOpen":"09:00","weekendClose":"20:00","holidayOpen":"09:00","holidayClose":"20:00","feeInfo":"기본 30분 500원 / 추가 10분당 200원","phone":"054-750-8714","updatedAt":"2025-02-12","sido":"경상북도","sigungu":"경주시","dong":"황남동"},{"name":"교촌한옥마을 주변 노상주차장","type":"공영","category":"노상","address":"경상북도 경주시 교촌길 2","lat":35.83307781,"lng":129.2139598,"totalSpaces":115,"isFree":false,"operatingDays":"평일+토요일+공휴일","weekdayOpen":"09:00","weekdayClose":"20:00","weekendOpen":"09:00","weekendClose":"20:00","holidayOpen":"09:00","holidayClose":"20:00","feeInfo":"기본 30분 500원 / 추가 10분당 200원","phone":"054-750-8714","updatedAt":"2025-09-03","sido":"경상북도","sigungu":"경주시","dong":"황남동"},{"name":"시청사주차장","type":"공영","category":"노외","address":"경상북도 경주시 양정로 260","lat":35.85619791,"lng":129.2247236,"totalSpaces":114,"isFree":false,"operatingDays":"평일","weekdayOpen":"09:00","weekdayClose":"19:00","weekendOpen":"00:00","weekendClose":"00:00","holidayOpen":"00:00","holidayClose":"00:00","feeInfo":"기본 60분 0원 / 추가 10분당 200원","phone":"054-750-8714","updatedAt":"2025-02-12","sido":"경상북도","sigungu":"경주시","dong":"동천동"},{"name":"천마총 노상주차장","type":"공영","category":"노상","address":"경상북도 경주시 첨성로 155","lat":35.83591031,"lng":129.217787,"totalSpaces":111,"isFree":false,"operatingDays":"평일+토요일+공휴일","weekdayOpen":"09:00","weekdayClose":"20:00","weekendOpen":"09:00","weekendClose":"20:00","holidayOpen":"09:00","holidayClose":"20:00","feeInfo":"기본 30분 500원 / 추가 10분당 200원","phone":"054-750-8714","updatedAt":"2025-09-03","sido":"경상북도","sigungu":"경주시","dong":"황남동"},{"name":"봉황대공영주차장","type":"공영","category":"노외","address":"경상북도 경주시 태종로 777","lat":35.84069271,"lng":129.2129137,"totalSpaces":95,"isFree":false,"operatingDays":"평일+토요일+공휴일","weekdayOpen":"09:00","weekdayClose":"21:00","weekendOpen":"09:00","weekendClose":"21:00","holidayOpen":"09:00","holidayClose":"21:00","feeInfo":"기본 30분 500원 / 추가 10분당 200원","phone":"054-750-8718","updatedAt":"2025-02-12","sido":"경상북도","sigungu":"경주시","dong":"노동동"},{"name":"동성로 노상주차장","type":"공영","category":"노상","address":"경상북도 경주시 봉황로 45-1","lat":35.84363211,"lng":129.2099771,"totalSpaces":82,"isFree":false,"operatingDays":"평일+토요일+공휴일","weekdayOpen":"09:00","weekdayClose":"20:00","weekendOpen":"09:00","weekendClose":"20:00","holidayOpen":"09:00","holidayClose":"20:00","feeInfo":"기본 30분 500원 / 추가 10분당 200원","phone":"054-750-8714","updatedAt":"2025-09-03","sido":"경상북도","sigungu":"경주시","dong":"노서동"},{"name":"제2공영주차장","type":"공영","category":"노외","address":"경상북도 경주시 원효로 145-3","lat":35.8421203,"lng":129.2167317,"totalSpaces":78,"isFree":false,"operatingDays":"평일+토요일+공휴일","weekdayOpen":"09:00","weekdayClose":"20:00","weekendOpen":"09:00","weekendClose":"20:00","holidayOpen":"09:00","holidayClose":"20:00","feeInfo":"기본 30분 500원 / 추가 10분당 200원","phone":"054-750-8718","updatedAt":"2025-02-12","sido":"경상북도","sigungu":"경주시","dong":"황오동"},{"name":"제2공영주차장","type":"공영","category":"노외","address":"경상북도 경주시 원효로 145-3","lat":35.84211617,"lng":129.2167208,"totalSpaces":73,"isFree":false,"operatingDays":"평일+토요일+공휴일","weekdayOpen":"09:00","weekdayClose":"20:00","weekendOpen":"09:00","weekendClose":"18:00","holidayOpen":"09:00","holidayClose":"18:00","feeInfo":"기본 30분 500원 / 추가 10분당 200원","phone":"054-750-8713","updatedAt":"2025-09-03","sido":"경상북도","sigungu":"경주시","dong":"황오동"},{"name":"중앙시장제2공영주차장","type":"공영","category":"노외","address":"경상북도 경주시 화랑로 38번길 9","lat":35.84399383,"lng":129.2048564,"totalSpaces":63,"isFree":false,"operatingDays":"평일+토요일+공휴일","weekdayOpen":"08:00","weekdayClose":"20:00","weekendOpen":"08:00","weekendClose":"20:00","holidayOpen":"08:00","holidayClose":"20:00","feeInfo":"기본 30분 500원 / 추가 10분당 200원","phone":"054-750-8715","updatedAt":"2025-02-12","sido":"경상북도","sigungu":"경주시","dong":"성건동"},{"name":"법원주변 노상주차장","type":"공영","category":"노상","address":"경상북도 경주시 봉황로 63","lat":35.84515373,"lng":129.2100145,"totalSpaces":58,"isFree":false,"operatingDays":"평일","weekdayOpen":"09:00","weekdayClose":"20:00","weekendOpen":"00:00","weekendClose":"00:00","holidayOpen":"00:00","holidayClose":"00:00","feeInfo":"기본 30분 500원 / 추가 10분당 200원","phone":"054-750-8714","updatedAt":"2025-09-03","sido":"경상북도","sigungu":"경주시","dong":"서부동"},{"name":"동궁과월지 연꽃단지 노상주차장","type":"공영","category":"노상","address":"경상북도 경주시 원화로 102","lat":35.83479378,"lng":129.2265702,"totalSpaces":56,"isFree":false,"operatingDays":"평일+토요일+공휴일","weekdayOpen":"09:00","weekdayClose":"20:00","weekendOpen":"09:00","weekendClose":"20:00","holidayOpen":"09:00","holidayClose":"20:00","feeInfo":"기본 30분 500원 / 추가 10분당 200원","phone":"054-750-8714","updatedAt":"2025-09-03","sido":"경상북도","sigungu":"경주시","dong":"인왕동"},{"name":"화랑로 노상주차장","type":"공영","category":"노상","address":"경상북도 경주시 화랑로 49","lat":35.84486364,"lng":129.2061471,"totalSpaces":49,"isFree":false,"operatingDays":"평일+토요일+공휴일","weekdayOpen":"09:00","weekdayClose":"20:00","weekendOpen":"09:00","weekendClose":"20:00","holidayOpen":"09:00","holidayClose":"20:00","feeInfo":"기본 30분 500원 / 추가 10분당 200원","phone":"054-750-8714","updatedAt":"2025-09-03","sido":"경상북도","sigungu":"경주시","dong":"성건동"},{"name":"연꽃단지","type":"공영","category":"노상","address":"경상북도 경주시 원화로 119","lat":35.8339419826,"lng":129.2246514,"totalSpaces":46,"isFree":false,"operatingDays":"평일+토요일+공휴일","weekdayOpen":"09:00","weekdayClose":"20:00","weekendOpen":"09:00","weekendClose":"20:00","holidayOpen":"09:00","holidayClose":"20:00","feeInfo":"기본 30분 500원 / 추가 10분당 200원","phone":"054-750-8716","updatedAt":"2025-02-12","sido":"경상북도","sigungu":"경주시","dong":"인왕동"},{"name":"북정로 노상주차장","type":"공영","category":"노상","address":"경상북도 경주시 동성로 132-2 (황오동)","lat":35.84305997,"lng":129.2150797,"totalSpaces":46,"isFree":false,"operatingDays":"평일+토요일+공휴일","weekdayOpen":"09:00","weekdayClose":"20:00","weekendOpen":"09:00","weekendClose":"20:00","holidayOpen":"09:00","holidayClose":"20:00","feeInfo":"기본 30분 500원 / 추가 10분당 200원","phone":"054-750-8714","updatedAt":"2025-09-03","sido":"경상북도","sigungu":"경주시","dong":"황오동"},{"name":"구 황오동사무소 노상주차장","type":"공영","category":"노상","address":"경상북도 경주시 황오동 245-1","lat":35.84275287,"lng":129.2152583,"totalSpaces":41,"isFree":false,"operatingDays":"평일+토요일+공휴일","weekdayOpen":"09:00","weekdayClose":"20:00","weekendOpen":"09:00","weekendClose":"20:00","holidayOpen":"09:00","holidayClose":"20:00","feeInfo":"기본 30분 500원 / 추가 10분당 200원","phone":"054-750-8714","updatedAt":"2025-09-03","sido":"경상북도","sigungu":"경주시","dong":"황오동"},{"name":"황남생활문화센터 공영주차장","type":"공영","category":"노외","address":"경상북도 경주시 첨성로 81번길 23","lat":35.83515786,"lng":129.2109912,"totalSpaces":35,"isFree":false,"operatingDays":"평일+토요일+공휴일","weekdayOpen":"10:00","weekdayClose":"18:00","weekendOpen":"10:00","weekendClose":"18:00","holidayOpen":"10:00","holidayClose":"18:00","feeInfo":"기본 30분 500원 / 추가 10분당 200원","phone":"054-750-8714","updatedAt":"2025-02-12","sido":"경상북도","sigungu":"경주시","dong":"황남동"},{"name":"핑크뮬리","type":"공영","category":"노상","address":"경상북도 경주시 첨성로 175","lat":35.835994157,"lng":129.2199391,"totalSpaces":34,"isFree":false,"operatingDays":"평일+토요일+공휴일","weekdayOpen":"09:00","weekdayClose":"20:00","weekendOpen":"09:00","weekendClose":"20:00","holidayOpen":"09:00","holidayClose":"20:00","feeInfo":"기본 30분 500원 / 추가 10분당 200원","phone":"054-750-8716","updatedAt":"2025-02-12","sido":"경상북도","sigungu":"경주시","dong":"인왕동"},{"name":"중앙시장제1공영주차장","type":"공영","category":"노외","address":"경상북도 경주시 금성로 295","lat":35.84396049,"lng":129.2067453,"totalSpaces":30,"isFree":false,"operatingDays":"평일+토요일+공휴일","weekdayOpen":"08:00","weekdayClose":"21:00","weekendOpen":"07:00","weekendClose":"21:00","holidayOpen":"07:00","holidayClose":"21:00","feeInfo":"기본 30분 500원 / 추가 10분당 200원","phone":"054-750-8715","updatedAt":"2025-02-12","sido":"경상북도","sigungu":"경주시","dong":"성건동"},{"name":"삼거리","type":"공영","category":"노상","address":"경상북도 경주시 첨성로 113","lat":35.8334489053,"lng":129.2147149,"totalSpaces":29,"isFree":false,"operatingDays":"평일+토요일+공휴일","weekdayOpen":"09:00","weekdayClose":"20:00","weekendOpen":"09:00","weekendClose":"20:00","holidayOpen":"09:00","holidayClose":"20:00","feeInfo":"기본 30분 500원 / 추가 10분당 200원","phone":"054-750-8716","updatedAt":"2025-02-12","sido":"경상북도","sigungu":"경주시","dong":"황남동"},{"name":"황성동현대APT","type":"공영","category":"노상","address":"경상북도 경주시 황성로27번길 10","lat":35.8661884991,"lng":129.2136638413,"totalSpaces":26,"isFree":false,"operatingDays":"평일+토요일+공휴일","weekdayOpen":"09:00","weekdayClose":"20:00","weekendOpen":"09:00","weekendClose":"20:00","holidayOpen":"09:00","holidayClose":"20:00","feeInfo":"기본 30분 500원 / 추가 10분당 200원","phone":"054-750-8716","updatedAt":"2025-02-12","sido":"경상북도","sigungu":"경주시","dong":"황성동"},{"name":"황성 현대아파트 노상주차장","type":"공영","category":"노상","address":"경상북도 경주시 용담로 92","lat":35.86431082,"lng":129.2116539,"totalSpaces":26,"isFree":false,"operatingDays":"평일+토요일","weekdayOpen":"09:00","weekdayClose":"20:00","weekendOpen":"09:00","weekendClose":"20:00","holidayOpen":"00:00","holidayClose":"00:00","feeInfo":"기본 30분 500원 / 추가 10분당 200원","phone":"054-750-8714","updatedAt":"2025-09-03","sido":"경상북도","sigungu":"경주시","dong":"황성동"},{"name":"동성로-2(송월타월)","type":"공영","category":"노상","address":"경상북도 경주시 동성로 87","lat":35.84345076,"lng":129.2099703,"totalSpaces":26,"isFree":false,"operatingDays":"평일+토요일+공휴일","weekdayOpen":"09:00","weekdayClose":"20:00","weekendOpen":"09:00","weekendClose":"20:00","holidayOpen":"09:00","holidayClose":"20:00","feeInfo":"기본 30분 500원 / 추가 10분당 200원","phone":"054-750-8716","updatedAt":"2025-02-12","sido":"경상북도","sigungu":"경주시","dong":"노서동"},{"name":"첨성대","type":"공영","category":"노상","address":"경상북도 경주시 첨성로 151","lat":35.8357421885,"lng":129.2174873,"totalSpaces":25,"isFree":false,"operatingDays":"평일+토요일+공휴일","weekdayOpen":"09:00","weekdayClose":"20:00","weekendOpen":"09:00","weekendClose":"20:00","holidayOpen":"09:00","holidayClose":"20:00","feeInfo":"기본 30분 500원 / 추가 10분당 200원","phone":"054-750-8716","updatedAt":"2025-02-12","sido":"경상북도","sigungu":"경주시","dong":"황남동"},{"name":"성건동공영주차장","type":"공영","category":"노외","address":"경상북도 경주시 원효로 23","lat":35.84243213,"lng":129.203246,"totalSpaces":25,"isFree":false,"operatingDays":"평일+토요일+공휴일","weekdayOpen":"09:00","weekdayClose":"18:00","weekendOpen":"09:00","weekendClose":"18:00","holidayOpen":"09:00","holidayClose":"18:00","feeInfo":"기본 30분 500원 / 추가 10분당 200원","phone":"054-750-8715","updatedAt":"2025-02-12","sido":"경상북도","sigungu":"경주시","dong":"성건동"},{"name":"양지식당","type":"공영","category":"노상","address":"경상북도 경주시 교촌길 30","lat":35.83045315,"lng":129.2140531,"totalSpaces":25,"isFree":false,"operatingDays":"평일+토요일+공휴일","weekdayOpen":"09:00","weekdayClose":"20:00","weekendOpen":"09:00","weekendClose":"20:00","holidayOpen":"09:00","holidayClose":"20:00","feeInfo":"기본 30분 500원 / 추가 10분당 200원","phone":"054-750-8716","updatedAt":"2025-02-12","sido":"경상북도","sigungu":"경주시","dong":"황남동"},{"name":"성건동 공영","type":"공영","category":"노외","address":"경상북도 경주시 화랑로28번길 26(성건동)","lat":35.84255957,"lng":129.203486,"totalSpaces":25,"isFree":false,"operatingDays":"평일","weekdayOpen":"09:00","weekdayClose":"20:00","weekendOpen":"00:00","weekendClose":"00:00","holidayOpen":"00:00","holidayClose":"00:00","feeInfo":"기본 30분 500원 / 추가 10분당 200원","phone":"054-779-6531","updatedAt":"2025-09-03","sido":"경상북도","sigungu":"경주시","dong":"성건동"},{"name":"경주전동차","type":"공영","category":"노상","address":"경상북도 경주시 교촌길 4","lat":35.8328953387,"lng":129.2140287,"totalSpaces":24,"isFree":false,"operatingDays":"평일+토요일+공휴일","weekdayOpen":"09:00","weekdayClose":"20:00","weekendOpen":"09:00","weekendClose":"20:00","holidayOpen":"09:00","holidayClose":"20:00","feeInfo":"기본 30분 500원 / 추가 10분당 200원","phone":"054-750-8716","updatedAt":"2025-02-12","sido":"경상북도","sigungu":"경주시","dong":"황남동"},{"name":"시민장례식장앞","type":"공영","category":"노상","address":"경상북도 경주시 화랑로 42","lat":35.84452294,"lng":129.2054048,"totalSpaces":24,"isFree":false,"operatingDays":"평일+토요일+공휴일","weekdayOpen":"09:00","weekdayClose":"20:00","weekendOpen":"09:00","weekendClose":"20:00","holidayOpen":"09:00","holidayClose":"20:00","feeInfo":"기본 30분 500원 / 추가 10분당 200원","phone":"054-750-8716","updatedAt":"2025-02-12","sido":"경상북도","sigungu":"경주시","dong":"성건동"},{"name":"현대병원앞","type":"공영","category":"노상","address":"경상북도 경주시 화랑로 37","lat":35.84493202,"lng":129.2048943,"totalSpaces":24,"isFree":false,"operatingDays":"평일+토요일+공휴일","weekdayOpen":"09:00","weekdayClose":"20:00","weekendOpen":"09:00","weekendClose":"20:00","holidayOpen":"09:00","holidayClose":"20:00","feeInfo":"기본 30분 500원 / 추가 10분당 200원","phone":"054-750-8716","updatedAt":"2025-02-12","sido":"경상북도","sigungu":"경주시","dong":"성건동"},{"name":"대릉원","type":"공영","category":"노상","address":"경상북도 경주시 첨성로 131","lat":35.8345767691,"lng":129.2154123,"totalSpaces":23,"isFree":false,"operatingDays":"평일+토요일+공휴일","weekdayOpen":"09:00","weekdayClose":"20:00","weekendOpen":"09:00","weekendClose":"20:00","holidayOpen":"09:00","holidayClose":"20:00","feeInfo":"기본 30분 500원 / 추가 10분당 200원","phone":"054-750-8716","updatedAt":"2025-02-12","sido":"경상북도","sigungu":"경주시","dong":"황남동"},{"name":"베이글","type":"공영","category":"노상","address":"경상북도 경주시 교촌길 18","lat":35.8315875638,"lng":129.2138605117,"totalSpaces":22,"isFree":false,"operatingDays":"평일+토요일+공휴일","weekdayOpen":"09:00","weekdayClose":"20:00","weekendOpen":"09:00","weekendClose":"20:00","holidayOpen":"09:00","holidayClose":"20:00","feeInfo":"기본 30분 500원 / 추가 10분당 200원","phone":"054-750-8716","updatedAt":"2025-02-12","sido":"경상북도","sigungu":"경주시","dong":"교동"},{"name":"농협주변 노상주차장","type":"공영","category":"노상","address":"경상북도 경주시 동부동 215-3","lat":35.84422815,"lng":129.2120705,"totalSpaces":21,"isFree":false,"operatingDays":"평일+토요일+공휴일","weekdayOpen":"09:00","weekdayClose":"20:00","weekendOpen":"09:00","weekendClose":"20:00","holidayOpen":"09:00","holidayClose":"20:00","feeInfo":"기본 30분 500원 / 추가 10분당 200원","phone":"054-750-8714","updatedAt":"2025-09-03","sido":"경상북도","sigungu":"경주시","dong":"동부동"},{"name":"북정로(우체국)","type":"공영","category":"노상","address":"경상북도 경주시 북정로 36","lat":35.84406722,"lng":129.2154359,"totalSpaces":21,"isFree":false,"operatingDays":"평일+토요일+공휴일","weekdayOpen":"09:00","weekdayClose":"20:00","weekendOpen":"09:00","weekendClose":"20:00","holidayOpen":"09:00","holidayClose":"20:00","feeInfo":"기본 30분 500원 / 추가 10분당 200원","phone":"054-750-8716","updatedAt":"2025-02-12","sido":"경상북도","sigungu":"경주시","dong":"황오동"},{"name":"농협중앙회옆","type":"공영","category":"노상","address":"경상북도 경주시 중앙로48번길 9","lat":35.8442542324,"lng":129.2127105,"totalSpaces":20,"isFree":false,"operatingDays":"평일+토요일+공휴일","weekdayOpen":"09:00","weekdayClose":"20:00","weekendOpen":"09:00","weekendClose":"20:00","holidayOpen":"09:00","holidayClose":"20:00","feeInfo":"기본 30분 500원 / 추가 10분당 200원","phone":"054-750-8716","updatedAt":"2025-02-12","sido":"경상북도","sigungu":"경주시","dong":"동부동"},{"name":"농협동부지점앞길","type":"공영","category":"노상","address":"경상북도 경주시 동성로 144-1","lat":35.84297468,"lng":129.2164187,"totalSpaces":18,"isFree":false,"operatingDays":"평일+토요일+공휴일","weekdayOpen":"09:00","weekdayClose":"20:00","weekendOpen":"09:00","weekendClose":"20:00","holidayOpen":"09:00","holidayClose":"20:00","feeInfo":"기본 30분 500원 / 추가 10분당 200원","phone":"054-750-8716","updatedAt":"2025-02-12","sido":"경상북도","sigungu":"경주시","dong":"황오동"},{"name":"시외버스터미널뒷길","type":"공영","category":"노상","address":"경상북도 경주시 태종로685번길 14","lat":35.8394702048,"lng":129.2030005,"totalSpaces":17,"isFree":false,"operatingDays":"평일+토요일+공휴일","weekdayOpen":"09:00","weekdayClose":"20:00","weekendOpen":"09:00","weekendClose":"20:00","holidayOpen":"09:00","holidayClose":"20:00","feeInfo":"기본 30분 500원 / 추가 10분당 200원","phone":"054-750-8716","updatedAt":"2025-02-12","sido":"경상북도","sigungu":"경주시","dong":"노서동"},{"name":"시청민원실앞","type":"공영","category":"노상","address":"경상북도 경주시 백률로58번길 3","lat":35.8563949265,"lng":129.2257325,"totalSpaces":17,"isFree":false,"operatingDays":"평일","weekdayOpen":"09:00","weekdayClose":"20:00","weekendOpen":"00:00","weekendClose":"00:00","holidayOpen":"00:00","holidayClose":"00:00","feeInfo":"기본 30분 500원 / 추가 10분당 200원","phone":"054-750-8716","updatedAt":"2025-02-12","sido":"경상북도","sigungu":"경주시","dong":"동천동"},{"name":"시외버스터미널 노상주차장","type":"공영","category":"노상","address":"경상북도 경주시 노서동 181-1","lat":35.84079945,"lng":129.2033957,"totalSpaces":17,"isFree":false,"operatingDays":"평일+토요일+공휴일","weekdayOpen":"09:00","weekdayClose":"20:00","weekendOpen":"09:00","weekendClose":"20:00","holidayOpen":"09:00","holidayClose":"20:00","feeInfo":"기본 30분 500원 / 추가 10분당 200원","phone":"054-750-8714","updatedAt":"2025-09-03","sido":"경상북도","sigungu":"경주시","dong":"노서동"},{"name":"시청 노상주차장","type":"공영","category":"노상","address":"경상북도 경주시 동천동 800","lat":35.85619791,"lng":129.2247236,"totalSpaces":17,"isFree":false,"operatingDays":"평일","weekdayOpen":"09:00","weekdayClose":"20:00","weekendOpen":"00:00","weekendClose":"00:00","holidayOpen":"00:00","holidayClose":"00:00","feeInfo":"기본 30분 500원 / 추가 10분당 200원","phone":"054-750-8714","updatedAt":"2025-09-03","sido":"경상북도","sigungu":"경주시","dong":"동천동"},{"name":"북성로 노상주차장","type":"공영","category":"노상","address":"경상북도 경주시 북성로 130","lat":35.84692522,"lng":129.2160181,"totalSpaces":16,"isFree":false,"operatingDays":"평일","weekdayOpen":"09:00","weekdayClose":"20:00","weekendOpen":"00:00","weekendClose":"00:00","holidayOpen":"00:00","holidayClose":"00:00","feeInfo":"기본 30분 500원 / 추가 10분당 200원","phone":"054-750-8714","updatedAt":"2025-09-03","sido":"경상북도","sigungu":"경주시","dong":"성동동"},{"name":"해장국거리","type":"공영","category":"노상","address":"경상북도 경주시 태종로 812","lat":35.8407855294,"lng":129.2166321,"totalSpaces":15,"isFree":false,"operatingDays":"평일+토요일+공휴일","weekdayOpen":"09:00","weekdayClose":"20:00","weekendOpen":"09:00","weekendClose":"20:00","holidayOpen":"09:00","holidayClose":"20:00","feeInfo":"기본 30분 500원 / 추가 10분당 200원","phone":"054-750-8716","updatedAt":"2025-02-12","sido":"경상북도","sigungu":"경주시","dong":"황오동"},{"name":"포석로공영주차장","type":"공영","category":"노외","address":"경상북도 경주시 포석로 1080","lat":35.8374082961,"lng":129.2099537036,"totalSpaces":15,"isFree":false,"operatingDays":"평일+토요일+공휴일","weekdayOpen":"10:00","weekdayClose":"18:00","weekendOpen":"10:00","weekendClose":"18:00","holidayOpen":"10:00","holidayClose":"18:00","feeInfo":"기본 30분 500원 / 추가 10분당 200원","phone":"054-750-8714","updatedAt":"2025-02-12","sido":"경상북도","sigungu":"경주시","dong":"황남동"},{"name":"동성로-2(영화약국)","type":"공영","category":"노상","address":"경상북도 경주시 동성로 95","lat":35.84345201,"lng":129.2109014,"totalSpaces":15,"isFree":false,"operatingDays":"평일+토요일+공휴일","weekdayOpen":"09:00","weekdayClose":"20:00","weekendOpen":"09:00","weekendClose":"20:00","holidayOpen":"09:00","holidayClose":"20:00","feeInfo":"기본 30분 500원 / 추가 10분당 200원","phone":"054-750-8716","updatedAt":"2025-02-12","sido":"경상북도","sigungu":"경주시","dong":"노동동"},{"name":"봉황대옆길","type":"공영","category":"노상","address":"경상북도 경주시 원효로 90","lat":35.84197489,"lng":129.2106927,"totalSpaces":14,"isFree":false,"operatingDays":"평일+토요일+공휴일","weekdayOpen":"09:00","weekdayClose":"20:00","weekendOpen":"09:00","weekendClose":"20:00","holidayOpen":"09:00","holidayClose":"20:00","feeInfo":"기본 30분 500원 / 추가 10분당 200원","phone":"054-750-8716","updatedAt":"2025-02-12","sido":"경상북도","sigungu":"경주시","dong":"노동동"},{"name":"북정로(드림힐, 수정)","type":"공영","category":"노상","address":"경상북도 경주시 북정로 22","lat":35.8428545371,"lng":129.2154009,"totalSpaces":14,"isFree":false,"operatingDays":"평일+토요일+공휴일","weekdayOpen":"09:00","weekdayClose":"20:00","weekendOpen":"09:00","weekendClose":"20:00","holidayOpen":"09:00","holidayClose":"20:00","feeInfo":"기본 30분 500원 / 추가 10분당 200원","phone":"054-750-8716","updatedAt":"2025-02-12","sido":"경상북도","sigungu":"경주시","dong":"황오동"},{"name":"법원옆길","type":"공영","category":"노상","address":"경상북도 경주시 봉황로 63-1","lat":35.8452335227,"lng":129.2100315,"totalSpaces":13,"isFree":false,"operatingDays":"평일","weekdayOpen":"09:00","weekdayClose":"20:00","weekendOpen":"00:00","weekendClose":"00:00","holidayOpen":"00:00","holidayClose":"00:00","feeInfo":"기본 30분 500원 / 추가 10분당 200원","phone":"054-750-8716","updatedAt":"2025-02-12","sido":"경상북도","sigungu":"경주시","dong":"서부동"},{"name":"황오동행정복지센터","type":"공영","category":"노상","address":"경상북도 경주시 북성로 128","lat":35.84705097,"lng":129.2157954,"totalSpaces":13,"isFree":false,"operatingDays":"평일","weekdayOpen":"09:00","weekdayClose":"20:00","weekendOpen":"00:00","weekendClose":"00:00","holidayOpen":"00:00","holidayClose":"00:00","feeInfo":"기본 30분 500원 / 추가 10분당 200원","phone":"054-750-8716","updatedAt":"2025-02-12","sido":"경상북도","sigungu":"경주시","dong":"성동동"},{"name":"원효로 노상주차장","type":"공영","category":"노상","address":"경상북도 경주시 원효로 89 (노동동)","lat":35.84221759,"lng":129.2106928,"totalSpaces":13,"isFree":false,"operatingDays":"평일+토요일+공휴일","weekdayOpen":"09:00","weekdayClose":"20:00","weekendOpen":"09:00","weekendClose":"20:00","holidayOpen":"09:00","holidayClose":"20:00","feeInfo":"기본 30분 500원 / 추가 10분당 200원","phone":"054-750-8714","updatedAt":"2025-09-03","sido":"경상북도","sigungu":"경주시","dong":"노동동"},{"name":"팔우정삼거리","type":"공영","category":"노상","address":"경상북도 경주시 원화로 224","lat":35.840635409,"lng":129.2177308,"totalSpaces":12,"isFree":false,"operatingDays":"평일+토요일+공휴일","weekdayOpen":"09:00","weekdayClose":"20:00","weekendOpen":"09:00","weekendClose":"20:00","holidayOpen":"09:00","holidayClose":"20:00","feeInfo":"기본 30분 500원 / 추가 10분당 200원","phone":"054-750-8716","updatedAt":"2025-02-12","sido":"경상북도","sigungu":"경주시","dong":"황오동"},{"name":"교동쌈밥","type":"공영","category":"노상","address":"경상북도 경주시 첨성로 77","lat":35.8332418115,"lng":129.2105587,"totalSpaces":12,"isFree":false,"operatingDays":"평일+토요일+공휴일","weekdayOpen":"09:00","weekdayClose":"20:00","weekendOpen":"09:00","weekendClose":"20:00","holidayOpen":"09:00","holidayClose":"20:00","feeInfo":"기본 30분 500원 / 추가 10분당 200원","phone":"054-750-8716","updatedAt":"2025-02-12","sido":"경상북도","sigungu":"경주시","dong":"황남동"},{"name":"상공회의소옆","type":"공영","category":"노상","address":"경상북도 경주시 중앙로 77","lat":35.846902599,"lng":129.2114033,"totalSpaces":11,"isFree":false,"operatingDays":"평일","weekdayOpen":"09:00","weekdayClose":"20:00","weekendOpen":"00:00","weekendClose":"00:00","holidayOpen":"00:00","holidayClose":"00:00","feeInfo":"기본 30분 500원 / 추가 10분당 200원","phone":"054-750-8716","updatedAt":"2025-02-12","sido":"경상북도","sigungu":"경주시","dong":"동부동"},{"name":"동문로 노상주차장","type":"공영","category":"노상","address":"경상북도 경주시 동문로 14","lat":35.84575272,"lng":129.2145071,"totalSpaces":11,"isFree":false,"operatingDays":"평일+토요일+공휴일","weekdayOpen":"09:00","weekdayClose":"20:00","weekendOpen":"09:00","weekendClose":"20:00","holidayOpen":"09:00","holidayClose":"20:00","feeInfo":"기본 30분 500원 / 추가 10분당 200원","phone":"054-750-8714","updatedAt":"2025-09-03","sido":"경상북도","sigungu":"경주시","dong":"성동동"},{"name":"팔우정 노상주차장","type":"공영","category":"노상","address":"경상북도 경주시 동성로 145","lat":35.8431662,"lng":129.2162719,"totalSpaces":10,"isFree":false,"operatingDays":"평일+토요일+공휴일","weekdayOpen":"09:00","weekdayClose":"20:00","weekendOpen":"09:00","weekendClose":"20:00","holidayOpen":"09:00","holidayClose":"20:00","feeInfo":"기본 30분 500원 / 추가 10분당 200원","phone":"054-750-8714","updatedAt":"2025-09-03","sido":"경상북도","sigungu":"경주시","dong":"황오동"},{"name":"교촌입구","type":"공영","category":"노상","address":"경상북도 경주시 교촌길 39-2","lat":35.8296327975,"lng":129.2146954,"totalSpaces":10,"isFree":false,"operatingDays":"평일+토요일+공휴일","weekdayOpen":"09:00","weekdayClose":"20:00","weekendOpen":"09:00","weekendClose":"20:00","holidayOpen":"09:00","holidayClose":"20:00","feeInfo":"기본 30분 500원 / 추가 10분당 200원","phone":"054-750-8716","updatedAt":"2025-02-12","sido":"경상북도","sigungu":"경주시","dong":"교동"},{"name":"동부소방서옆","type":"공영","category":"노상","address":"경상북도 경주시 중앙로 55","lat":35.8448800763,"lng":129.2114151,"totalSpaces":10,"isFree":false,"operatingDays":"평일","weekdayOpen":"09:00","weekdayClose":"20:00","weekendOpen":"00:00","weekendClose":"00:00","holidayOpen":"00:00","holidayClose":"00:00","feeInfo":"기본 30분 500원 / 추가 10분당 200원","phone":"054-750-8716","updatedAt":"2025-02-12","sido":"경상북도","sigungu":"경주시","dong":"동부동"},{"name":"경주읍성앞","type":"공영","category":"노상","address":"경상북도 경주시 동문로 22-1","lat":35.84640931,"lng":129.2141402,"totalSpaces":9,"isFree":false,"operatingDays":"평일","weekdayOpen":"09:00","weekdayClose":"20:00","weekendOpen":"00:00","weekendClose":"00:00","holidayOpen":"00:00","holidayClose":"00:00","feeInfo":"기본 30분 500원 / 추가 10분당 200원","phone":"054-750-8716","updatedAt":"2025-02-12","sido":"경상북도","sigungu":"경주시","dong":"성동동"}]}