{"sido":"경상북도","sigungu":"상주시","totalCount":26,"validCount":26,"items":[{"name":"북천둔치주차장","type":"공영","category":"노외","address":"경상북도 상주시 계산8길 3","lat":36.42408954,"lng":128.1738524,"totalSpaces":267,"isFree":true,"operatingDays":"평일+토요일+공휴일","weekdayOpen":"00:00","weekdayClose":"23:59","weekendOpen":"00:00","weekendClose":"23:59","holidayOpen":"00:00","holidayClose":"23:59","feeInfo":"무료","phone":"054-537-7392","updatedAt":"2025-12-22","sido":"경상북도","sigungu":"상주시","dong":"계산동"},{"name":"구잠사곤충공영주차장","type":"공영","category":"노외","address":"경상북도 상주시 신서문2길 75","lat":36.41099341,"lng":128.155045,"totalSpaces":116,"isFree":true,"operatingDays":"평일+토요일+공휴일","weekdayOpen":"00:00","weekdayClose":"23:59","weekendOpen":"00:00","weekendClose":"23:59","holidayOpen":"00:00","holidayClose":"23:59","feeInfo":"무료","phone":"054-537-7392","updatedAt":"2025-12-22","sido":"경상북도","sigungu":"상주시","dong":"낙양동"},{"name":"신봉동공영주차장","type":"공영","category":"노외","address":"경상북도 상주시 상산로 156-10","lat":36.40442623,"lng":128.1616421,"totalSpaces":76,"isFree":true,"operatingDays":"평일+토요일+공휴일","weekdayOpen":"00:00","weekdayClose":"23:59","weekendOpen":"00:00","weekendClose":"23:59","holidayOpen":"00:00","holidayClose":"23:59","feeInfo":"무료","phone":"054-537-7392","updatedAt":"2025-12-22","sido":"경상북도","sigungu":"상주시","dong":"신봉동"},{"name":"낙양동쌈지공영주차장","type":"공영","category":"노외","address":"경상북도 상주시 낙양동 123-23","lat":36.41072179,"lng":128.1531766,"totalSpaces":71,"isFree":true,"operatingDays":"평일+토요일+공휴일","weekdayOpen":"00:00","weekdayClose":"23:59","weekendOpen":"00:00","weekendClose":"23:59","holidayOpen":"00:00","holidayClose":"23:59","feeInfo":"무료","phone":"054-537-7392","updatedAt":"2025-12-22","sido":"경상북도","sigungu":"상주시","dong":"낙양동"},{"name":"함창읍공영주차장","type":"공영","category":"노외","address":"경상북도 상주시 함창읍 구향리 127-3","lat":36.567621,"lng":128.1782832,"totalSpaces":70,"isFree":true,"operatingDays":"평일+토요일+공휴일","weekdayOpen":"00:00","weekdayClose":"23:59","weekendOpen":"00:00","weekendClose":"23:59","holidayOpen":"00:00","holidayClose":"23:59","feeInfo":"무료","phone":"054-537-7392","updatedAt":"2025-12-22","sido":"경상북도","sigungu":"상주시","dong":"함창읍"},{"name":"성동동쌈지공영주차장","type":"공영","category":"노외","address":"경상북도 상주시 성동동 67-1","lat":36.41525193,"lng":128.168897,"totalSpaces":60,"isFree":true,"operatingDays":"평일+토요일+공휴일","weekdayOpen":"00:00","weekdayClose":"23:59","weekendOpen":"00:00","weekendClose":"23:59","holidayOpen":"00:00","holidayClose":"23:59","feeInfo":"무료","phone":"054-537-7392","updatedAt":"2025-12-22","sido":"경상북도","sigungu":"상주시","dong":"성동동"},{"name":"만산공원공영주차장","type":"공영","category":"노외","address":"경상북도 상주시 경상대로 3137","lat":36.42709068,"lng":128.1515376,"totalSpaces":58,"isFree":true,"operatingDays":"평일+토요일+공휴일","weekdayOpen":"00:00","weekdayClose":"23:59","weekendOpen":"00:00","weekendClose":"23:59","holidayOpen":"00:00","holidayClose":"23:59","feeInfo":"무료","phone":"054-537-7392","updatedAt":"2025-12-22","sido":"경상북도","sigungu":"상주시","dong":"만산동"},{"name":"모서면공영주차장","type":"공영","category":"노외","address":"경상북도 상주시 모서면 삼포3길 35","lat":36.34115071,"lng":127.9611812,"totalSpaces":42,"isFree":true,"operatingDays":"평일+토요일+공휴일","weekdayOpen":"00:00","weekdayClose":"23:59","weekendOpen":"00:00","weekendClose":"23:59","holidayOpen":"00:00","holidayClose":"23:59","feeInfo":"무료","phone":"054-537-7392","updatedAt":"2025-12-22","sido":"경상북도","sigungu":"상주시","dong":"모서면"},{"name":"상주기차역공영주차장","type":"공영","category":"노외","address":"경상북도 상주시 남문1길 24","lat":36.40971054,"lng":128.1634401,"totalSpaces":40,"isFree":true,"operatingDays":"평일+토요일+공휴일","weekdayOpen":"00:00","weekdayClose":"23:59","weekendOpen":"00:00","weekendClose":"23:59","holidayOpen":"00:00","holidayClose":"23:59","feeInfo":"무료","phone":"054-537-7392","updatedAt":"2025-12-22","sido":"경상북도","sigungu":"상주시","dong":"성동동"},{"name":"냉림동우리동네공영주차장","type":"공영","category":"노외","address":"경상북도 상주시 냉림1길 43-19","lat":36.42247106,"lng":128.1629489,"totalSpaces":32,"isFree":true,"operatingDays":"평일+토요일+공휴일","weekdayOpen":"00:00","weekdayClose":"23:59","weekendOpen":"00:00","weekendClose":"23:59","holidayOpen":"00:00","holidayClose":"23:59","feeInfo":"무료","phone":"054-537-7392","updatedAt":"2025-12-22","sido":"경상북도","sigungu":"상주시","dong":"냉림동"},{"name":"청리면청하리공영주차장","type":"공영","category":"노외","address":"경상북도 상주시 청리면 청하리 859-1","lat":36.3383034,"lng":128.129111,"totalSpaces":32,"isFree":true,"operatingDays":"평일+토요일+공휴일","weekdayOpen":"00:00","weekdayClose":"23:59","weekendOpen":"00:00","weekendClose":"23:59","holidayOpen":"00:00","holidayClose":"23:59","feeInfo":"무료","phone":"054-537-7392","updatedAt":"2025-12-22","sido":"경상북도","sigungu":"상주시","dong":"청리면"},{"name":"복룡동공영주차장","type":"공영","category":"노외","address":"경상북도 상주시 삼백로 185-21","lat":36.41979759,"lng":128.1638417,"totalSpaces":27,"isFree":true,"operatingDays":"평일+토요일+공휴일","weekdayOpen":"00:00","weekdayClose":"23:59","weekendOpen":"00:00","weekendClose":"23:59","holidayOpen":"00:00","holidayClose":"23:59","feeInfo":"무료","phone":"054-537-7392","updatedAt":"2025-12-22","sido":"경상북도","sigungu":"상주시","dong":"복룡동"},{"name":"신봉동2차공영주차장","type":"공영","category":"노외","address":"경상북도 상주시 신봉동 598-1","lat":36.39434662,"lng":128.1513813,"totalSpaces":25,"isFree":true,"operatingDays":"평일+토요일+공휴일","weekdayOpen":"00:00","weekdayClose":"23:59","weekendOpen":"00:00","weekendClose":"23:59","holidayOpen":"00:00","holidayClose":"23:59","feeInfo":"무료","phone":"054-537-7392","updatedAt":"2025-12-22","sido":"경상북도","sigungu":"상주시","dong":"신봉동"},{"name":"화동면공영주차장","type":"공영","category":"노외","address":"경상북도 상주시 화동면 이소리 342-8","lat":36.388715,"lng":127.955668,"totalSpaces":22,"isFree":true,"operatingDays":"평일+토요일+공휴일","weekdayOpen":"00:00","weekdayClose":"23:59","weekendOpen":"00:00","weekendClose":"23:59","holidayOpen":"00:00","holidayClose":"23:59","feeInfo":"무료","phone":"054-537-7392","updatedAt":"2025-12-22","sido":"경상북도","sigungu":"상주시","dong":"화동면"},{"name":"인봉동공영주차장","type":"공영","category":"노외","address":"경상북도 상주시 왕산로 254-2","lat":36.41691469,"lng":128.1628943,"totalSpaces":22,"isFree":true,"operatingDays":"평일+토요일+공휴일","weekdayOpen":"00:00","weekdayClose":"23:59","weekendOpen":"00:00","weekendClose":"23:59","holidayOpen":"00:00","holidayClose":"23:59","feeInfo":"무료","phone":"054-537-7392","updatedAt":"2025-12-22","sido":"경상북도","sigungu":"상주시","dong":"인봉동"},{"name":"화서면공영주차장","type":"공영","category":"노외","address":"경상북도 상주시 화서면 화령남2길 5-2","lat":36.4438171,"lng":127.9517374,"totalSpaces":20,"isFree":true,"operatingDays":"평일+토요일+공휴일","weekdayOpen":"00:00","weekdayClose":"23:59","weekendOpen":"00:00","weekendClose":"23:59","holidayOpen":"00:00","holidayClose":"23:59","feeInfo":"무료","phone":"054-537-7392","updatedAt":"2025-12-22","sido":"경상북도","sigungu":"상주시","dong":"화서면"},{"name":"남성동쌈지공영주차장","type":"공영","category":"노외","address":"경상북도 상주시 남성동 14-7","lat":36.414342,"lng":128.158567,"totalSpaces":20,"isFree":true,"operatingDays":"평일+토요일+공휴일","weekdayOpen":"00:00","weekdayClose":"23:59","weekendOpen":"00:00","weekendClose":"23:59","holidayOpen":"00:00","holidayClose":"23:59","feeInfo":"무료","phone":"054-537-7392","updatedAt":"2025-12-22","sido":"경상북도","sigungu":"상주시","dong":"남성동"},{"name":"함창초공영주차장","type":"공영","category":"노외","address":"경상북도 상주시 함창읍 구향3길 24","lat":36.5701103,"lng":128.1811622,"totalSpaces":19,"isFree":true,"operatingDays":"평일+토요일+공휴일","weekdayOpen":"00:00","weekdayClose":"23:59","weekendOpen":"00:00","weekendClose":"23:59","holidayOpen":"00:00","holidayClose":"23:59","feeInfo":"무료","phone":"054-537-7392","updatedAt":"2025-12-22","sido":"경상북도","sigungu":"상주시","dong":"함창읍"},{"name":"신봉동1차공영주차장","type":"공영","category":"노외","address":"경상북도 상주시 신봉동 544","lat":36.39740949,"lng":128.149698,"totalSpaces":19,"isFree":true,"operatingDays":"평일+토요일+공휴일","weekdayOpen":"00:00","weekdayClose":"23:59","weekendOpen":"00:00","weekendClose":"23:59","holidayOpen":"00:00","holidayClose":"23:59","feeInfo":"무료","phone":"054-537-7392","updatedAt":"2025-12-22","sido":"경상북도","sigungu":"상주시","dong":"신봉동"},{"name":"중앙시장공영주차장","type":"공영","category":"노외","address":"경상북도 상주시 상산로 256-25","lat":36.41402692,"lng":128.1604731,"totalSpaces":16,"isFree":true,"operatingDays":"평일+토요일+공휴일","weekdayOpen":"00:00","weekdayClose":"23:59","weekendOpen":"00:00","weekendClose":"23:59","holidayOpen":"00:00","holidayClose":"23:59","feeInfo":"무료","phone":"054-537-7392","updatedAt":"2025-12-22","sido":"경상북도","sigungu":"상주시","dong":"남성동"},{"name":"청구아파트옆공영주차장","type":"공영","category":"노외","address":"경상북도 상주시 신봉동 산 34","lat":36.39720498,"lng":128.1494602,"totalSpaces":15,"isFree":true,"operatingDays":"평일+토요일+공휴일","weekdayOpen":"00:00","weekdayClose":"23:59","weekendOpen":"00:00","weekendClose":"23:59","holidayOpen":"00:00","holidayClose":"23:59","feeInfo":"무료","phone":"054-537-7392","updatedAt":"2025-12-22","sido":"경상북도","sigungu":"상주시","dong":"신봉동"},{"name":"은척면유래공원주차장","type":"공영","category":"노외","address":"경상북도 상주시 은척면 우기리 344-7","lat":36.53449327,"lng":128.0721855,"totalSpaces":15,"isFree":true,"operatingDays":"평일+토요일+공휴일","weekdayOpen":"00:00","weekdayClose":"23:59","weekendOpen":"00:00","weekendClose":"23:59","holidayOpen":"00:00","holidayClose":"23:59","feeInfo":"무료","phone":"054-537-7392","updatedAt":"2025-12-22","sido":"경상북도","sigungu":"상주시","dong":"은척면"},{"name":"함창오동리공영주차장","type":"공영","category":"노외","address":"경상북도 상주시 함창읍 오동리 577-3","lat":36.56608461,"lng":128.1815433,"totalSpaces":12,"isFree":true,"operatingDays":"평일+토요일+공휴일","weekdayOpen":"00:00","weekdayClose":"23:59","weekendOpen":"00:00","weekendClose":"23:59","holidayOpen":"00:00","holidayClose":"23:59","feeInfo":"무료","phone":"054-537-7392","updatedAt":"2025-12-22","sido":"경상북도","sigungu":"상주시","dong":"함창읍"},{"name":"사벌면공영주차장","type":"공영","category":"노외","address":"경상북도 상주시 사벌국면 덕담1길 63","lat":36.46829754,"lng":128.2096039,"totalSpaces":5,"isFree":true,"operatingDays":"평일+토요일+공휴일","weekdayOpen":"00:00","weekdayClose":"23:59","weekendOpen":"00:00","weekendClose":"23:59","holidayOpen":"00:00","holidayClose":"23:59","feeInfo":"무료","phone":"054-537-7392","updatedAt":"2025-12-22","sido":"경상북도","sigungu":"상주시","dong":"사벌국면"},{"name":"중앙시장주차타워","type":"공영","category":"노외","address":"경상북도 상주시 왕산로 149","lat":36.41249583,"lng":128.1615147,"totalSpaces":222,"isFree":false,"operatingDays":"평일+토요일+공휴일","weekdayOpen":"00:00","weekdayClose":"23:59","weekendOpen":"00:00","weekendClose":"23:59","holidayOpen":"00:00","holidayClose":"23:59","feeInfo":"기본 60분 500원 / 추가 30분당 500원","phone":"054-537-7392","updatedAt":"2025-12-22","sido":"경상북도","sigungu":"상주시","dong":"남성동"},{"name":"공영유료주차장","type":"공영","category":"노외","address":"경상북도 상주시 상산로256-5","lat":36.41363033,"lng":128.159818,"totalSpaces":88,"isFree":false,"operatingDays":"평일+토요일+공휴일","weekdayOpen":"00:00","weekdayClose":"23:59","weekendOpen":"00:00","weekendClose":"23:59","holidayOpen":"00:00","holidayClose":"23:59","feeInfo":"기본 30분 500원 / 추가 30분당 500원","phone":"054-537-7392","updatedAt":"2025-12-22","sido":"경상북도","sigungu":"상주시","dong":"남성동"}]}