{"sido":"경상북도","sigungu":"예천군","totalCount":20,"validCount":20,"items":[{"name":"한천주차장","type":"공영","category":"노외","address":"경상북도 예천군 예천읍 동본리 580","lat":36.6589787625,"lng":128.4620833981,"totalSpaces":720,"isFree":true,"operatingDays":"평일+토요일+공휴일","weekdayOpen":"00:00","weekdayClose":"23:59","weekendOpen":"00:00","weekendClose":"23:59","holidayOpen":"00:00","holidayClose":"23:59","feeInfo":"무료","phone":"054-650-6919","updatedAt":"2025-12-09","sido":"경상북도","sigungu":"예천군","dong":"예천읍"},{"name":"한천길 노상주차장","type":"공영","category":"노상","address":"경상북도 예천군 예천읍 동본리 557-3","lat":36.6554442369,"lng":128.4571119453,"totalSpaces":154,"isFree":true,"operatingDays":"평일+토요일+공휴일","weekdayOpen":"00:00","weekdayClose":"23:59","weekendOpen":"00:00","weekendClose":"23:59","holidayOpen":"00:00","holidayClose":"23:59","feeInfo":"무료","phone":"054-650-6253","updatedAt":"2025-12-09","sido":"경상북도","sigungu":"예천군","dong":"예천읍"},{"name":"예천군제1공영주차장","type":"공영","category":"노외","address":"경상북도 예천군 호명읍 산합리 1411","lat":36.5756607557,"lng":128.4891408841,"totalSpaces":128,"isFree":true,"operatingDays":"평일+토요일+공휴일","weekdayOpen":"00:00","weekdayClose":"23:59","weekendOpen":"00:00","weekendClose":"23:59","holidayOpen":"00:00","holidayClose":"23:59","feeInfo":"무료","phone":"054-650-6253","updatedAt":"2025-12-09","sido":"경상북도","sigungu":"예천군","dong":"호명읍"},{"name":"패밀리파크 공영주차장","type":"공영","category":"노외","address":"경상북도 예천군 호명읍 산합리 74","lat":36.572277561,"lng":128.4880714692,"totalSpaces":95,"isFree":true,"operatingDays":"평일+토요일+공휴일","weekdayOpen":"00:00","weekdayClose":"23:59","weekendOpen":"00:00","weekendClose":"23:59","holidayOpen":"00:00","holidayClose":"23:59","feeInfo":"무료","phone":"054-650-6253","updatedAt":"2025-12-09","sido":"경상북도","sigungu":"예천군","dong":"호명읍"},{"name":"예천군제2공영주차장","type":"공영","category":"노외","address":"경상북도 예천군 호명읍 산합리 1425","lat":36.5757900992,"lng":128.4914193159,"totalSpaces":86,"isFree":true,"operatingDays":"평일+토요일+공휴일","weekdayOpen":"00:00","weekdayClose":"23:59","weekendOpen":"00:00","weekendClose":"23:59","holidayOpen":"00:00","holidayClose":"23:59","feeInfo":"무료","phone":"054-650-6253","updatedAt":"2025-12-09","sido":"경상북도","sigungu":"예천군","dong":"호명읍"},{"name":"백전천 주차장","type":"공영","category":"노외","address":"경상북도 예천군 예천읍 백전리 447-77","lat":36.6629996619,"lng":128.461213801,"totalSpaces":45,"isFree":true,"operatingDays":"평일+토요일+공휴일","weekdayOpen":"00:00","weekdayClose":"23:59","weekendOpen":"00:00","weekendClose":"23:59","holidayOpen":"00:00","holidayClose":"23:59","feeInfo":"무료","phone":"054-650-6636","updatedAt":"2025-12-09","sido":"경상북도","sigungu":"예천군","dong":"예천읍"},{"name":"용궁시장 주차장","type":"공영","category":"노상","address":"경상북도 예천군 용궁면 읍부리 329-1","lat":36.60675598,"lng":128.2754745,"totalSpaces":40,"isFree":true,"operatingDays":"평일+토요일+공휴일","weekdayOpen":"00:00","weekdayClose":"23:59","weekendOpen":"00:00","weekendClose":"23:59","holidayOpen":"00:00","holidayClose":"23:59","feeInfo":"무료","phone":"054-650-6253","updatedAt":"2025-12-09","sido":"경상북도","sigungu":"예천군","dong":"용궁면"},{"name":"맛고을길 공영주차장","type":"공영","category":"노외","address":"경상북도 예천군 예천읍 동본리 494-1","lat":36.6580621306,"lng":128.4578600151,"totalSpaces":30,"isFree":true,"operatingDays":"평일+토요일+공휴일","weekdayOpen":"00:00","weekdayClose":"23:59","weekendOpen":"00:00","weekendClose":"23:59","holidayOpen":"00:00","holidayClose":"23:59","feeInfo":"무료","phone":"054-650-6253","updatedAt":"2025-12-09","sido":"경상북도","sigungu":"예천군","dong":"예천읍"},{"name":"개심사지 노상주차장","type":"공영","category":"노상","address":"경상북도 예천군 예천읍 남본리 180-3","lat":36.6517851105,"lng":128.4557000276,"totalSpaces":29,"isFree":true,"operatingDays":"평일+토요일+공휴일","weekdayOpen":"00:00","weekdayClose":"23:59","weekendOpen":"00:00","weekendClose":"23:59","holidayOpen":"00:00","holidayClose":"23:59","feeInfo":"무료","phone":"054-650-6253","updatedAt":"2025-12-09","sido":"경상북도","sigungu":"예천군","dong":"예천읍"},{"name":"보건소앞 노상주차장(보건소~경찰서)","type":"공영","category":"노상","address":"경상북도 예천군 예천읍 서본리 1-2","lat":36.6570592321,"lng":128.4526868136,"totalSpaces":27,"isFree":true,"operatingDays":"평일+토요일+공휴일","weekdayOpen":"00:00","weekdayClose":"23:59","weekendOpen":"00:00","weekendClose":"23:59","holidayOpen":"00:00","holidayClose":"23:59","feeInfo":"무료","phone":"054-650-6253","updatedAt":"2025-12-09","sido":"경상북도","sigungu":"예천군","dong":"예천읍"},{"name":"백전리 생태하천 주차장","type":"공영","category":"노외","address":"경상북도 예천군 예천읍 백전리 94-55","lat":36.6628108569,"lng":128.4602091761,"totalSpaces":26,"isFree":true,"operatingDays":"평일+토요일+공휴일","weekdayOpen":"00:00","weekdayClose":"23:59","weekendOpen":"00:00","weekendClose":"23:59","holidayOpen":"00:00","holidayClose":"23:59","feeInfo":"무료","phone":"054-650-6154","updatedAt":"2025-12-09","sido":"경상북도","sigungu":"예천군","dong":"예천읍"},{"name":"예천읍 상설시장주차장","type":"공영","category":"노외","address":"경상북도 예천군 예천읍 동본리 553","lat":36.65600156,"lng":128.456683,"totalSpaces":26,"isFree":true,"operatingDays":"평일+토요일+공휴일","weekdayOpen":"00:00","weekdayClose":"23:59","weekendOpen":"00:00","weekendClose":"23:59","holidayOpen":"00:00","holidayClose":"23:59","feeInfo":"무료","phone":"054-650-6253","updatedAt":"2025-12-09","sido":"경상북도","sigungu":"예천군","dong":"예천읍"},{"name":"중앙시장 주차장","type":"공영","category":"노외","address":"경상북도 예천군 예천읍 노하리 67-18","lat":36.6570987424,"lng":128.4554117479,"totalSpaces":12,"isFree":true,"operatingDays":"평일+토요일+공휴일","weekdayOpen":"00:00","weekdayClose":"23:59","weekendOpen":"00:00","weekendClose":"23:59","holidayOpen":"00:00","holidayClose":"23:59","feeInfo":"무료","phone":"054-650-6253","updatedAt":"2025-12-09","sido":"경상북도","sigungu":"예천군","dong":"예천읍"},{"name":"노상주차장(백한의원~권병원)","type":"공영","category":"노상","address":"경상북도 예천군 예천읍 남본리 221-20","lat":36.6560775543,"lng":128.4548142555,"totalSpaces":114,"isFree":false,"operatingDays":"평일+토요일+공휴일","weekdayOpen":"00:00","weekdayClose":"23:59","weekendOpen":"00:00","weekendClose":"23:59","holidayOpen":"00:00","holidayClose":"23:59","feeInfo":"기본 60분 0원 / 추가 30분당 500원","phone":"054-650-6253","updatedAt":"2025-12-09","sido":"경상북도","sigungu":"예천군","dong":"예천읍"},{"name":"효자로 제2주차장","type":"공영","category":"노외","address":"경상북도 예천군 예천읍 남본리 233-2","lat":36.65564897,"lng":128.4512302,"totalSpaces":26,"isFree":false,"operatingDays":"평일+토요일+공휴일","weekdayOpen":"00:00","weekdayClose":"23:59","weekendOpen":"00:00","weekendClose":"23:59","holidayOpen":"00:00","holidayClose":"23:59","feeInfo":"기본 60분 0원 / 추가 30분당 500원","phone":"054-650-6253","updatedAt":"2025-12-09","sido":"경상북도","sigungu":"예천군","dong":"예천읍"},{"name":"중앙로 주차장","type":"공영","category":"노외","address":"경상북도 예천군 예천읍 노하리 61","lat":36.65801874,"lng":128.4550105,"totalSpaces":26,"isFree":false,"operatingDays":"평일+토요일+공휴일","weekdayOpen":"00:00","weekdayClose":"23:59","weekendOpen":"00:00","weekendClose":"23:59","holidayOpen":"00:00","holidayClose":"23:59","feeInfo":"기본 60분 0원 / 추가 30분당 500원","phone":"054-650-6253","updatedAt":"2025-12-09","sido":"경상북도","sigungu":"예천군","dong":"예천읍"},{"name":"맛고을 제1주차장","type":"공영","category":"노외","address":"경상북도 예천군 예천읍 남본리 223-10","lat":36.6561362704,"lng":128.4538338327,"totalSpaces":22,"isFree":false,"operatingDays":"평일+토요일+공휴일","weekdayOpen":"00:00","weekdayClose":"23:59","weekendOpen":"00:00","weekendClose":"23:59","holidayOpen":"00:00","holidayClose":"23:59","feeInfo":"기본 60분 0원 / 추가 30분당 500원","phone":"054-650-6253","updatedAt":"2025-12-09","sido":"경상북도","sigungu":"예천군","dong":"예천읍"},{"name":"맛고을 제2주차장","type":"공영","category":"노외","address":"경상북도 예천군 예천읍 남본리 222-52","lat":36.6555909106,"lng":128.452634737,"totalSpaces":21,"isFree":false,"operatingDays":"평일+토요일+공휴일","weekdayOpen":"00:00","weekdayClose":"23:59","weekendOpen":"00:00","weekendClose":"23:59","holidayOpen":"00:00","holidayClose":"23:59","feeInfo":"기본 60분 0원 / 추가 30분당 500원","phone":"054-650-6253","updatedAt":"2025-12-09","sido":"경상북도","sigungu":"예천군","dong":"예천읍"},{"name":"효자로 제1주차장","type":"공영","category":"노외","address":"경상북도 예천군 예천읍 노하리 73-2","lat":36.65714765,"lng":128.4546596,"totalSpaces":21,"isFree":false,"operatingDays":"평일+토요일+공휴일","weekdayOpen":"00:00","weekdayClose":"23:59","weekendOpen":"00:00","weekendClose":"23:59","holidayOpen":"00:00","holidayClose":"23:59","feeInfo":"기본 60분 0원 / 추가 30분당 500원","phone":"054-650-6253","updatedAt":"2025-12-09","sido":"경상북도","sigungu":"예천군","dong":"예천읍"},{"name":"맛고을 제3주차장","type":"공영","category":"노외","address":"경상북도 예천군 예천읍 남본리 222-85","lat":36.6553161835,"lng":128.4516376361,"totalSpaces":19,"isFree":false,"operatingDays":"평일+토요일+공휴일","weekdayOpen":"00:00","weekdayClose":"23:59","weekendOpen":"00:00","weekendClose":"23:59","holidayOpen":"00:00","holidayClose":"23:59","feeInfo":"기본 60분 0원 / 추가 30분당 500원","phone":"054-650-6253","updatedAt":"2025-12-09","sido":"경상북도","sigungu":"예천군","dong":"예천읍"}]}