{"sido":"경상북도","sigungu":"울진군","totalCount":62,"validCount":61,"items":[{"name":"덕구온천 민영주차장","type":"민영","category":"노외","address":"경상북도 울진군 북면 덕구온천로924","lat":37.079048,"lng":129.284252,"totalSpaces":2200,"isFree":true,"operatingDays":"평일+토요일+공휴일","weekdayOpen":"00:00","weekdayClose":"23:59","weekendOpen":"00:00","weekendClose":"23:59","holidayOpen":"00:00","holidayClose":"23:59","feeInfo":"무료","phone":"054-789-6392","updatedAt":"2025-08-11","sido":"경상북도","sigungu":"울진군","dong":""},{"name":"성류굴종합운동장 공영주차장","type":"공영","category":"노외","address":"경상북도 울진군 근남면 구산수곡길717","lat":36.958278,"lng":129.374835,"totalSpaces":563,"isFree":true,"operatingDays":"평일+토요일+공휴일","weekdayOpen":"00:00","weekdayClose":"23:59","weekendOpen":"00:00","weekendClose":"23:59","holidayOpen":"00:00","holidayClose":"23:59","feeInfo":"무료","phone":"054-789-6392","updatedAt":"2025-08-11","sido":"경상북도","sigungu":"울진군","dong":""},{"name":"남대천변 공영주차장","type":"공영","category":"노외","address":"경상북도 울진군 울진읍 향교로 24","lat":36.99290147,"lng":129.3991278,"totalSpaces":454,"isFree":true,"operatingDays":"평일+토요일+공휴일","weekdayOpen":"00:00","weekdayClose":"23:59","weekendOpen":"00:00","weekendClose":"23:59","holidayOpen":"00:00","holidayClose":"23:59","feeInfo":"무료","phone":"054-789-6392","updatedAt":"2025-08-11","sido":"경상북도","sigungu":"울진군","dong":"울진읍"},{"name":"울진원자력전시관 민영주차장","type":"민영","category":"노외","address":"경상북도 울진군 북면 울진북로2040","lat":37.09728438,"lng":129.3715577,"totalSpaces":300,"isFree":true,"operatingDays":"평일+토요일+공휴일","weekdayOpen":"00:00","weekdayClose":"23:59","weekendOpen":"00:00","weekendClose":"23:59","holidayOpen":"00:00","holidayClose":"23:59","feeInfo":"무료","phone":"054-789-6392","updatedAt":"2025-08-11","sido":"경상북도","sigungu":"울진군","dong":""},{"name":"후포해안도로 공영주차장","type":"공영","category":"노상","address":"경상북도 울진군 후포면 울진대게로 28","lat":36.676891,"lng":129.443688,"totalSpaces":278,"isFree":true,"operatingDays":"평일+토요일+공휴일","weekdayOpen":"00:00","weekdayClose":"23:59","weekendOpen":"00:00","weekendClose":"23:59","holidayOpen":"00:00","holidayClose":"23:59","feeInfo":"무료","phone":"054-789-6392","updatedAt":"2025-08-11","sido":"경상북도","sigungu":"울진군","dong":""},{"name":"후포한마음광장 공영주차장","type":"공영","category":"노외","address":"경상북도 울진군 후포면 울진대게로 63","lat":36.6783712,"lng":129.4469613,"totalSpaces":198,"isFree":true,"operatingDays":"평일+토요일+공휴일","weekdayOpen":"00:00","weekdayClose":"23:59","weekendOpen":"00:00","weekendClose":"23:59","holidayOpen":"00:00","holidayClose":"23:59","feeInfo":"무료","phone":"054-789-6392","updatedAt":"2025-08-11","sido":"경상북도","sigungu":"울진군","dong":""},{"name":"죽변파출소앞(죽변4리) 공영주차장","type":"공영","category":"노상","address":"경상북도 울진군 죽변면 죽변중앙로 159","lat":37.059607,"lng":129.421699,"totalSpaces":169,"isFree":true,"operatingDays":"평일+토요일+공휴일","weekdayOpen":"00:00","weekdayClose":"23:59","weekendOpen":"00:00","weekendClose":"23:59","holidayOpen":"00:00","holidayClose":"23:59","feeInfo":"무료","phone":"054-789-6392","updatedAt":"2025-08-11","sido":"경상북도","sigungu":"울진군","dong":""},{"name":"구산해수욕장 공영주차장","type":"공영","category":"노외","address":"경상북도 울진군 기성면 기성로 108","lat":36.75328435,"lng":129.4672159,"totalSpaces":152,"isFree":true,"operatingDays":"평일+토요일+공휴일","weekdayOpen":"00:00","weekdayClose":"23:59","weekendOpen":"00:00","weekendClose":"23:59","holidayOpen":"00:00","holidayClose":"23:59","feeInfo":"무료","phone":"054-789-6392","updatedAt":"2025-08-11","sido":"경상북도","sigungu":"울진군","dong":""},{"name":"울진시장 공영주차장","type":"공영","category":"노외","address":"경상북도 울진군 울진읍 읍내1길18","lat":36.99191817,"lng":129.4022802,"totalSpaces":151,"isFree":true,"operatingDays":"평일+토요일+공휴일","weekdayOpen":"00:00","weekdayClose":"23:59","weekendOpen":"00:00","weekendClose":"23:59","holidayOpen":"00:00","holidayClose":"23:59","feeInfo":"무료","phone":"054-789-6392","updatedAt":"2025-08-11","sido":"경상북도","sigungu":"울진군","dong":""},{"name":"성류굴 민영주차장","type":"민영","category":"노외","address":"경상북도 울진군 근남면 성류굴로 225","lat":36.95566454,"lng":129.3804882,"totalSpaces":147,"isFree":true,"operatingDays":"평일+토요일+공휴일","weekdayOpen":"00:00","weekdayClose":"23:59","weekendOpen":"00:00","weekendClose":"23:59","holidayOpen":"00:00","holidayClose":"23:59","feeInfo":"무료","phone":"054-789-6392","updatedAt":"2025-08-11","sido":"경상북도","sigungu":"울진군","dong":""},{"name":"성류굴 공영주차장","type":"공영","category":"노외","address":"경상북도 울진군 근남면 성류굴로 225","lat":36.95566454,"lng":129.3804882,"totalSpaces":138,"isFree":true,"operatingDays":"평일+토요일+공휴일","weekdayOpen":"00:00","weekdayClose":"23:59","weekendOpen":"00:00","weekendClose":"23:59","holidayOpen":"00:00","holidayClose":"23:59","feeInfo":"무료","phone":"054-789-6392","updatedAt":"2025-08-11","sido":"경상북도","sigungu":"울진군","dong":""},{"name":"망양해수욕장 공영주차장","type":"공영","category":"노외","address":"경상북도 울진군 기성면 망양1길 7","lat":36.842865,"lng":129.4337481,"totalSpaces":134,"isFree":true,"operatingDays":"평일+토요일+공휴일","weekdayOpen":"00:00","weekdayClose":"23:59","weekendOpen":"00:00","weekendClose":"23:59","holidayOpen":"00:00","holidayClose":"23:59","feeInfo":"무료","phone":"054-789-6392","updatedAt":"2025-08-11","sido":"경상북도","sigungu":"울진군","dong":""},{"name":"후포여객선터미널 공영주차장","type":"공영","category":"노외","address":"경상북도 울진군 후포면 울진대게로 236-3","lat":36.678764,"lng":129.462945,"totalSpaces":124,"isFree":true,"operatingDays":"평일+토요일+공휴일","weekdayOpen":"00:00","weekdayClose":"23:59","weekendOpen":"00:00","weekendClose":"23:59","holidayOpen":"00:00","holidayClose":"23:59","feeInfo":"무료","phone":"054-789-6392","updatedAt":"2025-08-11","sido":"경상북도","sigungu":"울진군","dong":""},{"name":"연호공원 공영주차장","type":"공영","category":"노외","address":"경상북도 울진군 울진읍 연호로47","lat":36.994654,"lng":129.406559,"totalSpaces":119,"isFree":true,"operatingDays":"평일+토요일+공휴일","weekdayOpen":"00:00","weekdayClose":"23:59","weekendOpen":"00:00","weekendClose":"23:59","holidayOpen":"00:00","holidayClose":"23:59","feeInfo":"무료","phone":"054-789-6392","updatedAt":"2025-08-11","sido":"경상북도","sigungu":"울진군","dong":""},{"name":"망양해수욕장 공영주차장","type":"공영","category":"노외","address":"경상북도 울진군 기성면 망양리 140-1","lat":36.84338152,"lng":129.4330485,"totalSpaces":118,"isFree":true,"operatingDays":"평일+토요일+공휴일","weekdayOpen":"00:00","weekdayClose":"23:59","weekendOpen":"00:00","weekendClose":"23:59","holidayOpen":"00:00","holidayClose":"23:59","feeInfo":"무료","phone":"054-789-6392","updatedAt":"2025-08-11","sido":"경상북도","sigungu":"울진군","dong":"기성면"},{"name":"봉평신라비 홍보관 공영주차장","type":"공영","category":"노외","address":"경상북도 울진군 죽변면 봉화길 15","lat":37.043701,"lng":129.409344,"totalSpaces":104,"isFree":true,"operatingDays":"평일+토요일+공휴일","weekdayOpen":"00:00","weekdayClose":"23:59","weekendOpen":"00:00","weekendClose":"23:59","holidayOpen":"00:00","holidayClose":"23:59","feeInfo":"무료","phone":"054-789-6392","updatedAt":"2025-08-11","sido":"경상북도","sigungu":"울진군","dong":""},{"name":"울진등기소 앞 공영주차장","type":"공영","category":"노외","address":"경상북도 울진군 울진읍 월변2길 33","lat":36.989255,"lng":129.396614,"totalSpaces":100,"isFree":true,"operatingDays":"평일+토요일+공휴일","weekdayOpen":"00:00","weekdayClose":"23:59","weekendOpen":"00:00","weekendClose":"23:59","holidayOpen":"00:00","holidayClose":"23:59","feeInfo":"무료","phone":"054-789-6392","updatedAt":"2025-08-11","sido":"경상북도","sigungu":"울진군","dong":"울진읍"},{"name":"후정해수욕장 공영주차장","type":"공영","category":"노외","address":"경상북도 울진군 죽변면 울진북로1138","lat":37.040459,"lng":129.413916,"totalSpaces":97,"isFree":true,"operatingDays":"평일+토요일+공휴일","weekdayOpen":"00:00","weekdayClose":"23:59","weekendOpen":"00:00","weekendClose":"23:59","holidayOpen":"00:00","holidayClose":"23:59","feeInfo":"무료","phone":"054-789-6392","updatedAt":"2025-08-11","sido":"경상북도","sigungu":"울진군","dong":""},{"name":"온정면사무소 광장 공영주차장","type":"공영","category":"노외","address":"경상북도 울진군 온정면 소태로 23","lat":36.72411072,"lng":129.345393,"totalSpaces":94,"isFree":true,"operatingDays":"평일+토요일+공휴일","weekdayOpen":"00:00","weekdayClose":"23:59","weekendOpen":"00:00","weekendClose":"23:59","holidayOpen":"00:00","holidayClose":"23:59","feeInfo":"무료","phone":"054-789-6392","updatedAt":"2025-08-11","sido":"경상북도","sigungu":"울진군","dong":""},{"name":"민물고기연구센터 공영주차장","type":"공영","category":"노외","address":"경상북도 울진군 근남면 불영계곡로 3532","lat":36.966554,"lng":129.380989,"totalSpaces":80,"isFree":true,"operatingDays":"평일+토요일+공휴일","weekdayOpen":"00:00","weekdayClose":"23:59","weekendOpen":"00:00","weekendClose":"23:59","holidayOpen":"00:00","holidayClose":"23:59","feeInfo":"무료","phone":"054-789-6392","updatedAt":"2025-08-11","sido":"경상북도","sigungu":"울진군","dong":""},{"name":"후포생활체육공원 공영주차장","type":"공영","category":"노외","address":"경상북도 울진군 후포면 후포삼칠길 233","lat":36.689444,"lng":129.4574087,"totalSpaces":79,"isFree":true,"operatingDays":"평일+토요일+공휴일","weekdayOpen":"00:00","weekdayClose":"23:59","weekendOpen":"00:00","weekendClose":"23:59","holidayOpen":"00:00","holidayClose":"23:59","feeInfo":"무료","phone":"054-789-6392","updatedAt":"2025-08-11","sido":"경상북도","sigungu":"울진군","dong":""},{"name":"남사고유적지 공영주차장","type":"공영","category":"노외","address":"경상북도 울진군 근남면 누금길14-13","lat":36.956548,"lng":129.359484,"totalSpaces":75,"isFree":true,"operatingDays":"평일+토요일+공휴일","weekdayOpen":"00:00","weekdayClose":"23:59","weekendOpen":"00:00","weekendClose":"23:59","holidayOpen":"00:00","holidayClose":"23:59","feeInfo":"무료","phone":"054-789-6392","updatedAt":"2025-08-11","sido":"경상북도","sigungu":"울진군","dong":""},{"name":"근남농협 왕피천변 공영주차장","type":"공영","category":"노외","address":"경상북도 울진군 근남면 망양정로1177","lat":36.963937,"lng":129.3983354,"totalSpaces":70,"isFree":true,"operatingDays":"평일+토요일+공휴일","weekdayOpen":"00:00","weekdayClose":"23:59","weekendOpen":"00:00","weekendClose":"23:59","holidayOpen":"00:00","holidayClose":"23:59","feeInfo":"무료","phone":"054-789-6392","updatedAt":"2025-08-11","sido":"경상북도","sigungu":"울진군","dong":""},{"name":"백암온천 광장  공영주차장","type":"공영","category":"노외","address":"경상북도 울진군 온정면 온천로 46","lat":36.720385,"lng":129.339259,"totalSpaces":58,"isFree":true,"operatingDays":"평일+토요일+공휴일","weekdayOpen":"00:00","weekdayClose":"23:59","weekendOpen":"00:00","weekendClose":"23:59","holidayOpen":"00:00","holidayClose":"23:59","feeInfo":"무료","phone":"054-789-6392","updatedAt":"2025-08-11","sido":"경상북도","sigungu":"울진군","dong":""},{"name":"죽변4리","type":"공영","category":"노외","address":"경상북도 울진군 죽변면 죽변리20-30","lat":37.057638,"lng":129.425665,"totalSpaces":56,"isFree":true,"operatingDays":"평일+토요일+공휴일","weekdayOpen":"00:00","weekdayClose":"23:59","weekendOpen":"00:00","weekendClose":"23:59","holidayOpen":"00:00","holidayClose":"23:59","feeInfo":"무료","phone":"054-789-6392","updatedAt":"2025-08-11","sido":"경상북도","sigungu":"울진군","dong":"죽변면"},{"name":"평해시장옆 공영주차장","type":"공영","category":"노상","address":"경상북도 울진군 평해읍 평해로 61","lat":36.726032,"lng":129.4412285,"totalSpaces":52,"isFree":true,"operatingDays":"평일+토요일+공휴일","weekdayOpen":"00:00","weekdayClose":"23:59","weekendOpen":"00:00","weekendClose":"23:59","holidayOpen":"00:00","holidayClose":"23:59","feeInfo":"무료","phone":"054-789-6392","updatedAt":"2025-08-11","sido":"경상북도","sigungu":"울진군","dong":""},{"name":"죽변1리(죽변농협뒤)공영주차장","type":"공영","category":"노외","address":"경상북도 울진군 죽변면 죽변북로16","lat":37.060707,"lng":129.421316,"totalSpaces":50,"isFree":true,"operatingDays":"평일+토요일+공휴일","weekdayOpen":"00:00","weekdayClose":"23:59","weekendOpen":"00:00","weekendClose":"23:59","holidayOpen":"00:00","holidayClose":"23:59","feeInfo":"무료","phone":"054-789-6392","updatedAt":"2025-08-11","sido":"경상북도","sigungu":"울진군","dong":"죽변면"},{"name":"신성슈퍼앞(성심한의원) 공영주차장","type":"공영","category":"노상","address":"경상북도 울진군 울진읍 강변로99","lat":36.990344,"lng":129.399236,"totalSpaces":50,"isFree":true,"operatingDays":"평일+토요일+공휴일","weekdayOpen":"00:00","weekdayClose":"23:59","weekendOpen":"00:00","weekendClose":"23:59","holidayOpen":"00:00","holidayClose":"23:59","feeInfo":"무료","phone":"054-789-6392","updatedAt":"2025-08-11","sido":"경상북도","sigungu":"울진군","dong":""},{"name":"봉평해수욕장 공영주차장","type":"공영","category":"노외","address":"경상북도 울진군 죽변면 울진북로1166","lat":37.042917,"lng":129.413005,"totalSpaces":47,"isFree":true,"operatingDays":"평일+토요일+공휴일","weekdayOpen":"00:00","weekdayClose":"23:59","weekendOpen":"00:00","weekendClose":"23:59","holidayOpen":"00:00","holidayClose":"23:59","feeInfo":"무료","phone":"054-789-6392","updatedAt":"2025-08-11","sido":"경상북도","sigungu":"울진군","dong":""},{"name":"나곡해수욕장 공영주차장","type":"공영","category":"노외","address":"경상북도 울진군 북면 나실길24","lat":37.12588129,"lng":129.3708452,"totalSpaces":46,"isFree":true,"operatingDays":"평일+토요일+공휴일","weekdayOpen":"00:00","weekdayClose":"23:59","weekendOpen":"00:00","weekendClose":"23:59","holidayOpen":"00:00","holidayClose":"23:59","feeInfo":"무료","phone":"054-789-6392","updatedAt":"2025-08-11","sido":"경상북도","sigungu":"울진군","dong":""},{"name":"구문화원 공영주차장","type":"공영","category":"노외","address":"경상북도 울진군 울진읍 울진중앙로115-21","lat":36.992248,"lng":129.4000949,"totalSpaces":43,"isFree":true,"operatingDays":"평일+토요일+공휴일","weekdayOpen":"00:00","weekdayClose":"23:59","weekendOpen":"00:00","weekendClose":"23:59","holidayOpen":"00:00","holidayClose":"23:59","feeInfo":"무료","phone":"054-789-6392","updatedAt":"2025-08-11","sido":"경상북도","sigungu":"울진군","dong":""},{"name":"흥부시장 공영주차장","type":"공영","category":"노외","address":"경상북도 울진군 북면 부구3길12","lat":37.104865,"lng":129.3730882,"totalSpaces":42,"isFree":true,"operatingDays":"평일+토요일+공휴일","weekdayOpen":"00:00","weekdayClose":"23:59","weekendOpen":"00:00","weekendClose":"23:59","holidayOpen":"00:00","holidayClose":"23:59","feeInfo":"무료","phone":"054-789-6392","updatedAt":"2025-08-11","sido":"경상북도","sigungu":"울진군","dong":""},{"name":"엑스포공원 공영주차장","type":"공영","category":"노외","address":"경상북도 울진군 근남면 수산리 346","lat":36.96870242,"lng":129.401084,"totalSpaces":42,"isFree":true,"operatingDays":"평일+토요일+공휴일","weekdayOpen":"00:00","weekdayClose":"23:59","weekendOpen":"00:00","weekendClose":"23:59","holidayOpen":"00:00","holidayClose":"23:59","feeInfo":"무료","phone":"054-789-6392","updatedAt":"2025-08-11","sido":"경상북도","sigungu":"울진군","dong":"근남면"},{"name":"2호관사앞  공영주차장","type":"공영","category":"노외","address":"경상북도 울진군 울진읍 읍내10길19","lat":36.9971891,"lng":129.403005,"totalSpaces":40,"isFree":true,"operatingDays":"평일+토요일+공휴일","weekdayOpen":"00:00","weekdayClose":"23:59","weekendOpen":"00:00","weekendClose":"23:59","holidayOpen":"00:00","holidayClose":"23:59","feeInfo":"무료","phone":"054-789-6392","updatedAt":"2025-08-11","sido":"경상북도","sigungu":"울진군","dong":""},{"name":"부구리 공용주차장","type":"공영","category":"노외","address":"경상북도 울진군 평해읍 평해리 928-13","lat":36.72809227,"lng":129.4407696,"totalSpaces":38,"isFree":true,"operatingDays":"평일+토요일+공휴일","weekdayOpen":"00:00","weekdayClose":"23:59","weekendOpen":"00:00","weekendClose":"23:59","holidayOpen":"00:00","holidayClose":"23:59","feeInfo":"무료","phone":"054-789-6392","updatedAt":"2025-08-11","sido":"경상북도","sigungu":"울진군","dong":"평해읍"},{"name":"죽변전통시장 공영주차장","type":"공영","category":"노외","address":"경상북도 울진군 죽변면 죽변중앙로 159","lat":37.059607,"lng":129.421699,"totalSpaces":38,"isFree":true,"operatingDays":"평일+토요일+공휴일","weekdayOpen":"00:00","weekdayClose":"23:59","weekendOpen":"00:00","weekendClose":"23:59","holidayOpen":"00:00","holidayClose":"23:59","feeInfo":"무료","phone":"054-789-6392","updatedAt":"2025-08-11","sido":"경상북도","sigungu":"울진군","dong":""},{"name":"기성터미널옆 공영주차장","type":"공영","category":"노외","address":"경상북도 울진군 기성면 척산3길 11","lat":36.798431,"lng":129.452645,"totalSpaces":36,"isFree":true,"operatingDays":"평일+토요일+공휴일","weekdayOpen":"00:00","weekdayClose":"23:59","weekendOpen":"00:00","weekendClose":"23:59","holidayOpen":"00:00","holidayClose":"23:59","feeInfo":"무료","phone":"054-789-6392","updatedAt":"2025-08-11","sido":"경상북도","sigungu":"울진군","dong":""},{"name":"후포1리 공영주차장","type":"공영","category":"노외","address":"경상북도 울진군 후포면 울진대게로132-12","lat":36.681306,"lng":129.4547002,"totalSpaces":36,"isFree":true,"operatingDays":"평일+토요일+공휴일","weekdayOpen":"00:00","weekdayClose":"23:59","weekendOpen":"00:00","weekendClose":"23:59","holidayOpen":"00:00","holidayClose":"23:59","feeInfo":"무료","phone":"054-789-6392","updatedAt":"2025-08-11","sido":"경상북도","sigungu":"울진군","dong":""},{"name":"백암상가앞 공영주차장","type":"공영","category":"노상","address":"경상북도 울진군 온정면 백암온천로 1266-1","lat":36.722437,"lng":129.342473,"totalSpaces":36,"isFree":true,"operatingDays":"평일+토요일+공휴일","weekdayOpen":"00:00","weekdayClose":"23:59","weekendOpen":"00:00","weekendClose":"23:59","holidayOpen":"00:00","holidayClose":"23:59","feeInfo":"무료","phone":"054-789-6392","updatedAt":"2025-08-11","sido":"경상북도","sigungu":"울진군","dong":""},{"name":"금음4리 해안 공영주차장","type":"공영","category":"노외","address":"경상북도 울진군 후포면 옥동길 36","lat":36.64482869,"lng":129.423042,"totalSpaces":35,"isFree":true,"operatingDays":"평일+토요일+공휴일","weekdayOpen":"00:00","weekdayClose":"23:59","weekendOpen":"00:00","weekendClose":"23:59","holidayOpen":"00:00","holidayClose":"23:59","feeInfo":"무료","phone":"054-789-6392","updatedAt":"2025-08-11","sido":"경상북도","sigungu":"울진군","dong":""},{"name":"평해시장 공영주차장","type":"공영","category":"노외","address":"경상북도 울진군 평해읍 평해로 64-18","lat":36.726347,"lng":129.442421,"totalSpaces":34,"isFree":true,"operatingDays":"평일+토요일+공휴일","weekdayOpen":"00:00","weekdayClose":"23:59","weekendOpen":"00:00","weekendClose":"23:59","holidayOpen":"00:00","holidayClose":"23:59","feeInfo":"무료","phone":"054-789-6392","updatedAt":"2025-08-11","sido":"경상북도","sigungu":"울진군","dong":""},{"name":"평해읍 광장 공영주차장","type":"공영","category":"노상","address":"경상북도 울진군 평해읍 평해로 82","lat":36.728099,"lng":129.441514,"totalSpaces":32,"isFree":true,"operatingDays":"평일+토요일+공휴일","weekdayOpen":"00:00","weekdayClose":"23:59","weekendOpen":"00:00","weekendClose":"23:59","holidayOpen":"00:00","holidayClose":"23:59","feeInfo":"무료","phone":"054-789-6392","updatedAt":"2025-08-11","sido":"경상북도","sigungu":"울진군","dong":""},{"name":"후포6리 공영주차장","type":"공영","category":"노외","address":"경상북도 울진군 후포면 울진대게로324","lat":36.685541,"lng":129.464409,"totalSpaces":30,"isFree":true,"operatingDays":"평일+토요일+공휴일","weekdayOpen":"00:00","weekdayClose":"23:59","weekendOpen":"00:00","weekendClose":"23:59","holidayOpen":"00:00","holidayClose":"23:59","feeInfo":"무료","phone":"054-789-6392","updatedAt":"2025-08-11","sido":"경상북도","sigungu":"울진군","dong":""},{"name":"후포7리 동회관 공영주차장","type":"공영","category":"노외","address":"경상북도 울진군 후포면 후포7길 63","lat":36.68623122,"lng":129.460368,"totalSpaces":30,"isFree":true,"operatingDays":"평일+토요일+공휴일","weekdayOpen":"00:00","weekdayClose":"23:59","weekendOpen":"00:00","weekendClose":"23:59","holidayOpen":"00:00","holidayClose":"23:59","feeInfo":"무료","phone":"054-789-6392","updatedAt":"2025-08-11","sido":"경상북도","sigungu":"울진군","dong":""},{"name":"구산4리(안잘미)마을주차장","type":"공영","category":"노외","address":"경상북도 울진군 근남면 구산리 836","lat":36.943468,"lng":129.367039,"totalSpaces":30,"isFree":true,"operatingDays":"평일+토요일+공휴일","weekdayOpen":"00:00","weekdayClose":"23:59","weekendOpen":"00:00","weekendClose":"23:59","holidayOpen":"00:00","holidayClose":"23:59","feeInfo":"무료","phone":"054-789-6392","updatedAt":"2025-08-11","sido":"경상북도","sigungu":"울진군","dong":"근남면"},{"name":"울진향교앞 공영주차장","type":"공영","category":"노상","address":"경상북도 울진군 울진읍 향교로34-13","lat":36.99455149,"lng":129.398506,"totalSpaces":30,"isFree":true,"operatingDays":"평일+토요일+공휴일","weekdayOpen":"00:00","weekdayClose":"23:59","weekendOpen":"00:00","weekendClose":"23:59","holidayOpen":"00:00","holidayClose":"23:59","feeInfo":"무료","phone":"054-789-6392","updatedAt":"2025-08-11","sido":"경상북도","sigungu":"울진군","dong":""},{"name":"죽변한전사택입구 공영주차장","type":"공영","category":"노상","address":"경상북도 울진군 죽변면 죽변북로 58","lat":37.064148,"lng":129.419173,"totalSpaces":27,"isFree":true,"operatingDays":"평일+토요일+공휴일","weekdayOpen":"00:00","weekdayClose":"23:59","weekendOpen":"00:00","weekendClose":"23:59","holidayOpen":"00:00","holidayClose":"23:59","feeInfo":"무료","phone":"054-789-6392","updatedAt":"2025-08-11","sido":"경상북도","sigungu":"울진군","dong":""},{"name":"북면사무소(광장) 공영주차장","type":"공영","category":"노외","address":"경상북도 울진군 북면 부구3길12","lat":37.104865,"lng":129.3730882,"totalSpaces":25,"isFree":true,"operatingDays":"평일+토요일+공휴일","weekdayOpen":"00:00","weekdayClose":"23:59","weekendOpen":"00:00","weekendClose":"23:59","holidayOpen":"00:00","holidayClose":"23:59","feeInfo":"무료","phone":"054-789-6392","updatedAt":"2025-08-11","sido":"경상북도","sigungu":"울진군","dong":""},{"name":"죽변2리  공영주차장","type":"공영","category":"노외","address":"경상북도 울진군 죽변면 죽변중앙로 159","lat":37.059607,"lng":129.421699,"totalSpaces":24,"isFree":true,"operatingDays":"평일+토요일+공휴일","weekdayOpen":"00:00","weekdayClose":"23:59","weekendOpen":"00:00","weekendClose":"23:59","holidayOpen":"00:00","holidayClose":"23:59","feeInfo":"무료","phone":"054-789-6392","updatedAt":"2025-08-11","sido":"경상북도","sigungu":"울진군","dong":""},{"name":"월송정 민영주차장","type":"민영","category":"노외","address":"경상북도 울진군 평해읍 월송정로 517","lat":36.743829,"lng":129.468713,"totalSpaces":20,"isFree":true,"operatingDays":"평일+토요일+공휴일","weekdayOpen":"00:00","weekdayClose":"23:59","weekendOpen":"00:00","weekendClose":"23:59","holidayOpen":"00:00","holidayClose":"23:59","feeInfo":"무료","phone":"054-789-6392","updatedAt":"2025-08-11","sido":"경상북도","sigungu":"울진군","dong":""},{"name":"부구천변  공영주차장","type":"공영","category":"노외","address":"경상북도 울진군 북면 부구3길12","lat":37.104865,"lng":129.3730882,"totalSpaces":20,"isFree":true,"operatingDays":"평일+토요일+공휴일","weekdayOpen":"00:00","weekdayClose":"23:59","weekendOpen":"00:00","weekendClose":"23:59","holidayOpen":"00:00","holidayClose":"23:59","feeInfo":"무료","phone":"054-789-6392","updatedAt":"2025-08-11","sido":"경상북도","sigungu":"울진군","dong":""},{"name":"평해읍사무소 옆 공영주차장","type":"공영","category":"노외","address":"경상북도 울진군 북면 부구리 526-2","lat":37.10116997,"lng":129.3663646,"totalSpaces":17,"isFree":true,"operatingDays":"평일+토요일+공휴일","weekdayOpen":"00:00","weekdayClose":"23:59","weekendOpen":"00:00","weekendClose":"23:59","holidayOpen":"00:00","holidayClose":"23:59","feeInfo":"무료","phone":"054-789-6392","updatedAt":"2025-08-11","sido":"경상북도","sigungu":"울진군","dong":"북면"},{"name":"평해버스정류장앞 공영주차장","type":"공영","category":"노상","address":"경상북도 울진군 평해읍 평해리 813-1","lat":36.72549014,"lng":129.4417607,"totalSpaces":15,"isFree":true,"operatingDays":"평일+토요일+공휴일","weekdayOpen":"00:00","weekdayClose":"23:59","weekendOpen":"00:00","weekendClose":"23:59","holidayOpen":"00:00","holidayClose":"23:59","feeInfo":"무료","phone":"054-789-6392","updatedAt":"2025-08-11","sido":"경상북도","sigungu":"울진군","dong":"평해읍"},{"name":"임광아파트 공영주차장","type":"공영","category":"노외","address":"경상북도 울진군 후포면 상밤터1길 40","lat":36.684397,"lng":129.4407395,"totalSpaces":12,"isFree":true,"operatingDays":"평일+토요일+공휴일","weekdayOpen":"00:00","weekdayClose":"23:59","weekendOpen":"00:00","weekendClose":"23:59","holidayOpen":"00:00","holidayClose":"23:59","feeInfo":"무료","phone":"054-789-6392","updatedAt":"2025-08-11","sido":"경상북도","sigungu":"울진군","dong":"후포면"},{"name":"후포면사무소앞  공영주차장","type":"공영","category":"노상","address":"경상북도 울진군 후포면 삼율로 7-20","lat":36.678614,"lng":129.4390912,"totalSpaces":11,"isFree":true,"operatingDays":"평일+토요일+공휴일","weekdayOpen":"00:00","weekdayClose":"23:59","weekendOpen":"00:00","weekendClose":"23:59","holidayOpen":"00:00","holidayClose":"23:59","feeInfo":"무료","phone":"054-789-6392","updatedAt":"2025-08-11","sido":"경상북도","sigungu":"울진군","dong":""},{"name":"근남농협앞 공영주차장","type":"공영","category":"노외","address":"경상북도 울진군 근남면 망양정로1177","lat":36.963937,"lng":129.3983354,"totalSpaces":11,"isFree":true,"operatingDays":"평일+토요일+공휴일","weekdayOpen":"00:00","weekdayClose":"23:59","weekendOpen":"00:00","weekendClose":"23:59","holidayOpen":"00:00","holidayClose":"23:59","feeInfo":"무료","phone":"054-789-6392","updatedAt":"2025-08-11","sido":"경상북도","sigungu":"울진군","dong":""},{"name":"죽변면(드라마세트장) 공용주차장","type":"공영","category":"노외","address":"경상북도 울진군 죽변면 죽변리 1","lat":37.05822136,"lng":129.4278915,"totalSpaces":10,"isFree":true,"operatingDays":"평일+토요일+공휴일","weekdayOpen":"00:00","weekdayClose":"23:59","weekendOpen":"00:00","weekendClose":"23:59","holidayOpen":"00:00","holidayClose":"23:59","feeInfo":"무료","phone":"054-789-6392","updatedAt":"2025-08-11","sido":"경상북도","sigungu":"울진군","dong":"죽변면"},{"name":"후포5리 마을회관 앞 주차장","type":"공영","category":"노외","address":"경상북도 울진군 후포면 후포리 1031-1","lat":36.67927882,"lng":129.4476155,"totalSpaces":10,"isFree":true,"operatingDays":"평일+토요일+공휴일","weekdayOpen":"00:00","weekdayClose":"23:59","weekendOpen":"00:00","weekendClose":"23:59","holidayOpen":"00:00","holidayClose":"23:59","feeInfo":"무료","phone":"054-789-6392","updatedAt":"2025-08-11","sido":"경상북도","sigungu":"울진군","dong":"후포면"},{"name":"후포2리 공용주차장","type":"공영","category":"노외","address":"경상북도 울진군 후포면 후포리 601","lat":36.682712,"lng":129.456077,"totalSpaces":8,"isFree":true,"operatingDays":"평일+토요일+공휴일","weekdayOpen":"00:00","weekdayClose":"23:59","weekendOpen":"00:00","weekendClose":"23:59","holidayOpen":"00:00","holidayClose":"23:59","feeInfo":"무료","phone":"054-789-6392","updatedAt":"2025-08-11","sido":"경상북도","sigungu":"울진군","dong":"후포면"},{"name":"기성복지회관옆  공영주차장","type":"공영","category":"노외","address":"경상북도 울진군 기성면 척산3길 11","lat":36.798431,"lng":129.452645,"totalSpaces":7,"isFree":true,"operatingDays":"평일+토요일+공휴일","weekdayOpen":"00:00","weekdayClose":"23:59","weekendOpen":"00:00","weekendClose":"23:59","holidayOpen":"00:00","holidayClose":"23:59","feeInfo":"무료","phone":"054-789-6392","updatedAt":"2025-08-11","sido":"경상북도","sigungu":"울진군","dong":""},{"name":"울진군청 공영주차장","type":"공영","category":"부설","address":"경상북도 울진군 울진읍 울진중앙로 121","lat":36.993095,"lng":129.4005165,"totalSpaces":67,"isFree":false,"operatingDays":"평일+토요일+공휴일","weekdayOpen":"00:00","weekdayClose":"23:59","weekendOpen":"00:00","weekendClose":"23:59","holidayOpen":"00:00","holidayClose":"23:59","feeInfo":"기본 60분 0원 / 추가 30분당 500원","phone":"054-789-6392","updatedAt":"2025-08-11","sido":"경상북도","sigungu":"울진군","dong":""}]}