{"sido":"전북특별자치도","sigungu":"군산시","totalCount":176,"validCount":175,"items":[{"name":"성산면1","type":"공영","category":"노외","address":"전북특별자치도 군산시 성산면 철새로25, (성덕리)","lat":36.01322873,"lng":126.7583512,"totalSpaces":480,"isFree":true,"operatingDays":"평일+토요일+공휴일","weekdayOpen":"00:00","weekdayClose":"23:59","weekendOpen":"00:00","weekendClose":"23:59","holidayOpen":"00:00","holidayClose":"23:59","feeInfo":"무료","phone":"063-454-3812","updatedAt":"2025-11-17","sido":"전북특별자치도","sigungu":"군산시","dong":"성산면"},{"name":"월명동 12","type":"공영","category":"노외","address":"전북특별자치도 군산시 내항1길 12 (장미동 )","lat":35.989019,"lng":126.717788,"totalSpaces":337,"isFree":true,"operatingDays":"평일+토요일+공휴일","weekdayOpen":"00:00","weekdayClose":"23:59","weekendOpen":"00:00","weekendClose":"23:59","holidayOpen":"00:00","holidayClose":"23:59","feeInfo":"무료","phone":"063-454-3812","updatedAt":"2025-11-17","sido":"전북특별자치도","sigungu":"군산시","dong":"장미동"},{"name":"월명동 3","type":"공영","category":"노상","address":"전북특별자치도 군산시 구영4길 15-10 (영화동 )","lat":35.989094,"lng":126.709658,"totalSpaces":260,"isFree":true,"operatingDays":"평일+토요일+공휴일","weekdayOpen":"00:00","weekdayClose":"23:59","weekendOpen":"00:00","weekendClose":"23:59","holidayOpen":"00:00","holidayClose":"23:59","feeInfo":"무료","phone":"063-454-3812","updatedAt":"2025-11-17","sido":"전북특별자치도","sigungu":"군산시","dong":"영화동"},{"name":"화물전용 군산시 임시주차장","type":"공영","category":"노외","address":"전북특별자치도 군산시 조촌로 215 (경암동 )","lat":35.984182,"lng":126.736772,"totalSpaces":255,"isFree":true,"operatingDays":"평일+토요일+공휴일","weekdayOpen":"00:00","weekdayClose":"23:59","weekendOpen":"00:00","weekendClose":"23:59","holidayOpen":"00:00","holidayClose":"23:59","feeInfo":"무료","phone":"063-454-3812","updatedAt":"2025-11-17","sido":"전북특별자치도","sigungu":"군산시","dong":"경암동"},{"name":"나운8","type":"공영","category":"노외","address":"전북특별자치도 군산시 은파순환길 9 (나운동 )","lat":35.95536227,"lng":126.6890748,"totalSpaces":240,"isFree":true,"operatingDays":"평일+토요일+공휴일","weekdayOpen":"00:00","weekdayClose":"23:59","weekendOpen":"00:00","weekendClose":"23:59","holidayOpen":"00:00","holidayClose":"23:59","feeInfo":"무료","phone":"063-454-3812","updatedAt":"2025-11-17","sido":"전북특별자치도","sigungu":"군산시","dong":"나운동"},{"name":"개정동 2","type":"공영","category":"노외","address":"전북특별자치도 군산시 번영로 308 (사정동 )","lat":35.962864,"lng":126.7511076,"totalSpaces":220,"isFree":true,"operatingDays":"평일+토요일+공휴일","weekdayOpen":"00:00","weekdayClose":"23:59","weekendOpen":"00:00","weekendClose":"23:59","holidayOpen":"00:00","holidayClose":"23:59","feeInfo":"무료","phone":"063-454-3812","updatedAt":"2025-11-17","sido":"전북특별자치도","sigungu":"군산시","dong":"사정동"},{"name":"채만식문학관주차장","type":"공영","category":"노외","address":"전북특별자치도 군산시 강변로449, (내흥동 )","lat":36.00866118,"lng":126.7578896,"totalSpaces":213,"isFree":true,"operatingDays":"평일+토요일+공휴일","weekdayOpen":"00:00","weekdayClose":"23:59","weekendOpen":"00:00","weekendClose":"23:59","holidayOpen":"00:00","holidayClose":"23:59","feeInfo":"무료","phone":"063-454-3812","updatedAt":"2025-11-17","sido":"전북특별자치도","sigungu":"군산시","dong":"내흥동"},{"name":"수송동 9","type":"공영","category":"노상","address":"전북특별자치도 군산시 동 수송안길 23 (수송동 )","lat":35.9661267,"lng":126.716772,"totalSpaces":210,"isFree":true,"operatingDays":"평일+토요일+공휴일","weekdayOpen":"00:00","weekdayClose":"23:59","weekendOpen":"00:00","weekendClose":"23:59","holidayOpen":"00:00","holidayClose":"23:59","feeInfo":"무료","phone":"063-454-3812","updatedAt":"2025-11-17","sido":"전북특별자치도","sigungu":"군산시","dong":"수송동"},{"name":"월명동 7","type":"공영","category":"노상","address":"전북특별자치도 군산시 구영6길 22-5 (월명동 )","lat":35.98512506,"lng":126.708858,"totalSpaces":209,"isFree":true,"operatingDays":"평일+토요일+공휴일","weekdayOpen":"00:00","weekdayClose":"23:59","weekendOpen":"00:00","weekendClose":"23:59","holidayOpen":"00:00","holidayClose":"23:59","feeInfo":"무료","phone":"063-454-3812","updatedAt":"2025-11-17","sido":"전북특별자치도","sigungu":"군산시","dong":"월명동"},{"name":"수송동 3","type":"공영","category":"노상","address":"전북특별자치도 군산시 수송남로 26","lat":35.96165857,"lng":126.7145734,"totalSpaces":190,"isFree":true,"operatingDays":"평일+토요일+공휴일","weekdayOpen":"00:00","weekdayClose":"23:59","weekendOpen":"00:00","weekendClose":"23:59","holidayOpen":"00:00","holidayClose":"23:59","feeInfo":"무료","phone":"063-454-3812","updatedAt":"2025-11-17","sido":"전북특별자치도","sigungu":"군산시","dong":"수송동"},{"name":"해신동 1","type":"공영","category":"노상","address":"전북특별자치도 군산시 해망로 425-3 (해망동 )","lat":35.986989,"lng":126.6950078,"totalSpaces":181,"isFree":true,"operatingDays":"평일+토요일+공휴일","weekdayOpen":"00:00","weekdayClose":"23:59","weekendOpen":"00:00","weekendClose":"23:59","holidayOpen":"00:00","holidayClose":"23:59","feeInfo":"무료","phone":"063-454-3812","updatedAt":"2025-11-17","sido":"전북특별자치도","sigungu":"군산시","dong":"해망동"},{"name":"신풍동 1","type":"공영","category":"노상","address":"전북특별자치도 군산시 신풍길 6 (신풍동 , 신풍동 부향하나로 아파트)","lat":35.97973319,"lng":126.7053984,"totalSpaces":181,"isFree":true,"operatingDays":"평일+토요일+공휴일","weekdayOpen":"00:00","weekdayClose":"23:59","weekendOpen":"00:00","weekendClose":"23:59","holidayOpen":"00:00","holidayClose":"23:59","feeInfo":"무료","phone":"063-454-3812","updatedAt":"2025-11-17","sido":"전북특별자치도","sigungu":"군산시","dong":"신풍동"},{"name":"조촌동 1","type":"공영","category":"노상","address":"전북특별자치도 군산시 진포로 159 (조촌동 , 한일연립주택)","lat":35.97296566,"lng":126.7326535,"totalSpaces":171,"isFree":true,"operatingDays":"평일+토요일+공휴일","weekdayOpen":"00:00","weekdayClose":"23:59","weekendOpen":"00:00","weekendClose":"23:59","holidayOpen":"00:00","holidayClose":"23:59","feeInfo":"무료","phone":"063-454-3812","updatedAt":"2025-11-17","sido":"전북특별자치도","sigungu":"군산시","dong":"조촌동"},{"name":"경암1","type":"공영","category":"노상","address":"전북특별자치도 군산시 경암안1길25, 경암동 (경암동 )","lat":35.976853,"lng":126.7279835,"totalSpaces":171,"isFree":true,"operatingDays":"평일+토요일+공휴일","weekdayOpen":"00:00","weekdayClose":"23:59","weekendOpen":"00:00","weekendClose":"23:59","holidayOpen":"00:00","holidayClose":"23:59","feeInfo":"무료","phone":"063-454-3812","updatedAt":"2025-11-17","sido":"전북특별자치도","sigungu":"군산시","dong":"경암동"},{"name":"개정동 1","type":"공영","category":"노외","address":"전북특별자치도 군산시 번영로 281 (사정동 )","lat":35.96278552,"lng":126.746035,"totalSpaces":170,"isFree":true,"operatingDays":"평일+토요일+공휴일","weekdayOpen":"00:00","weekdayClose":"23:59","weekendOpen":"00:00","weekendClose":"23:59","holidayOpen":"00:00","holidayClose":"23:59","feeInfo":"무료","phone":"063-454-3812","updatedAt":"2025-11-17","sido":"전북특별자치도","sigungu":"군산시","dong":"사정동"},{"name":"조촌동 10","type":"공영","category":"노외","address":"전북특별자치도 군산시 조촌5길 71 (조촌동 )","lat":35.969263,"lng":126.737287,"totalSpaces":161,"isFree":true,"operatingDays":"평일+토요일+공휴일","weekdayOpen":"00:00","weekdayClose":"23:59","weekendOpen":"00:00","weekendClose":"23:59","holidayOpen":"00:00","holidayClose":"23:59","feeInfo":"무료","phone":"063-454-3812","updatedAt":"2025-11-17","sido":"전북특별자치도","sigungu":"군산시","dong":"조촌동"},{"name":"중앙동 2","type":"공영","category":"노외","address":"전북특별자치도 군산시 동 신영길 48-6","lat":35.985692,"lng":126.720226,"totalSpaces":155,"isFree":true,"operatingDays":"평일+토요일+공휴일","weekdayOpen":"00:00","weekdayClose":"23:59","weekendOpen":"00:00","weekendClose":"23:59","holidayOpen":"00:00","holidayClose":"23:59","feeInfo":"무료","phone":"063-454-3812","updatedAt":"2025-11-17","sido":"전북특별자치도","sigungu":"군산시","dong":"신영동"},{"name":"해신동 10","type":"공영","category":"노외","address":"전북특별자치도 군산시 내항2길 238 (해망동 )","lat":35.99340005,"lng":126.7043161,"totalSpaces":140,"isFree":true,"operatingDays":"평일+토요일+공휴일","weekdayOpen":"00:00","weekdayClose":"23:59","weekendOpen":"00:00","weekendClose":"23:59","holidayOpen":"00:00","holidayClose":"23:59","feeInfo":"무료","phone":"063-454-3812","updatedAt":"2025-11-17","sido":"전북특별자치도","sigungu":"군산시","dong":"해망동"},{"name":"신풍동 2","type":"공영","category":"노상","address":"전북특별자치도 군산시 삼화길 45 (문화동 )","lat":35.974965,"lng":126.7073542,"totalSpaces":136,"isFree":true,"operatingDays":"평일+토요일+공휴일","weekdayOpen":"00:00","weekdayClose":"23:59","weekendOpen":"00:00","weekendClose":"23:59","holidayOpen":"00:00","holidayClose":"23:59","feeInfo":"무료","phone":"063-454-3812","updatedAt":"2025-11-17","sido":"전북특별자치도","sigungu":"군산시","dong":"문화동"},{"name":"나운2","type":"공영","category":"노상","address":"전북특별자치도 군산시 나운안1길24, (나운동 , 현대4차아파트)","lat":35.962769,"lng":126.7046145,"totalSpaces":127,"isFree":true,"operatingDays":"평일+토요일+공휴일","weekdayOpen":"00:00","weekdayClose":"23:59","weekendOpen":"00:00","weekendClose":"23:59","holidayOpen":"00:00","holidayClose":"23:59","feeInfo":"무료","phone":"063-454-3812","updatedAt":"2025-11-17","sido":"전북특별자치도","sigungu":"군산시","dong":"나운동"},{"name":"경암동 5","type":"공영","category":"노외","address":"전북특별자치도 군산시 진포로224, (경암동 , 우일주택)","lat":35.978632,"lng":126.733479,"totalSpaces":121,"isFree":true,"operatingDays":"평일+토요일+공휴일","weekdayOpen":"00:00","weekdayClose":"23:59","weekendOpen":"00:00","weekendClose":"23:59","holidayOpen":"00:00","holidayClose":"23:59","feeInfo":"무료","phone":"063-454-3812","updatedAt":"2025-11-17","sido":"전북특별자치도","sigungu":"군산시","dong":"경암동"},{"name":"경암동 4","type":"공영","category":"노외","address":"전북특별자치도 군산시 진포로 239 (경암동 )","lat":35.98012514,"lng":126.732688,"totalSpaces":120,"isFree":true,"operatingDays":"평일+토요일+공휴일","weekdayOpen":"00:00","weekdayClose":"23:59","weekendOpen":"00:00","weekendClose":"23:59","holidayOpen":"00:00","holidayClose":"23:59","feeInfo":"무료","phone":"063-454-3812","updatedAt":"2025-11-17","sido":"전북특별자치도","sigungu":"군산시","dong":"경암동"},{"name":"옥도면 선유3","type":"공영","category":"노외","address":"전북특별자치도 군산시 옥도면 선유도리 474-2","lat":35.82459919,"lng":126.4161044,"totalSpaces":118,"isFree":true,"operatingDays":"평일+토요일+공휴일","weekdayOpen":"00:00","weekdayClose":"23:59","weekendOpen":"00:00","weekendClose":"23:59","holidayOpen":"00:00","holidayClose":"23:59","feeInfo":"무료","phone":"063-454-3812","updatedAt":"2025-11-17","sido":"전북특별자치도","sigungu":"군산시","dong":"옥도면"},{"name":"해신동 7","type":"공영","category":"노외","address":"전북특별자치도 군산시 해망로 318 (해망동 )","lat":35.992953,"lng":126.704727,"totalSpaces":112,"isFree":true,"operatingDays":"평일+토요일+공휴일","weekdayOpen":"00:00","weekdayClose":"23:59","weekendOpen":"00:00","weekendClose":"23:59","holidayOpen":"00:00","holidayClose":"23:59","feeInfo":"무료","phone":"063-454-3812","updatedAt":"2025-11-17","sido":"전북특별자치도","sigungu":"군산시","dong":"해망동"},{"name":"나운7","type":"공영","category":"노외","address":"전북특별자치도 군산시 은파순환길 56 (나운동 )","lat":35.952687,"lng":126.692481,"totalSpaces":110,"isFree":true,"operatingDays":"평일+토요일+공휴일","weekdayOpen":"00:00","weekdayClose":"23:59","weekendOpen":"00:00","weekendClose":"23:59","holidayOpen":"00:00","holidayClose":"23:59","feeInfo":"무료","phone":"063-454-3812","updatedAt":"2025-11-17","sido":"전북특별자치도","sigungu":"군산시","dong":"나운동"},{"name":"월명동 5","type":"공영","category":"노상","address":"전북특별자치도 군산시 중앙로 178 (중앙로1가)","lat":35.98772627,"lng":126.7117236,"totalSpaces":102,"isFree":true,"operatingDays":"평일+토요일+공휴일","weekdayOpen":"00:00","weekdayClose":"23:59","weekendOpen":"00:00","weekendClose":"23:59","holidayOpen":"00:00","holidayClose":"23:59","feeInfo":"무료","phone":"063-454-3812","updatedAt":"2025-11-17","sido":"전북특별자치도","sigungu":"군산시","dong":""},{"name":"소룡동","type":"공영","category":"노상","address":"전북특별자치도 군산시 임해로 378-8 (소룡동 )","lat":35.978089,"lng":126.631423,"totalSpaces":101,"isFree":true,"operatingDays":"평일+토요일+공휴일","weekdayOpen":"00:00","weekdayClose":"23:59","weekendOpen":"00:00","weekendClose":"23:59","holidayOpen":"00:00","holidayClose":"23:59","feeInfo":"무료","phone":"063-454-3812","updatedAt":"2025-11-17","sido":"전북특별자치도","sigungu":"군산시","dong":"소룡동"},{"name":"흥남동 2","type":"공영","category":"노상","address":"전북특별자치도 군산시 동 팔마길 12 (대명동 )","lat":35.976187,"lng":126.7230426,"totalSpaces":96,"isFree":true,"operatingDays":"평일+토요일+공휴일","weekdayOpen":"00:00","weekdayClose":"23:59","weekendOpen":"00:00","weekendClose":"23:59","holidayOpen":"00:00","holidayClose":"23:59","feeInfo":"무료","phone":"063-454-3812","updatedAt":"2025-11-17","sido":"전북특별자치도","sigungu":"군산시","dong":"대명동"},{"name":"임시공영주차장(흥남동 5)","type":"공영","category":"노외","address":"전북특별자치도 군산시 구암3.1로 13","lat":35.980464,"lng":126.7210008,"totalSpaces":89,"isFree":true,"operatingDays":"평일+토요일+공휴일","weekdayOpen":"00:00","weekdayClose":"23:59","weekendOpen":"00:00","weekendClose":"23:59","holidayOpen":"00:00","holidayClose":"23:59","feeInfo":"무료","phone":"063-454-3812","updatedAt":"2025-11-17","sido":"전북특별자치도","sigungu":"군산시","dong":"대명동"},{"name":"수송동 4","type":"공영","category":"노외","address":"전북특별자치도 군산시 축동 안길 37 (수송동 , 수송동 제일아파트)","lat":35.966778,"lng":126.712094,"totalSpaces":87,"isFree":true,"operatingDays":"평일+토요일+공휴일","weekdayOpen":"00:00","weekdayClose":"23:59","weekendOpen":"00:00","weekendClose":"23:59","holidayOpen":"00:00","holidayClose":"23:59","feeInfo":"무료","phone":"063-454-3812","updatedAt":"2025-11-17","sido":"전북특별자치도","sigungu":"군산시","dong":"수송동"},{"name":"옥도면 선유1","type":"공영","category":"노외","address":"전북특별자치도 군산시 옥도면 선유도리 353-2","lat":35.8076256628,"lng":126.4142444261,"totalSpaces":86,"isFree":true,"operatingDays":"평일+토요일+공휴일","weekdayOpen":"00:00","weekdayClose":"23:59","weekendOpen":"00:00","weekendClose":"23:59","holidayOpen":"00:00","holidayClose":"23:59","feeInfo":"무료","phone":"063-454-3812","updatedAt":"2025-11-17","sido":"전북특별자치도","sigungu":"군산시","dong":"옥도면"},{"name":"월명동 4","type":"공영","category":"노상","address":"전북특별자치도 군산시 동 령길 50-3 (장미동 )","lat":35.988493,"lng":126.7140909,"totalSpaces":85,"isFree":true,"operatingDays":"평일+토요일+공휴일","weekdayOpen":"00:00","weekdayClose":"23:59","weekendOpen":"00:00","weekendClose":"23:59","holidayOpen":"00:00","holidayClose":"23:59","feeInfo":"무료","phone":"063-454-3812","updatedAt":"2025-11-17","sido":"전북특별자치도","sigungu":"군산시","dong":"장미동"},{"name":"월명동 10","type":"공영","category":"노외","address":"전북특별자치도 군산시 해망로 243 (장미동 )","lat":35.990273,"lng":126.711158,"totalSpaces":83,"isFree":true,"operatingDays":"평일+토요일+공휴일","weekdayOpen":"00:00","weekdayClose":"23:59","weekendOpen":"00:00","weekendClose":"23:59","holidayOpen":"00:00","holidayClose":"23:59","feeInfo":"무료","phone":"063-454-3812","updatedAt":"2025-11-17","sido":"전북특별자치도","sigungu":"군산시","dong":"장미동"},{"name":"옥도면 장자2","type":"공영","category":"노외","address":"전북특별자치도 군산시 옥도면 장자도리 12-1","lat":35.80212164,"lng":126.4371564,"totalSpaces":80,"isFree":true,"operatingDays":"평일+토요일+공휴일","weekdayOpen":"00:00","weekdayClose":"23:59","weekendOpen":"00:00","weekendClose":"23:59","holidayOpen":"00:00","holidayClose":"23:59","feeInfo":"무료","phone":"063-454-3812","updatedAt":"2025-11-17","sido":"전북특별자치도","sigungu":"군산시","dong":"옥도면"},{"name":"중앙동 1","type":"공영","category":"노상","address":"전북특별자치도 군산시 서래로 10 (금암동 )","lat":35.98609105,"lng":126.7214848,"totalSpaces":79,"isFree":true,"operatingDays":"평일+토요일+공휴일","weekdayOpen":"00:00","weekdayClose":"23:59","weekendOpen":"00:00","weekendClose":"23:59","holidayOpen":"00:00","holidayClose":"23:59","feeInfo":"무료","phone":"063-454-3812","updatedAt":"2025-11-17","sido":"전북특별자치도","sigungu":"군산시","dong":"금암동"},{"name":"나운4","type":"공영","category":"노상","address":"전북특별자치도 군산시 은파순환길 56 (나운동 )","lat":35.952687,"lng":126.692481,"totalSpaces":77,"isFree":true,"operatingDays":"평일+토요일+공휴일","weekdayOpen":"00:00","weekdayClose":"23:59","weekendOpen":"00:00","weekendClose":"23:59","holidayOpen":"00:00","holidayClose":"23:59","feeInfo":"무료","phone":"063-454-3812","updatedAt":"2025-11-17","sido":"전북특별자치도","sigungu":"군산시","dong":"나운동"},{"name":"해신동 2","type":"공영","category":"노상","address":"전북특별자치도 군산시 구영1길 51 (금동 )","lat":35.987474,"lng":126.7072947,"totalSpaces":76,"isFree":true,"operatingDays":"평일+토요일+공휴일","weekdayOpen":"00:00","weekdayClose":"23:59","weekendOpen":"00:00","weekendClose":"23:59","holidayOpen":"00:00","holidayClose":"23:59","feeInfo":"무료","phone":"063-454-3812","updatedAt":"2025-11-17","sido":"전북특별자치도","sigungu":"군산시","dong":"금동"},{"name":"조촌동 11","type":"공영","category":"노외","address":"전북특별자치도 군산시 조촌4길 24-6 (조촌동 )","lat":35.968487,"lng":126.736368,"totalSpaces":75,"isFree":true,"operatingDays":"평일+토요일+공휴일","weekdayOpen":"00:00","weekdayClose":"23:59","weekendOpen":"00:00","weekendClose":"23:59","holidayOpen":"00:00","holidayClose":"23:59","feeInfo":"무료","phone":"063-454-3812","updatedAt":"2025-11-17","sido":"전북특별자치도","sigungu":"군산시","dong":"조촌동"},{"name":"월명동 13","type":"공영","category":"노외","address":"전북특별자치도 군산시 중앙로149, (중앙로1가)","lat":35.98573042,"lng":126.7137682,"totalSpaces":75,"isFree":true,"operatingDays":"평일+토요일+공휴일","weekdayOpen":"00:00","weekdayClose":"23:59","weekendOpen":"00:00","weekendClose":"23:59","holidayOpen":"00:00","holidayClose":"23:59","feeInfo":"무료","phone":"063-454-3812","updatedAt":"2025-11-17","sido":"전북특별자치도","sigungu":"군산시","dong":""},{"name":"월명동 2","type":"공영","category":"노외","address":"전북특별자치도 군산시 청소년회관로 75 (송풍동 )","lat":35.97933202,"lng":126.6963121,"totalSpaces":74,"isFree":true,"operatingDays":"평일+토요일+공휴일","weekdayOpen":"00:00","weekdayClose":"23:59","weekendOpen":"00:00","weekendClose":"23:59","holidayOpen":"00:00","holidayClose":"23:59","feeInfo":"무료","phone":"063-454-3812","updatedAt":"2025-11-17","sido":"전북특별자치도","sigungu":"군산시","dong":"송풍동"},{"name":"해신동 12","type":"공영","category":"노외","address":"전북특별자치도 군산시 해망로319-3, (해망동 )","lat":35.99251418,"lng":126.704991,"totalSpaces":71,"isFree":true,"operatingDays":"평일+토요일+공휴일","weekdayOpen":"00:00","weekdayClose":"23:59","weekendOpen":"00:00","weekendClose":"23:59","holidayOpen":"00:00","holidayClose":"23:59","feeInfo":"무료","phone":"063-454-3812","updatedAt":"2025-11-17","sido":"전북특별자치도","sigungu":"군산시","dong":"해망동"},{"name":"수송동 6","type":"공영","category":"노외","address":"전북특별자치도 군산시 수송남로 24 (수송동 )","lat":35.961487,"lng":126.714552,"totalSpaces":71,"isFree":true,"operatingDays":"평일+토요일+공휴일","weekdayOpen":"00:00","weekdayClose":"23:59","weekendOpen":"00:00","weekendClose":"23:59","holidayOpen":"00:00","holidayClose":"23:59","feeInfo":"무료","phone":"063-454-3812","updatedAt":"2025-11-17","sido":"전북특별자치도","sigungu":"군산시","dong":"수송동"},{"name":"소룡동 5","type":"공영","category":"노외","address":"전북특별자치도 군산시 설림5길 24 (소룡동 )","lat":35.970871,"lng":126.684764,"totalSpaces":70,"isFree":true,"operatingDays":"평일+토요일+공휴일","weekdayOpen":"00:00","weekdayClose":"23:59","weekendOpen":"00:00","weekendClose":"23:59","holidayOpen":"00:00","holidayClose":"23:59","feeInfo":"무료","phone":"063-454-3812","updatedAt":"2025-11-17","sido":"전북특별자치도","sigungu":"군산시","dong":"소룡동"},{"name":"나운9","type":"공영","category":"노외","address":"전북특별자치도 군산시 의료원로 163 (나운동 , 신일아파트)","lat":35.958739,"lng":126.698711,"totalSpaces":70,"isFree":true,"operatingDays":"평일+토요일+공휴일","weekdayOpen":"00:00","weekdayClose":"23:59","weekendOpen":"00:00","weekendClose":"23:59","holidayOpen":"00:00","holidayClose":"23:59","feeInfo":"무료","phone":"063-454-3812","updatedAt":"2025-11-17","sido":"전북특별자치도","sigungu":"군산시","dong":"나운동"},{"name":"임피면5","type":"공영","category":"노외","address":"전북특별자치도 군산시 임피면 남상2길 1","lat":35.9824759411,"lng":126.8506203949,"totalSpaces":70,"isFree":true,"operatingDays":"평일+토요일+공휴일","weekdayOpen":"00:00","weekdayClose":"23:59","weekendOpen":"00:00","weekendClose":"23:59","holidayOpen":"00:00","holidayClose":"23:59","feeInfo":"무료","phone":"063-454-3812","updatedAt":"2025-11-17","sido":"전북특별자치도","sigungu":"군산시","dong":"임피면"},{"name":"삼학동","type":"공영","category":"노상","address":"전북특별자치도 군산시 축동로 188","lat":35.976714,"lng":126.709881,"totalSpaces":69,"isFree":true,"operatingDays":"평일+토요일+공휴일","weekdayOpen":"00:00","weekdayClose":"23:59","weekendOpen":"00:00","weekendClose":"23:59","holidayOpen":"00:00","holidayClose":"23:59","feeInfo":"무료","phone":"063-454-3812","updatedAt":"2025-11-17","sido":"전북특별자치도","sigungu":"군산시","dong":"삼학동"},{"name":"삼학동","type":"공영","category":"노상","address":"전북특별자치도 군산시 오룡로 18 (오룡동 )","lat":35.978969,"lng":126.710066,"totalSpaces":69,"isFree":true,"operatingDays":"평일+토요일+공휴일","weekdayOpen":"00:00","weekdayClose":"23:59","weekendOpen":"00:00","weekendClose":"23:59","holidayOpen":"00:00","holidayClose":"23:59","feeInfo":"무료","phone":"063-454-3812","updatedAt":"2025-11-17","sido":"전북특별자치도","sigungu":"군산시","dong":"오룡동"},{"name":"소룡동 4","type":"공영","category":"노외","address":"전북특별자치도 군산시 공단대로635, 춘하추동 (소룡동 )","lat":35.974149,"lng":126.6778917,"totalSpaces":67,"isFree":true,"operatingDays":"평일+토요일+공휴일","weekdayOpen":"00:00","weekdayClose":"23:59","weekendOpen":"00:00","weekendClose":"23:59","holidayOpen":"00:00","holidayClose":"23:59","feeInfo":"무료","phone":"063-454-3812","updatedAt":"2025-11-17","sido":"전북특별자치도","sigungu":"군산시","dong":"소룡동"},{"name":"수송동 1","type":"공영","category":"노상","address":"전북특별자치도 군산시 수송동 856-8","lat":35.9597247143,"lng":126.7161375016,"totalSpaces":65,"isFree":true,"operatingDays":"평일+토요일+공휴일","weekdayOpen":"00:00","weekdayClose":"23:59","weekendOpen":"00:00","weekendClose":"23:59","holidayOpen":"00:00","holidayClose":"23:59","feeInfo":"무료","phone":"063-454-3812","updatedAt":"2025-11-17","sido":"전북특별자치도","sigungu":"군산시","dong":"수송동"},{"name":"수송동 2","type":"공영","category":"노상","address":"전북특별자치도 군산시 문화로 77","lat":35.97008966,"lng":126.714206,"totalSpaces":64,"isFree":true,"operatingDays":"평일+토요일+공휴일","weekdayOpen":"00:00","weekdayClose":"23:59","weekendOpen":"00:00","weekendClose":"23:59","holidayOpen":"00:00","holidayClose":"23:59","feeInfo":"무료","phone":"063-454-3812","updatedAt":"2025-11-17","sido":"전북특별자치도","sigungu":"군산시","dong":"수송동"},{"name":"신풍동 4","type":"공영","category":"노외","address":"전북특별자치도 군산시 신풍길 47 (신풍동 )","lat":35.97980897,"lng":126.7010549,"totalSpaces":63,"isFree":true,"operatingDays":"평일+토요일+공휴일","weekdayOpen":"00:00","weekdayClose":"23:59","weekendOpen":"00:00","weekendClose":"23:59","holidayOpen":"00:00","holidayClose":"23:59","feeInfo":"무료","phone":"063-454-3812","updatedAt":"2025-11-17","sido":"전북특별자치도","sigungu":"군산시","dong":"신풍동"},{"name":"구암동 1","type":"공영","category":"노외","address":"전북특별자치도 군산시 새터길 20 (구암동 )","lat":35.97778664,"lng":126.751655,"totalSpaces":62,"isFree":true,"operatingDays":"평일+토요일+공휴일","weekdayOpen":"00:00","weekdayClose":"23:59","weekendOpen":"00:00","weekendClose":"23:59","holidayOpen":"00:00","holidayClose":"23:59","feeInfo":"무료","phone":"063-454-3812","updatedAt":"2025-11-17","sido":"전북특별자치도","sigungu":"군산시","dong":"구암동"},{"name":"해신동 1","type":"공영","category":"노외","address":"전북특별자치도 군산시 중앙로 220 (금동 )","lat":35.989379,"lng":126.707624,"totalSpaces":61,"isFree":true,"operatingDays":"평일+토요일+공휴일","weekdayOpen":"00:00","weekdayClose":"23:59","weekendOpen":"00:00","weekendClose":"23:59","holidayOpen":"00:00","holidayClose":"23:59","feeInfo":"무료","phone":"063-454-3812","updatedAt":"2025-11-17","sido":"전북특별자치도","sigungu":"군산시","dong":"금동"},{"name":"소룡동 1","type":"공영","category":"노외","address":"전북특별자치도 군산시 솔꼬지1길 46 (소룡동 )","lat":35.97977859,"lng":126.6877147,"totalSpaces":60,"isFree":true,"operatingDays":"평일+토요일+공휴일","weekdayOpen":"00:00","weekdayClose":"23:59","weekendOpen":"00:00","weekendClose":"23:59","holidayOpen":"00:00","holidayClose":"23:59","feeInfo":"무료","phone":"063-454-3812","updatedAt":"2025-11-17","sido":"전북특별자치도","sigungu":"군산시","dong":"소룡동"},{"name":"소룡동 2","type":"공영","category":"노외","address":"전북특별자치도 군산시 설림3길 49 (소룡동 )","lat":35.97447609,"lng":126.6850926,"totalSpaces":60,"isFree":true,"operatingDays":"평일+토요일+공휴일","weekdayOpen":"00:00","weekdayClose":"23:59","weekendOpen":"00:00","weekendClose":"23:59","holidayOpen":"00:00","holidayClose":"23:59","feeInfo":"무료","phone":"063-454-3812","updatedAt":"2025-11-17","sido":"전북특별자치도","sigungu":"군산시","dong":"소룡동"},{"name":"나운1","type":"공영","category":"노외","address":"전북특별자치도 군산시 하나운안1길8-7, (나운동 )","lat":35.963265,"lng":126.694668,"totalSpaces":60,"isFree":true,"operatingDays":"평일+토요일+공휴일","weekdayOpen":"00:00","weekdayClose":"23:59","weekendOpen":"00:00","weekendClose":"23:59","holidayOpen":"00:00","holidayClose":"23:59","feeInfo":"무료","phone":"063-454-3812","updatedAt":"2025-11-17","sido":"전북특별자치도","sigungu":"군산시","dong":"나운동"},{"name":"구암","type":"공영","category":"노외","address":"전북특별자치도 군산시 내흥동 912-1","lat":35.9987139779,"lng":126.7534652218,"totalSpaces":60,"isFree":true,"operatingDays":"평일+토요일+공휴일","weekdayOpen":"00:00","weekdayClose":"23:59","weekendOpen":"00:00","weekendClose":"23:59","holidayOpen":"00:00","holidayClose":"23:59","feeInfo":"무료","phone":"063-454-3812","updatedAt":"2025-11-17","sido":"전북특별자치도","sigungu":"군산시","dong":"내흥동"},{"name":"수송동 7","type":"공영","category":"노상","address":"전북특별자치도 군산시 동 수송안길 35 (수송동 )","lat":35.967179,"lng":126.716721,"totalSpaces":60,"isFree":true,"operatingDays":"평일+토요일+공휴일","weekdayOpen":"00:00","weekdayClose":"23:59","weekendOpen":"00:00","weekendClose":"23:59","holidayOpen":"00:00","holidayClose":"23:59","feeInfo":"무료","phone":"063-454-3812","updatedAt":"2025-11-17","sido":"전북특별자치도","sigungu":"군산시","dong":"수송동"},{"name":"수송동 5","type":"공영","category":"노외","address":"전북특별자치도 군산시 동 수송1길 7 (수송동 )","lat":35.96483456,"lng":126.717635,"totalSpaces":60,"isFree":true,"operatingDays":"평일+토요일+공휴일","weekdayOpen":"00:00","weekdayClose":"23:59","weekendOpen":"00:00","weekendClose":"23:59","holidayOpen":"00:00","holidayClose":"23:59","feeInfo":"무료","phone":"063-454-3812","updatedAt":"2025-11-17","sido":"전북특별자치도","sigungu":"군산시","dong":"수송동"},{"name":"수송동 7","type":"공영","category":"노외","address":"전북특별자치도 군산시 수송2길 28 (수송동 )","lat":35.961743,"lng":126.716499,"totalSpaces":57,"isFree":true,"operatingDays":"평일+토요일+공휴일","weekdayOpen":"00:00","weekdayClose":"23:59","weekendOpen":"00:00","weekendClose":"23:59","holidayOpen":"00:00","holidayClose":"23:59","feeInfo":"무료","phone":"063-454-3812","updatedAt":"2025-11-17","sido":"전북특별자치도","sigungu":"군산시","dong":"수송동"},{"name":"조촌동 2","type":"공영","category":"노상","address":"전북특별자치도 군산시 진포로 123 (경장동 )","lat":35.969749,"lng":126.7329215,"totalSpaces":56,"isFree":true,"operatingDays":"평일+토요일+공휴일","weekdayOpen":"00:00","weekdayClose":"23:59","weekendOpen":"00:00","weekendClose":"23:59","holidayOpen":"00:00","holidayClose":"23:59","feeInfo":"무료","phone":"063-454-3812","updatedAt":"2025-11-17","sido":"전북특별자치도","sigungu":"군산시","dong":"경장동"},{"name":"조촌동 6","type":"공영","category":"노외","address":"전북특별자치도 군산시 조촌3길 28 (조촌동 )","lat":35.968632,"lng":126.735523,"totalSpaces":54,"isFree":true,"operatingDays":"평일+토요일+공휴일","weekdayOpen":"00:00","weekdayClose":"23:59","weekendOpen":"00:00","weekendClose":"23:59","holidayOpen":"00:00","holidayClose":"23:59","feeInfo":"무료","phone":"063-454-3812","updatedAt":"2025-11-17","sido":"전북특별자치도","sigungu":"군산시","dong":"조촌동"},{"name":"나운3","type":"공영","category":"노상","address":"전북특별자치도 군산시 미제길 8 (미룡동 )","lat":35.94620043,"lng":126.687844,"totalSpaces":53,"isFree":true,"operatingDays":"평일+토요일+공휴일","weekdayOpen":"00:00","weekdayClose":"23:59","weekendOpen":"00:00","weekendClose":"23:59","holidayOpen":"00:00","holidayClose":"23:59","feeInfo":"무료","phone":"063-454-3812","updatedAt":"2025-11-17","sido":"전북특별자치도","sigungu":"군산시","dong":"미룡동"},{"name":"중앙동 3","type":"공영","category":"노상","address":"전북특별자치도 군산시 서래안2길 13-2 (중동 )","lat":35.982673,"lng":126.726151,"totalSpaces":52,"isFree":true,"operatingDays":"평일+토요일+공휴일","weekdayOpen":"00:00","weekdayClose":"23:59","weekendOpen":"00:00","weekendClose":"23:59","holidayOpen":"00:00","holidayClose":"23:59","feeInfo":"무료","phone":"063-454-3812","updatedAt":"2025-11-17","sido":"전북특별자치도","sigungu":"군산시","dong":"중동"},{"name":"흥남동 1","type":"공영","category":"노상","address":"전북특별자치도 군산시 동 팔마길39, (장재동 , 한일)","lat":35.977701,"lng":126.720511,"totalSpaces":52,"isFree":true,"operatingDays":"평일+토요일+공휴일","weekdayOpen":"00:00","weekdayClose":"23:59","weekendOpen":"00:00","weekendClose":"23:59","holidayOpen":"00:00","holidayClose":"23:59","feeInfo":"무료","phone":"063-454-3812","updatedAt":"2025-11-17","sido":"전북특별자치도","sigungu":"군산시","dong":"장재동"},{"name":"월명동 5","type":"공영","category":"노외","address":"전북특별자치도 군산시 오룡로 62-1 (명산동 )","lat":35.982552,"lng":126.7105463,"totalSpaces":52,"isFree":true,"operatingDays":"평일+토요일+공휴일","weekdayOpen":"00:00","weekdayClose":"23:59","weekendOpen":"00:00","weekendClose":"23:59","holidayOpen":"00:00","holidayClose":"23:59","feeInfo":"무료","phone":"063-454-3812","updatedAt":"2025-11-17","sido":"전북특별자치도","sigungu":"군산시","dong":"명산동"},{"name":"소룡동 6","type":"공영","category":"노외","address":"전북특별자치도 군산시 설림3길14, 드림마트 (소룡동 )","lat":35.975857,"lng":126.680812,"totalSpaces":50,"isFree":true,"operatingDays":"평일+토요일+공휴일","weekdayOpen":"00:00","weekdayClose":"23:59","weekendOpen":"00:00","weekendClose":"23:59","holidayOpen":"00:00","holidayClose":"23:59","feeInfo":"무료","phone":"063-454-3812","updatedAt":"2025-11-17","sido":"전북특별자치도","sigungu":"군산시","dong":"소룡동"},{"name":"대야면3","type":"공영","category":"노외","address":"전북특별자치도 군산시 대야면 대야시장로34, (산월리)","lat":35.945368,"lng":126.818521,"totalSpaces":50,"isFree":true,"operatingDays":"평일+토요일+공휴일","weekdayOpen":"00:00","weekdayClose":"23:59","weekendOpen":"00:00","weekendClose":"23:59","holidayOpen":"00:00","holidayClose":"23:59","feeInfo":"무료","phone":"063-454-3812","updatedAt":"2025-11-17","sido":"전북특별자치도","sigungu":"군산시","dong":"대야면"},{"name":"나포면1","type":"공영","category":"노외","address":"전북특별자치도 군산시 나포면 나포초교길10-1, (옥곤리)","lat":36.030037,"lng":126.831939,"totalSpaces":49,"isFree":true,"operatingDays":"평일+토요일+공휴일","weekdayOpen":"00:00","weekdayClose":"23:59","weekendOpen":"00:00","weekendClose":"23:59","holidayOpen":"00:00","holidayClose":"23:59","feeInfo":"무료","phone":"063-454-3812","updatedAt":"2025-11-17","sido":"전북특별자치도","sigungu":"군산시","dong":"나포면"},{"name":"소룡동 3","type":"공영","category":"노외","address":"전북특별자치도 군산시 설림길54-2, 제일세탁소 (소룡동 )","lat":35.97514553,"lng":126.6833116,"totalSpaces":47,"isFree":true,"operatingDays":"평일+토요일+공휴일","weekdayOpen":"00:00","weekdayClose":"23:59","weekendOpen":"00:00","weekendClose":"23:59","holidayOpen":"00:00","holidayClose":"23:59","feeInfo":"무료","phone":"063-454-3812","updatedAt":"2025-11-17","sido":"전북특별자치도","sigungu":"군산시","dong":"소룡동"},{"name":"성산면4","type":"공영","category":"노외","address":"전북특별자치도 군산시 성산면 동 군산로38, (고봉리)","lat":35.989883,"lng":126.7852981,"totalSpaces":46,"isFree":true,"operatingDays":"평일+토요일+공휴일","weekdayOpen":"00:00","weekdayClose":"23:59","weekendOpen":"00:00","weekendClose":"23:59","holidayOpen":"00:00","holidayClose":"23:59","feeInfo":"무료","phone":"063-454-3812","updatedAt":"2025-11-17","sido":"전북특별자치도","sigungu":"군산시","dong":"성산면"},{"name":"나운3","type":"공영","category":"노외","address":"전북특별자치도 군산시 신설로50, 나운동 (나운동 )","lat":35.97270667,"lng":126.6922708,"totalSpaces":46,"isFree":true,"operatingDays":"평일+토요일+공휴일","weekdayOpen":"00:00","weekdayClose":"23:59","weekendOpen":"00:00","weekendClose":"23:59","holidayOpen":"00:00","holidayClose":"23:59","feeInfo":"무료","phone":"063-454-3812","updatedAt":"2025-11-17","sido":"전북특별자치도","sigungu":"군산시","dong":"나운동"},{"name":"삼학동 3","type":"공영","category":"노외","address":"전북특별자치도 군산시 미원로 82 (삼학동 )","lat":35.979284,"lng":126.713465,"totalSpaces":45,"isFree":true,"operatingDays":"평일+토요일+공휴일","weekdayOpen":"00:00","weekdayClose":"23:59","weekendOpen":"00:00","weekendClose":"23:59","holidayOpen":"00:00","holidayClose":"23:59","feeInfo":"무료","phone":"063-454-3812","updatedAt":"2025-11-17","sido":"전북특별자치도","sigungu":"군산시","dong":"삼학동"},{"name":"나운4","type":"공영","category":"노외","address":"전북특별자치도 군산시 하신1길 7-6 (나운동 )","lat":35.969262,"lng":126.698422,"totalSpaces":45,"isFree":true,"operatingDays":"평일+토요일+공휴일","weekdayOpen":"00:00","weekdayClose":"23:59","weekendOpen":"00:00","weekendClose":"23:59","holidayOpen":"00:00","holidayClose":"23:59","feeInfo":"무료","phone":"063-454-3812","updatedAt":"2025-11-17","sido":"전북특별자치도","sigungu":"군산시","dong":"나운동"},{"name":"소룡동","type":"공영","category":"노상","address":"전북특별자치도 군산시 공항로 47-7 (소룡동 , 대성연립주택)","lat":35.978734,"lng":126.6818425,"totalSpaces":45,"isFree":true,"operatingDays":"평일+토요일+공휴일","weekdayOpen":"00:00","weekdayClose":"23:59","weekendOpen":"00:00","weekendClose":"23:59","holidayOpen":"00:00","holidayClose":"23:59","feeInfo":"무료","phone":"063-454-3812","updatedAt":"2025-11-17","sido":"전북특별자치도","sigungu":"군산시","dong":"소룡동"},{"name":"청암산 주차장","type":"공영","category":"노상","address":"전북특별자치도 군산시 회현면 죽동 2길55, (세장리)","lat":35.919425,"lng":126.7486067,"totalSpaces":44,"isFree":true,"operatingDays":"평일+토요일+공휴일","weekdayOpen":"00:00","weekdayClose":"23:59","weekendOpen":"00:00","weekendClose":"23:59","holidayOpen":"00:00","holidayClose":"23:59","feeInfo":"무료","phone":"063-454-3812","updatedAt":"2025-11-17","sido":"전북특별자치도","sigungu":"군산시","dong":"회현면"},{"name":"청암산 주차장","type":"공영","category":"노외","address":"전북특별자치도 군산시 회현면 죽동 2길55, (세장리)","lat":35.919425,"lng":126.7486067,"totalSpaces":44,"isFree":true,"operatingDays":"평일+토요일+공휴일","weekdayOpen":"00:00","weekdayClose":"23:59","weekendOpen":"00:00","weekendClose":"23:59","holidayOpen":"00:00","holidayClose":"23:59","feeInfo":"무료","phone":"063-454-3812","updatedAt":"2025-11-17","sido":"전북특별자치도","sigungu":"군산시","dong":"회현면"},{"name":"미성동 1","type":"공영","category":"노외","address":"전북특별자치도 군산시 임사길 59 (산북동 )","lat":35.95161485,"lng":126.661718,"totalSpaces":43,"isFree":true,"operatingDays":"평일+토요일+공휴일","weekdayOpen":"00:00","weekdayClose":"23:59","weekendOpen":"00:00","weekendClose":"23:59","holidayOpen":"00:00","holidayClose":"23:59","feeInfo":"무료","phone":"063-454-3812","updatedAt":"2025-11-17","sido":"전북특별자치도","sigungu":"군산시","dong":"산북동"},{"name":"옥서면5","type":"공영","category":"노외","address":"전북특별자치도 군산시 옥서면 신장원길19, (선연리)","lat":35.920468,"lng":126.6325668,"totalSpaces":43,"isFree":true,"operatingDays":"평일+토요일+공휴일","weekdayOpen":"00:00","weekdayClose":"23:59","weekendOpen":"00:00","weekendClose":"23:59","holidayOpen":"00:00","holidayClose":"23:59","feeInfo":"무료","phone":"063-454-3812","updatedAt":"2025-11-17","sido":"전북특별자치도","sigungu":"군산시","dong":"옥서면"},{"name":"소룡동 7","type":"공영","category":"노외","address":"전북특별자치도 군산시 임해로 401 (소룡동 )","lat":35.976247,"lng":126.628749,"totalSpaces":42,"isFree":true,"operatingDays":"평일+토요일+공휴일","weekdayOpen":"00:00","weekdayClose":"23:59","weekendOpen":"00:00","weekendClose":"23:59","holidayOpen":"00:00","holidayClose":"23:59","feeInfo":"무료","phone":"063-454-3812","updatedAt":"2025-11-17","sido":"전북특별자치도","sigungu":"군산시","dong":"소룡동"},{"name":"구암동 3","type":"공영","category":"노외","address":"전북특별자치도 군산시 궁멀길55-8, (구암동 , 군산구암휴먼시아)","lat":35.987705,"lng":126.743525,"totalSpaces":42,"isFree":true,"operatingDays":"평일+토요일+공휴일","weekdayOpen":"00:00","weekdayClose":"23:59","weekendOpen":"00:00","weekendClose":"23:59","holidayOpen":"00:00","holidayClose":"23:59","feeInfo":"무료","phone":"063-454-3812","updatedAt":"2025-11-17","sido":"전북특별자치도","sigungu":"군산시","dong":"구암동"},{"name":"삼학동 6","type":"공영","category":"노외","address":"전북특별자치도 군산시 서해대길 25-1 (오룡동 )","lat":35.977669,"lng":126.7081985,"totalSpaces":40,"isFree":true,"operatingDays":"평일+토요일+공휴일","weekdayOpen":"00:00","weekdayClose":"23:59","weekendOpen":"00:00","weekendClose":"23:59","holidayOpen":"00:00","holidayClose":"23:59","feeInfo":"무료","phone":"063-454-3812","updatedAt":"2025-11-17","sido":"전북특별자치도","sigungu":"군산시","dong":"오룡동"},{"name":"조촌동 5","type":"공영","category":"노외","address":"전북특별자치도 군산시 조촌5길 32 (조촌동 )","lat":35.9730539,"lng":126.7366933,"totalSpaces":40,"isFree":true,"operatingDays":"평일+토요일+공휴일","weekdayOpen":"00:00","weekdayClose":"23:59","weekendOpen":"00:00","weekendClose":"23:59","holidayOpen":"00:00","holidayClose":"23:59","feeInfo":"무료","phone":"063-454-3812","updatedAt":"2025-11-17","sido":"전북특별자치도","sigungu":"군산시","dong":"조촌동"},{"name":"조촌동 2","type":"공영","category":"노외","address":"전북특별자치도 군산시 백릉로 20 (경장동 )","lat":35.97372557,"lng":126.729111,"totalSpaces":38,"isFree":true,"operatingDays":"평일+토요일+공휴일","weekdayOpen":"00:00","weekdayClose":"23:59","weekendOpen":"00:00","weekendClose":"23:59","holidayOpen":"00:00","holidayClose":"23:59","feeInfo":"무료","phone":"063-454-3812","updatedAt":"2025-11-17","sido":"전북특별자치도","sigungu":"군산시","dong":"경장동"},{"name":"신풍동 3","type":"공영","category":"노외","address":"전북특별자치도 군산시 대학로 211 (문화동 )","lat":35.97331288,"lng":126.7010583,"totalSpaces":38,"isFree":true,"operatingDays":"평일+토요일+공휴일","weekdayOpen":"00:00","weekdayClose":"23:59","weekendOpen":"00:00","weekendClose":"23:59","holidayOpen":"00:00","holidayClose":"23:59","feeInfo":"무료","phone":"063-454-3812","updatedAt":"2025-11-17","sido":"전북특별자치도","sigungu":"군산시","dong":"문화동"},{"name":"신풍동 2","type":"공영","category":"노외","address":"전북특별자치도 군산시 서흥안길 35 (문화동 )","lat":35.973184,"lng":126.708564,"totalSpaces":37,"isFree":true,"operatingDays":"평일+토요일+공휴일","weekdayOpen":"00:00","weekdayClose":"23:59","weekendOpen":"00:00","weekendClose":"23:59","holidayOpen":"00:00","holidayClose":"23:59","feeInfo":"무료","phone":"063-454-3812","updatedAt":"2025-11-17","sido":"전북특별자치도","sigungu":"군산시","dong":"문화동"},{"name":"중앙동 3","type":"공영","category":"노외","address":"전북특별자치도 군산시 신금길 18 (신영동 )","lat":35.98317196,"lng":126.7203241,"totalSpaces":35,"isFree":true,"operatingDays":"평일+토요일+공휴일","weekdayOpen":"00:00","weekdayClose":"23:59","weekendOpen":"00:00","weekendClose":"23:59","holidayOpen":"00:00","holidayClose":"23:59","feeInfo":"무료","phone":"063-454-3812","updatedAt":"2025-11-17","sido":"전북특별자치도","sigungu":"군산시","dong":"신영동"},{"name":"구암","type":"공영","category":"노상","address":"전북특별자치도 군산시 강변로246","lat":35.99152494,"lng":126.7481475,"totalSpaces":34,"isFree":true,"operatingDays":"평일+토요일+공휴일","weekdayOpen":"00:00","weekdayClose":"23:59","weekendOpen":"00:00","weekendClose":"23:59","holidayOpen":"00:00","holidayClose":"23:59","feeInfo":"무료","phone":"063-454-3812","updatedAt":"2025-11-17","sido":"전북특별자치도","sigungu":"군산시","dong":"내흥동"},{"name":"미룡동 1","type":"공영","category":"노외","address":"전북특별자치도 군산시 미제1길 5-10 (미룡동 )","lat":35.948296,"lng":126.685947,"totalSpaces":33,"isFree":true,"operatingDays":"평일+토요일+공휴일","weekdayOpen":"00:00","weekdayClose":"23:59","weekendOpen":"00:00","weekendClose":"23:59","holidayOpen":"00:00","holidayClose":"23:59","feeInfo":"무료","phone":"063-454-3812","updatedAt":"2025-11-17","sido":"전북특별자치도","sigungu":"군산시","dong":"미룡동"},{"name":"조촌동 9","type":"공영","category":"노외","address":"전북특별자치도 군산시 부골2길 32 (조촌동 )","lat":35.97432494,"lng":126.740976,"totalSpaces":33,"isFree":true,"operatingDays":"평일+토요일+공휴일","weekdayOpen":"00:00","weekdayClose":"23:59","weekendOpen":"00:00","weekendClose":"23:59","holidayOpen":"00:00","holidayClose":"23:59","feeInfo":"무료","phone":"063-454-3812","updatedAt":"2025-11-17","sido":"전북특별자치도","sigungu":"군산시","dong":"조촌동"},{"name":"해신동 4","type":"공영","category":"노외","address":"전북특별자치도 군산시 절골2길 17-5 (신흥동 )","lat":35.9864292,"lng":126.7046043,"totalSpaces":33,"isFree":true,"operatingDays":"평일+토요일+공휴일","weekdayOpen":"00:00","weekdayClose":"23:59","weekendOpen":"00:00","weekendClose":"23:59","holidayOpen":"00:00","holidayClose":"23:59","feeInfo":"무료","phone":"063-454-3812","updatedAt":"2025-11-17","sido":"전북특별자치도","sigungu":"군산시","dong":"신흥동"},{"name":"임피면4","type":"공영","category":"노외","address":"전북특별자치도 군산시 임피면 호원대1길8, (월하리)","lat":35.958748,"lng":126.870668,"totalSpaces":33,"isFree":true,"operatingDays":"평일+토요일+공휴일","weekdayOpen":"00:00","weekdayClose":"23:59","weekendOpen":"00:00","weekendClose":"23:59","holidayOpen":"00:00","holidayClose":"23:59","feeInfo":"무료","phone":"063-454-3812","updatedAt":"2025-11-17","sido":"전북특별자치도","sigungu":"군산시","dong":"임피면"},{"name":"삼학동 2","type":"공영","category":"노외","address":"전북특별자치도 군산시 대학로116, (금광동 , 금광동 )","lat":35.980727,"lng":126.706756,"totalSpaces":32,"isFree":true,"operatingDays":"평일+토요일+공휴일","weekdayOpen":"00:00","weekdayClose":"23:59","weekendOpen":"00:00","weekendClose":"23:59","holidayOpen":"00:00","holidayClose":"23:59","feeInfo":"무료","phone":"063-454-3812","updatedAt":"2025-11-17","sido":"전북특별자치도","sigungu":"군산시","dong":"금광동"},{"name":"수송동 8","type":"공영","category":"노상","address":"전북특별자치도 군산시 월명로 216 (수송동 )","lat":35.963135,"lng":126.716089,"totalSpaces":32,"isFree":true,"operatingDays":"평일+토요일+공휴일","weekdayOpen":"00:00","weekdayClose":"23:59","weekendOpen":"00:00","weekendClose":"23:59","holidayOpen":"00:00","holidayClose":"23:59","feeInfo":"무료","phone":"063-454-3812","updatedAt":"2025-11-17","sido":"전북특별자치도","sigungu":"군산시","dong":"수송동"},{"name":"월명동 4","type":"공영","category":"노외","address":"전북특별자치도 군산시 월명로 426-1 (선양동 )","lat":35.98149962,"lng":126.713518,"totalSpaces":31,"isFree":true,"operatingDays":"평일+토요일+공휴일","weekdayOpen":"00:00","weekdayClose":"23:59","weekendOpen":"00:00","weekendClose":"23:59","holidayOpen":"00:00","holidayClose":"23:59","feeInfo":"무료","phone":"063-454-3812","updatedAt":"2025-11-17","sido":"전북특별자치도","sigungu":"군산시","dong":"선양동"},{"name":"수송동 2","type":"공영","category":"노외","address":"전북특별자치도 군산시 진포3길 32 (수송동 )","lat":35.97290549,"lng":126.718946,"totalSpaces":30,"isFree":true,"operatingDays":"평일+토요일+공휴일","weekdayOpen":"00:00","weekdayClose":"23:59","weekendOpen":"00:00","weekendClose":"23:59","holidayOpen":"00:00","holidayClose":"23:59","feeInfo":"무료","phone":"063-454-3812","updatedAt":"2025-11-17","sido":"전북특별자치도","sigungu":"군산시","dong":"수송동"},{"name":"수송동 3","type":"공영","category":"노외","address":"전북특별자치도 군산시 월명로 319 (수송동 )","lat":35.972624,"lng":126.715468,"totalSpaces":30,"isFree":true,"operatingDays":"평일+토요일+공휴일","weekdayOpen":"00:00","weekdayClose":"23:59","weekendOpen":"00:00","weekendClose":"23:59","holidayOpen":"00:00","holidayClose":"23:59","feeInfo":"무료","phone":"063-454-3812","updatedAt":"2025-11-17","sido":"전북특별자치도","sigungu":"군산시","dong":"수송동"},{"name":"개정면2","type":"공영","category":"노외","address":"전북특별자치도 군산시 개정면 개정문화길99, (통사리)","lat":35.953948,"lng":126.800403,"totalSpaces":30,"isFree":true,"operatingDays":"평일+토요일+공휴일","weekdayOpen":"00:00","weekdayClose":"23:59","weekendOpen":"00:00","weekendClose":"23:59","holidayOpen":"00:00","holidayClose":"23:59","feeInfo":"무료","phone":"063-454-3812","updatedAt":"2025-11-17","sido":"전북특별자치도","sigungu":"군산시","dong":"개정면"},{"name":"개정면3","type":"공영","category":"노외","address":"전북특별자치도 군산시 개정면 개정문화길33-9, (통사리)","lat":35.95365817,"lng":126.801283,"totalSpaces":30,"isFree":true,"operatingDays":"평일+토요일+공휴일","weekdayOpen":"00:00","weekdayClose":"23:59","weekendOpen":"00:00","weekendClose":"23:59","holidayOpen":"00:00","holidayClose":"23:59","feeInfo":"무료","phone":"063-454-3812","updatedAt":"2025-11-17","sido":"전북특별자치도","sigungu":"군산시","dong":"개정면"},{"name":"경암동 1","type":"공영","category":"노외","address":"전북특별자치도 군산시 경포1길 3 (경암동 )","lat":35.981169,"lng":126.7288248,"totalSpaces":29,"isFree":true,"operatingDays":"평일+토요일+공휴일","weekdayOpen":"00:00","weekdayClose":"23:59","weekendOpen":"00:00","weekendClose":"23:59","holidayOpen":"00:00","holidayClose":"23:59","feeInfo":"무료","phone":"063-454-3812","updatedAt":"2025-11-17","sido":"전북특별자치도","sigungu":"군산시","dong":"경암동"},{"name":"나운1","type":"공영","category":"노상","address":"전북특별자치도 군산시 하신3길23, 나운동 (나운동 )","lat":35.970074,"lng":126.7009152,"totalSpaces":29,"isFree":true,"operatingDays":"평일+토요일+공휴일","weekdayOpen":"00:00","weekdayClose":"23:59","weekendOpen":"00:00","weekendClose":"23:59","holidayOpen":"00:00","holidayClose":"23:59","feeInfo":"무료","phone":"063-454-3812","updatedAt":"2025-11-17","sido":"전북특별자치도","sigungu":"군산시","dong":"나운동"},{"name":"대야면2","type":"공영","category":"노외","address":"전북특별자치도 군산시 대야면 대야관통로108, (산월리)","lat":35.945428,"lng":126.817324,"totalSpaces":28,"isFree":true,"operatingDays":"평일+토요일+공휴일","weekdayOpen":"00:00","weekdayClose":"23:59","weekendOpen":"00:00","weekendClose":"23:59","holidayOpen":"00:00","holidayClose":"23:59","feeInfo":"무료","phone":"063-454-3812","updatedAt":"2025-11-17","sido":"전북특별자치도","sigungu":"군산시","dong":"대야면"},{"name":"삼학동 1","type":"공영","category":"노외","address":"전북특별자치도 군산시 동 국사길19, (금광동 , 베르하임)","lat":35.9824897,"lng":126.707832,"totalSpaces":27,"isFree":true,"operatingDays":"평일+토요일+공휴일","weekdayOpen":"00:00","weekdayClose":"23:59","weekendOpen":"00:00","weekendClose":"23:59","holidayOpen":"00:00","holidayClose":"23:59","feeInfo":"무료","phone":"063-454-3812","updatedAt":"2025-11-17","sido":"전북특별자치도","sigungu":"군산시","dong":"금광동"},{"name":"성산면2","type":"공영","category":"노외","address":"전북특별자치도 군산시 성산면 창오2길46, (창오리)","lat":35.986776,"lng":126.8161963,"totalSpaces":27,"isFree":true,"operatingDays":"평일+토요일+공휴일","weekdayOpen":"00:00","weekdayClose":"23:59","weekendOpen":"00:00","weekendClose":"23:59","holidayOpen":"00:00","holidayClose":"23:59","feeInfo":"무료","phone":"063-454-3812","updatedAt":"2025-11-17","sido":"전북특별자치도","sigungu":"군산시","dong":"성산면"},{"name":"경암동 2","type":"공영","category":"노외","address":"전북특별자치도 군산시 경암2길 27-3 (경암동 )","lat":35.976078,"lng":126.7280158,"totalSpaces":27,"isFree":true,"operatingDays":"평일+토요일+공휴일","weekdayOpen":"00:00","weekdayClose":"23:59","weekendOpen":"00:00","weekendClose":"23:59","holidayOpen":"00:00","holidayClose":"23:59","feeInfo":"무료","phone":"063-454-3812","updatedAt":"2025-11-17","sido":"전북특별자치도","sigungu":"군산시","dong":"경암동"},{"name":"해신동 9","type":"공영","category":"노외","address":"전북특별자치도 군산시 내항2길 216 (금동 )","lat":35.99398546,"lng":126.7047421,"totalSpaces":27,"isFree":true,"operatingDays":"평일+토요일+공휴일","weekdayOpen":"00:00","weekdayClose":"23:59","weekendOpen":"00:00","weekendClose":"23:59","holidayOpen":"00:00","holidayClose":"23:59","feeInfo":"무료","phone":"063-454-3812","updatedAt":"2025-11-17","sido":"전북특별자치도","sigungu":"군산시","dong":"금동"},{"name":"중앙동 4","type":"공영","category":"노외","address":"전북특별자치도 군산시 신영1길 26 (평화동 )","lat":35.984343,"lng":126.7187542,"totalSpaces":27,"isFree":true,"operatingDays":"평일+토요일+공휴일","weekdayOpen":"00:00","weekdayClose":"23:59","weekendOpen":"00:00","weekendClose":"23:59","holidayOpen":"00:00","holidayClose":"23:59","feeInfo":"무료","phone":"063-454-3812","updatedAt":"2025-11-17","sido":"전북특별자치도","sigungu":"군산시","dong":"평화동"},{"name":"월명동 3","type":"공영","category":"노외","address":"전북특별자치도 군산시 청소년회관로 56 (송풍동 )","lat":35.98022243,"lng":126.6991739,"totalSpaces":26,"isFree":true,"operatingDays":"평일+토요일+공휴일","weekdayOpen":"00:00","weekdayClose":"23:59","weekendOpen":"00:00","weekendClose":"23:59","holidayOpen":"00:00","holidayClose":"23:59","feeInfo":"무료","phone":"063-454-3812","updatedAt":"2025-11-17","sido":"전북특별자치도","sigungu":"군산시","dong":"송풍동"},{"name":"나운10","type":"공영","category":"노외","address":"전북특별자치도 군산시 용둔길 37-21 (미룡동 )","lat":35.942479,"lng":126.697747,"totalSpaces":25,"isFree":true,"operatingDays":"평일+토요일+공휴일","weekdayOpen":"00:00","weekdayClose":"23:59","weekendOpen":"00:00","weekendClose":"23:59","holidayOpen":"00:00","holidayClose":"23:59","feeInfo":"무료","phone":"063-454-3812","updatedAt":"2025-11-17","sido":"전북특별자치도","sigungu":"군산시","dong":"미룡동"},{"name":"회현면1","type":"공영","category":"노외","address":"전북특별자치도 군산시 회현면 구율3길7-4, (원우리)","lat":35.936376,"lng":126.777351,"totalSpaces":25,"isFree":true,"operatingDays":"평일+토요일+공휴일","weekdayOpen":"00:00","weekdayClose":"23:59","weekendOpen":"00:00","weekendClose":"23:59","holidayOpen":"00:00","holidayClose":"23:59","feeInfo":"무료","phone":"063-454-3812","updatedAt":"2025-11-17","sido":"전북특별자치도","sigungu":"군산시","dong":"회현면"},{"name":"조촌동 7","type":"공영","category":"노외","address":"전북특별자치도 군산시 조촌4길 25 (조촌동 )","lat":35.9687007,"lng":126.735766,"totalSpaces":25,"isFree":true,"operatingDays":"평일+토요일+공휴일","weekdayOpen":"00:00","weekdayClose":"23:59","weekendOpen":"00:00","weekendClose":"23:59","holidayOpen":"00:00","holidayClose":"23:59","feeInfo":"무료","phone":"063-454-3812","updatedAt":"2025-11-17","sido":"전북특별자치도","sigungu":"군산시","dong":"조촌동"},{"name":"월명동 6","type":"공영","category":"노상","address":"전북특별자치도 군산시 구영7길 69 (신창동 )","lat":35.98676791,"lng":126.7104599,"totalSpaces":24,"isFree":true,"operatingDays":"평일+토요일+공휴일","weekdayOpen":"00:00","weekdayClose":"23:59","weekendOpen":"00:00","weekendClose":"23:59","holidayOpen":"00:00","holidayClose":"23:59","feeInfo":"무료","phone":"063-454-3812","updatedAt":"2025-11-17","sido":"전북특별자치도","sigungu":"군산시","dong":"신창동"},{"name":"수송동 6","type":"공영","category":"노상","address":"전북특별자치도 군산시 월명로 250 (수송동 )","lat":35.966263,"lng":126.716115,"totalSpaces":24,"isFree":true,"operatingDays":"평일+토요일+공휴일","weekdayOpen":"00:00","weekdayClose":"23:59","weekendOpen":"00:00","weekendClose":"23:59","holidayOpen":"00:00","holidayClose":"23:59","feeInfo":"무료","phone":"063-454-3812","updatedAt":"2025-11-17","sido":"전북특별자치도","sigungu":"군산시","dong":"수송동"},{"name":"해신동 8","type":"공영","category":"노외","address":"전북특별자치도 군산시 해망로 429 (해망동 )","lat":35.98628238,"lng":126.6949149,"totalSpaces":24,"isFree":true,"operatingDays":"평일+토요일+공휴일","weekdayOpen":"00:00","weekdayClose":"23:59","weekendOpen":"00:00","weekendClose":"23:59","holidayOpen":"00:00","holidayClose":"23:59","feeInfo":"무료","phone":"063-454-3812","updatedAt":"2025-11-17","sido":"전북특별자치도","sigungu":"군산시","dong":"해망동"},{"name":"해신동 11","type":"공영","category":"노외","address":"전북특별자치도 군산시 장계2길 29 (해망동 )","lat":35.986673,"lng":126.6965963,"totalSpaces":24,"isFree":true,"operatingDays":"평일+토요일+공휴일","weekdayOpen":"00:00","weekdayClose":"23:59","weekendOpen":"00:00","weekendClose":"23:59","holidayOpen":"00:00","holidayClose":"23:59","feeInfo":"무료","phone":"063-454-3812","updatedAt":"2025-11-17","sido":"전북특별자치도","sigungu":"군산시","dong":"해망동"},{"name":"조촌동 12","type":"공영","category":"노외","address":"전북특별자치도 군산시 양안로 18 (조촌동 )","lat":35.969844,"lng":126.7351645,"totalSpaces":24,"isFree":true,"operatingDays":"평일+토요일+공휴일","weekdayOpen":"00:00","weekdayClose":"23:59","weekendOpen":"00:00","weekendClose":"23:59","holidayOpen":"00:00","holidayClose":"23:59","feeInfo":"무료","phone":"063-454-3812","updatedAt":"2025-11-17","sido":"전북특별자치도","sigungu":"군산시","dong":"조촌동"},{"name":"조촌동 1","type":"공영","category":"노외","address":"전북특별자치도 군산시 구암로 50","lat":35.981742,"lng":126.745605,"totalSpaces":24,"isFree":true,"operatingDays":"평일+토요일+공휴일","weekdayOpen":"00:00","weekdayClose":"23:59","weekendOpen":"00:00","weekendClose":"23:59","holidayOpen":"00:00","holidayClose":"23:59","feeInfo":"무료","phone":"063-454-3812","updatedAt":"2025-11-17","sido":"전북특별자치도","sigungu":"군산시","dong":"조촌동"},{"name":"삼학동 5","type":"공영","category":"노외","address":"전북특별자치도 군산시 삼학1길 23 (삼학동 )","lat":35.975568,"lng":126.711486,"totalSpaces":22,"isFree":true,"operatingDays":"평일+토요일+공휴일","weekdayOpen":"00:00","weekdayClose":"23:59","weekendOpen":"00:00","weekendClose":"23:59","holidayOpen":"00:00","holidayClose":"23:59","feeInfo":"무료","phone":"063-454-3812","updatedAt":"2025-11-17","sido":"전북특별자치도","sigungu":"군산시","dong":"삼학동"},{"name":"나운2","type":"공영","category":"노외","address":"전북특별자치도 군산시 상나운2길30-4, (나운동 )","lat":35.965163,"lng":126.691089,"totalSpaces":22,"isFree":true,"operatingDays":"평일+토요일+공휴일","weekdayOpen":"00:00","weekdayClose":"23:59","weekendOpen":"00:00","weekendClose":"23:59","holidayOpen":"00:00","holidayClose":"23:59","feeInfo":"무료","phone":"063-454-3812","updatedAt":"2025-11-17","sido":"전북특별자치도","sigungu":"군산시","dong":"나운동"},{"name":"중앙동 2","type":"공영","category":"노상","address":"전북특별자치도 군산시 신영1길 26 (평화동 )","lat":35.984343,"lng":126.7187542,"totalSpaces":22,"isFree":true,"operatingDays":"평일+토요일+공휴일","weekdayOpen":"00:00","weekdayClose":"23:59","weekendOpen":"00:00","weekendClose":"23:59","holidayOpen":"00:00","holidayClose":"23:59","feeInfo":"무료","phone":"063-454-3812","updatedAt":"2025-11-17","sido":"전북특별자치도","sigungu":"군산시","dong":"평화동"},{"name":"수송동 4","type":"공영","category":"노상","address":"전북특별자치도 군산시 수송동 로100, (수송동 , 세영리첼)","lat":35.96932149,"lng":126.7201911,"totalSpaces":22,"isFree":true,"operatingDays":"평일+토요일+공휴일","weekdayOpen":"00:00","weekdayClose":"23:59","weekendOpen":"00:00","weekendClose":"23:59","holidayOpen":"00:00","holidayClose":"23:59","feeInfo":"무료","phone":"063-454-3812","updatedAt":"2025-11-17","sido":"전북특별자치도","sigungu":"군산시","dong":"수송동"},{"name":"수송동 5","type":"공영","category":"노상","address":"전북특별자치도 군산시 수송동 로 58 (수송동 )","lat":35.96473237,"lng":126.7201807,"totalSpaces":22,"isFree":true,"operatingDays":"평일+토요일+공휴일","weekdayOpen":"00:00","weekdayClose":"23:59","weekendOpen":"00:00","weekendClose":"23:59","holidayOpen":"00:00","holidayClose":"23:59","feeInfo":"무료","phone":"063-454-3812","updatedAt":"2025-11-17","sido":"전북특별자치도","sigungu":"군산시","dong":"수송동"},{"name":"나운5","type":"공영","category":"노외","address":"전북특별자치도 군산시 하신2길 30-3 (나운동 , 금정연립주택)","lat":35.96832625,"lng":126.700639,"totalSpaces":21,"isFree":true,"operatingDays":"평일+토요일+공휴일","weekdayOpen":"00:00","weekdayClose":"23:59","weekendOpen":"00:00","weekendClose":"23:59","holidayOpen":"00:00","holidayClose":"23:59","feeInfo":"무료","phone":"063-454-3812","updatedAt":"2025-11-17","sido":"전북특별자치도","sigungu":"군산시","dong":"나운동"},{"name":"나운6","type":"공영","category":"노외","address":"전북특별자치도 군산시 서수송1길 9 (나운동 )","lat":35.964247,"lng":126.709707,"totalSpaces":20,"isFree":true,"operatingDays":"평일+토요일+공휴일","weekdayOpen":"00:00","weekdayClose":"23:59","weekendOpen":"00:00","weekendClose":"23:59","holidayOpen":"00:00","holidayClose":"23:59","feeInfo":"무료","phone":"063-454-3812","updatedAt":"2025-11-17","sido":"전북특별자치도","sigungu":"군산시","dong":"나운동"},{"name":"수송동 10","type":"공영","category":"노상","address":"전북특별자치도 군산시 축동 1길 15-2 (수송동 )","lat":35.965462,"lng":126.713734,"totalSpaces":20,"isFree":true,"operatingDays":"평일+토요일+공휴일","weekdayOpen":"00:00","weekdayClose":"23:59","weekendOpen":"00:00","weekendClose":"23:59","holidayOpen":"00:00","holidayClose":"23:59","feeInfo":"무료","phone":"063-454-3812","updatedAt":"2025-11-17","sido":"전북특별자치도","sigungu":"군산시","dong":"수송동"},{"name":"월명동 1","type":"공영","category":"노상","address":"전북특별자치도 군산시 오룡로 44 (송창동 )","lat":35.981137,"lng":126.7097397,"totalSpaces":20,"isFree":true,"operatingDays":"평일+토요일+공휴일","weekdayOpen":"00:00","weekdayClose":"23:59","weekendOpen":"00:00","weekendClose":"23:59","holidayOpen":"00:00","holidayClose":"23:59","feeInfo":"무료","phone":"063-454-3812","updatedAt":"2025-11-17","sido":"전북특별자치도","sigungu":"군산시","dong":"송창동"},{"name":"조촌동 8","type":"공영","category":"노외","address":"전북특별자치도 군산시 조촌로 13 (조촌동 )","lat":35.965255,"lng":126.737539,"totalSpaces":20,"isFree":true,"operatingDays":"평일+토요일+공휴일","weekdayOpen":"00:00","weekdayClose":"23:59","weekendOpen":"00:00","weekendClose":"23:59","holidayOpen":"00:00","holidayClose":"23:59","feeInfo":"무료","phone":"063-454-3812","updatedAt":"2025-11-17","sido":"전북특별자치도","sigungu":"군산시","dong":"조촌동"},{"name":"조촌동 13","type":"공영","category":"노외","address":"전북특별자치도 군산시 백릉로 142-9 (조촌동)","lat":35.97530335,"lng":126.7417389,"totalSpaces":20,"isFree":true,"operatingDays":"평일+토요일+공휴일","weekdayOpen":"00:00","weekdayClose":"23:59","weekendOpen":"00:00","weekendClose":"23:59","holidayOpen":"00:00","holidayClose":"23:59","feeInfo":"무료","phone":"063-454-3812","updatedAt":"2025-11-17","sido":"전북특별자치도","sigungu":"군산시","dong":"조촌동"},{"name":"월명동 6","type":"공영","category":"노외","address":"전북특별자치도 군산시 선양2길 42 (선양동 )","lat":35.980735,"lng":126.711779,"totalSpaces":20,"isFree":true,"operatingDays":"평일+토요일+공휴일","weekdayOpen":"00:00","weekdayClose":"23:59","weekendOpen":"00:00","weekendClose":"23:59","holidayOpen":"00:00","holidayClose":"23:59","feeInfo":"무료","phone":"063-454-3812","updatedAt":"2025-11-17","sido":"전북특별자치도","sigungu":"군산시","dong":"선양동"},{"name":"월명동 9","type":"공영","category":"노외","address":"전북특별자치도 군산시 선양1길 7-7 (송창동 )","lat":35.982169,"lng":126.711001,"totalSpaces":20,"isFree":true,"operatingDays":"평일+토요일+공휴일","weekdayOpen":"00:00","weekdayClose":"23:59","weekendOpen":"00:00","weekendClose":"23:59","holidayOpen":"00:00","holidayClose":"23:59","feeInfo":"무료","phone":"063-454-3812","updatedAt":"2025-11-17","sido":"전북특별자치도","sigungu":"군산시","dong":"송창동"},{"name":"수송동 8","type":"공영","category":"노외","address":"전북특별자치도 군산시 축동 2길 39-4 (수송동 )","lat":35.968669,"lng":126.714436,"totalSpaces":20,"isFree":true,"operatingDays":"평일+토요일+공휴일","weekdayOpen":"00:00","weekdayClose":"23:59","weekendOpen":"00:00","weekendClose":"23:59","holidayOpen":"00:00","holidayClose":"23:59","feeInfo":"무료","phone":"063-454-3812","updatedAt":"2025-11-17","sido":"전북특별자치도","sigungu":"군산시","dong":"수송동"},{"name":"옥서면4","type":"공영","category":"노외","address":"전북특별자치도 군산시 옥서면 옥봉들3길7, (옥봉리)","lat":35.923762,"lng":126.6441108,"totalSpaces":20,"isFree":true,"operatingDays":"평일+토요일+공휴일","weekdayOpen":"00:00","weekdayClose":"23:59","weekendOpen":"00:00","weekendClose":"23:59","holidayOpen":"00:00","holidayClose":"23:59","feeInfo":"무료","phone":"063-454-3812","updatedAt":"2025-11-17","sido":"전북특별자치도","sigungu":"군산시","dong":"옥서면"},{"name":"흥남동 1","type":"공영","category":"노외","address":"전북특별자치도 군산시 중앙로 44-4 (대명동 )","lat":35.978961,"lng":126.721166,"totalSpaces":19,"isFree":true,"operatingDays":"평일+토요일+공휴일","weekdayOpen":"00:00","weekdayClose":"23:59","weekendOpen":"00:00","weekendClose":"23:59","holidayOpen":"00:00","holidayClose":"23:59","feeInfo":"무료","phone":"063-454-3812","updatedAt":"2025-11-17","sido":"전북특별자치도","sigungu":"군산시","dong":"대명동"},{"name":"흥남동 2","type":"공영","category":"노외","address":"전북특별자치도 군산시 대명2길 14-1 (대명동 )","lat":35.981377,"lng":126.7194994,"totalSpaces":19,"isFree":true,"operatingDays":"평일+토요일+공휴일","weekdayOpen":"00:00","weekdayClose":"23:59","weekendOpen":"00:00","weekendClose":"23:59","holidayOpen":"00:00","holidayClose":"23:59","feeInfo":"무료","phone":"063-454-3812","updatedAt":"2025-11-17","sido":"전북특별자치도","sigungu":"군산시","dong":"대명동"},{"name":"동 부시장 공영주차장(경암동 )","type":"공영","category":"노외","address":"전북특별자치도 군산시 경암로53, 경암동 (경암동 )","lat":35.975667,"lng":126.730045,"totalSpaces":19,"isFree":true,"operatingDays":"평일+토요일+공휴일","weekdayOpen":"00:00","weekdayClose":"23:59","weekendOpen":"00:00","weekendClose":"23:59","holidayOpen":"00:00","holidayClose":"23:59","feeInfo":"무료","phone":"063-454-3812","updatedAt":"2025-11-17","sido":"전북특별자치도","sigungu":"군산시","dong":"경암동"},{"name":"중앙동 5","type":"공영","category":"노외","address":"전북특별자치도 군산시 대명2길 31-2 (평화동 )","lat":35.98292359,"lng":126.718935,"totalSpaces":19,"isFree":true,"operatingDays":"평일+토요일+공휴일","weekdayOpen":"00:00","weekdayClose":"23:59","weekendOpen":"00:00","weekendClose":"23:59","holidayOpen":"00:00","holidayClose":"23:59","feeInfo":"무료","phone":"063-454-3812","updatedAt":"2025-11-17","sido":"전북특별자치도","sigungu":"군산시","dong":"평화동"},{"name":"신풍동 1","type":"공영","category":"노외","address":"전북특별자치도 군산시 문화1길 68-6 (문화동 )","lat":35.976263,"lng":126.704855,"totalSpaces":19,"isFree":true,"operatingDays":"평일+토요일+공휴일","weekdayOpen":"00:00","weekdayClose":"23:59","weekendOpen":"00:00","weekendClose":"23:59","holidayOpen":"00:00","holidayClose":"23:59","feeInfo":"무료","phone":"063-454-3812","updatedAt":"2025-11-17","sido":"전북특별자치도","sigungu":"군산시","dong":"문화동"},{"name":"조촌동 14","type":"공영","category":"노외","address":"전북특별자치도 군산시 검다메2길 37 (조촌동)","lat":35.9691841083,"lng":126.741847812,"totalSpaces":18,"isFree":true,"operatingDays":"평일+토요일+공휴일","weekdayOpen":"00:00","weekdayClose":"23:59","weekendOpen":"00:00","weekendClose":"23:59","holidayOpen":"00:00","holidayClose":"23:59","feeInfo":"무료","phone":"063-454-3812","updatedAt":"2025-11-17","sido":"전북특별자치도","sigungu":"군산시","dong":"조촌동"},{"name":"해신동 3","type":"공영","category":"노외","address":"전북특별자치도 군산시 신흥3길 16 (신흥동 )","lat":35.987538,"lng":126.704904,"totalSpaces":18,"isFree":true,"operatingDays":"평일+토요일+공휴일","weekdayOpen":"00:00","weekdayClose":"23:59","weekendOpen":"00:00","weekendClose":"23:59","holidayOpen":"00:00","holidayClose":"23:59","feeInfo":"무료","phone":"063-454-3812","updatedAt":"2025-11-17","sido":"전북특별자치도","sigungu":"군산시","dong":"신흥동"},{"name":"월명동 14","type":"공영","category":"노외","address":"전북특별자치도 군산시 아리랑로13-1, 한겨레문화센터 (개복동 )","lat":35.98411691,"lng":126.714395,"totalSpaces":18,"isFree":true,"operatingDays":"평일+토요일+공휴일","weekdayOpen":"00:00","weekdayClose":"23:59","weekendOpen":"00:00","weekendClose":"23:59","holidayOpen":"00:00","holidayClose":"23:59","feeInfo":"무료","phone":"063-454-3812","updatedAt":"2025-11-17","sido":"전북특별자치도","sigungu":"군산시","dong":"개복동"},{"name":"대야면1","type":"공영","category":"노외","address":"전북특별자치도 군산시 대야면 대야시장로19, (산월리)","lat":35.945238,"lng":126.817227,"totalSpaces":17,"isFree":true,"operatingDays":"평일+토요일+공휴일","weekdayOpen":"00:00","weekdayClose":"23:59","weekendOpen":"00:00","weekendClose":"23:59","holidayOpen":"00:00","holidayClose":"23:59","feeInfo":"무료","phone":"063-454-3812","updatedAt":"2025-11-17","sido":"전북특별자치도","sigungu":"군산시","dong":"대야면"},{"name":"경암동 3","type":"공영","category":"노외","address":"전북특별자치도 군산시 경암2길 20-1 (경암동 )","lat":35.97552692,"lng":126.728617,"totalSpaces":17,"isFree":true,"operatingDays":"평일+토요일+공휴일","weekdayOpen":"00:00","weekdayClose":"23:59","weekendOpen":"00:00","weekendClose":"23:59","holidayOpen":"00:00","holidayClose":"23:59","feeInfo":"무료","phone":"063-454-3812","updatedAt":"2025-11-17","sido":"전북특별자치도","sigungu":"군산시","dong":"경암동"},{"name":"조촌동 3","type":"공영","category":"노외","address":"전북특별자치도 군산시 부골1길 1 (조촌동 )","lat":35.97344609,"lng":126.7379982,"totalSpaces":17,"isFree":true,"operatingDays":"평일+토요일+공휴일","weekdayOpen":"00:00","weekdayClose":"23:59","weekendOpen":"00:00","weekendClose":"23:59","holidayOpen":"00:00","holidayClose":"23:59","feeInfo":"무료","phone":"063-454-3812","updatedAt":"2025-11-17","sido":"전북특별자치도","sigungu":"군산시","dong":"조촌동"},{"name":"옥구읍1","type":"공영","category":"노외","address":"전북특별자치도 군산시 옥구읍 옥구로6, (선제리)","lat":35.92288645,"lng":126.685392,"totalSpaces":17,"isFree":true,"operatingDays":"평일+토요일+공휴일","weekdayOpen":"00:00","weekdayClose":"23:59","weekendOpen":"00:00","weekendClose":"23:59","holidayOpen":"00:00","holidayClose":"23:59","feeInfo":"무료","phone":"063-454-3812","updatedAt":"2025-11-17","sido":"전북특별자치도","sigungu":"군산시","dong":"옥구읍"},{"name":"조촌동 3","type":"공영","category":"노상","address":"전북특별자치도 군산시 진포로 142 (경장동 )","lat":35.971243,"lng":126.7336394,"totalSpaces":16,"isFree":true,"operatingDays":"평일+토요일+공휴일","weekdayOpen":"00:00","weekdayClose":"23:59","weekendOpen":"00:00","weekendClose":"23:59","holidayOpen":"00:00","holidayClose":"23:59","feeInfo":"무료","phone":"063-454-3812","updatedAt":"2025-11-17","sido":"전북특별자치도","sigungu":"군산시","dong":"경장동"},{"name":"월명동 8","type":"공영","category":"노외","address":"전북특별자치도 군산시 선양안길 25 (선양동 )","lat":35.980467,"lng":126.711129,"totalSpaces":16,"isFree":true,"operatingDays":"평일+토요일+공휴일","weekdayOpen":"00:00","weekdayClose":"23:59","weekendOpen":"00:00","weekendClose":"23:59","holidayOpen":"00:00","holidayClose":"23:59","feeInfo":"무료","phone":"063-454-3812","updatedAt":"2025-11-17","sido":"전북특별자치도","sigungu":"군산시","dong":"선양동"},{"name":"임피면2","type":"공영","category":"노외","address":"전북특별자치도 군산시 임피면 소령안길46-8, (영창리)","lat":35.96945586,"lng":126.874452,"totalSpaces":16,"isFree":true,"operatingDays":"평일+토요일+공휴일","weekdayOpen":"00:00","weekdayClose":"23:59","weekendOpen":"00:00","weekendClose":"23:59","holidayOpen":"00:00","holidayClose":"23:59","feeInfo":"무료","phone":"063-454-3812","updatedAt":"2025-11-17","sido":"전북특별자치도","sigungu":"군산시","dong":"임피면"},{"name":"옥서면3","type":"공영","category":"노외","address":"전북특별자치도 군산시 옥서면 원성산1길34, (옥봉리)","lat":35.925458,"lng":126.644263,"totalSpaces":16,"isFree":true,"operatingDays":"평일+토요일+공휴일","weekdayOpen":"00:00","weekdayClose":"23:59","weekendOpen":"00:00","weekendClose":"23:59","holidayOpen":"00:00","holidayClose":"23:59","feeInfo":"무료","phone":"063-454-3812","updatedAt":"2025-11-17","sido":"전북특별자치도","sigungu":"군산시","dong":"옥서면"},{"name":"삼학동 7","type":"공영","category":"노외","address":"전북특별자치도 군산시 기와골3길 17-1 (오룡동 )","lat":35.97803635,"lng":126.708795,"totalSpaces":15,"isFree":true,"operatingDays":"평일+토요일+공휴일","weekdayOpen":"00:00","weekdayClose":"23:59","weekendOpen":"00:00","weekendClose":"23:59","holidayOpen":"00:00","holidayClose":"23:59","feeInfo":"무료","phone":"063-454-3812","updatedAt":"2025-11-17","sido":"전북특별자치도","sigungu":"군산시","dong":"오룡동"},{"name":"흥남동 4","type":"공영","category":"노외","address":"전북특별자치도 군산시 팔마로 195-6","lat":35.9740857,"lng":126.723033,"totalSpaces":15,"isFree":true,"operatingDays":"평일+토요일+공휴일","weekdayOpen":"00:00","weekdayClose":"23:59","weekendOpen":"00:00","weekendClose":"23:59","holidayOpen":"00:00","holidayClose":"23:59","feeInfo":"무료","phone":"063-454-3812","updatedAt":"2025-11-17","sido":"전북특별자치도","sigungu":"군산시","dong":"동흥남동"},{"name":"월명동 1","type":"공영","category":"노외","address":"전북특별자치도 군산시 중정길17, 씨네마우일 (개복동 )","lat":35.98480346,"lng":126.713564,"totalSpaces":15,"isFree":true,"operatingDays":"평일+토요일+공휴일","weekdayOpen":"00:00","weekdayClose":"23:59","weekendOpen":"00:00","weekendClose":"23:59","holidayOpen":"00:00","holidayClose":"23:59","feeInfo":"무료","phone":"063-454-3812","updatedAt":"2025-11-17","sido":"전북특별자치도","sigungu":"군산시","dong":"개복동"},{"name":"월명동 3","type":"공영","category":"노외","address":"전북특별자치도 군산시 둔배미길 5 (둔율동 )","lat":35.981233,"lng":126.714443,"totalSpaces":15,"isFree":true,"operatingDays":"평일+토요일+공휴일","weekdayOpen":"00:00","weekdayClose":"23:59","weekendOpen":"00:00","weekendClose":"23:59","holidayOpen":"00:00","holidayClose":"23:59","feeInfo":"무료","phone":"063-454-3812","updatedAt":"2025-11-17","sido":"전북특별자치도","sigungu":"군산시","dong":"둔율동"},{"name":"월명동 11","type":"공영","category":"노외","address":"전북특별자치도 군산시 월명1길3, (월명동 , 클래시움)","lat":35.98483359,"lng":126.7066347,"totalSpaces":15,"isFree":true,"operatingDays":"평일+토요일+공휴일","weekdayOpen":"00:00","weekdayClose":"23:59","weekendOpen":"00:00","weekendClose":"23:59","holidayOpen":"00:00","holidayClose":"23:59","feeInfo":"무료","phone":"063-454-3812","updatedAt":"2025-11-17","sido":"전북특별자치도","sigungu":"군산시","dong":"월명동"},{"name":"임피면3","type":"공영","category":"노외","address":"전북특별자치도 군산시 임피면 소령길20, (영창리)","lat":35.969964,"lng":126.8730525,"totalSpaces":15,"isFree":true,"operatingDays":"평일+토요일+공휴일","weekdayOpen":"00:00","weekdayClose":"23:59","weekendOpen":"00:00","weekendClose":"23:59","holidayOpen":"00:00","holidayClose":"23:59","feeInfo":"무료","phone":"063-454-3812","updatedAt":"2025-11-17","sido":"전북특별자치도","sigungu":"군산시","dong":"임피면"},{"name":"개정면1","type":"공영","category":"노외","address":"전북특별자치도 군산시 개정면 개정문화길61, (통사리)","lat":35.95477542,"lng":126.8015501,"totalSpaces":14,"isFree":true,"operatingDays":"평일+토요일+공휴일","weekdayOpen":"00:00","weekdayClose":"23:59","weekendOpen":"00:00","weekendClose":"23:59","holidayOpen":"00:00","holidayClose":"23:59","feeInfo":"무료","phone":"063-454-3812","updatedAt":"2025-11-17","sido":"전북특별자치도","sigungu":"군산시","dong":"개정면"},{"name":"흥남동 3","type":"공영","category":"노외","address":"전북특별자치도 군산시 월명로 377 (미원동 )","lat":35.977803,"lng":126.715208,"totalSpaces":14,"isFree":true,"operatingDays":"평일+토요일+공휴일","weekdayOpen":"00:00","weekdayClose":"23:59","weekendOpen":"00:00","weekendClose":"23:59","holidayOpen":"00:00","holidayClose":"23:59","feeInfo":"무료","phone":"063-454-3812","updatedAt":"2025-11-17","sido":"전북특별자치도","sigungu":"군산시","dong":"미원동"},{"name":"해신동 5","type":"공영","category":"노외","address":"전북특별자치도 군산시 절골1길 17 (신흥동 )","lat":35.98721644,"lng":126.7036998,"totalSpaces":14,"isFree":true,"operatingDays":"평일+토요일+공휴일","weekdayOpen":"00:00","weekdayClose":"23:59","weekendOpen":"00:00","weekendClose":"23:59","holidayOpen":"00:00","holidayClose":"23:59","feeInfo":"무료","phone":"063-454-3812","updatedAt":"2025-11-17","sido":"전북특별자치도","sigungu":"군산시","dong":"신흥동"},{"name":"조촌동 4","type":"공영","category":"노외","address":"전북특별자치도 군산시 조촌로 62 (조촌동 )","lat":35.969543,"lng":126.7382083,"totalSpaces":14,"isFree":true,"operatingDays":"평일+토요일+공휴일","weekdayOpen":"00:00","weekdayClose":"23:59","weekendOpen":"00:00","weekendClose":"23:59","holidayOpen":"00:00","holidayClose":"23:59","feeInfo":"무료","phone":"063-454-3812","updatedAt":"2025-11-17","sido":"전북특별자치도","sigungu":"군산시","dong":"조촌동"},{"name":"삼학동 4","type":"공영","category":"노외","address":"전북특별자치도 군산시 삼학5길 12-8 (삼학동 )","lat":35.977653,"lng":126.7125777,"totalSpaces":13,"isFree":true,"operatingDays":"평일+토요일+공휴일","weekdayOpen":"00:00","weekdayClose":"23:59","weekendOpen":"00:00","weekendClose":"23:59","holidayOpen":"00:00","holidayClose":"23:59","feeInfo":"무료","phone":"063-454-3812","updatedAt":"2025-11-17","sido":"전북특별자치도","sigungu":"군산시","dong":"삼학동"},{"name":"미성동","type":"공영","category":"노상","address":"전북특별자치도 군산시 산북동 2479-3","lat":35.957868206,"lng":126.6576242117,"totalSpaces":13,"isFree":true,"operatingDays":"평일+토요일+공휴일","weekdayOpen":"00:00","weekdayClose":"23:59","weekendOpen":"00:00","weekendClose":"23:59","holidayOpen":"00:00","holidayClose":"23:59","feeInfo":"무료","phone":"063-454-3812","updatedAt":"2025-11-17","sido":"전북특별자치도","sigungu":"군산시","dong":"산북동"},{"name":"해신동 2","type":"공영","category":"노외","address":"전북특별자치도 군산시 해망로 302-2 (금동 )","lat":35.99376932,"lng":126.7062733,"totalSpaces":11,"isFree":true,"operatingDays":"평일+토요일+공휴일","weekdayOpen":"00:00","weekdayClose":"23:59","weekendOpen":"00:00","weekendClose":"23:59","holidayOpen":"00:00","holidayClose":"23:59","feeInfo":"무료","phone":"063-454-3812","updatedAt":"2025-11-17","sido":"전북특별자치도","sigungu":"군산시","dong":"금동"},{"name":"서수면1","type":"공영","category":"노외","address":"전북특별자치도 군산시 서수면 서수문화길62, (서수리)","lat":35.98212191,"lng":126.8661803,"totalSpaces":10,"isFree":true,"operatingDays":"평일+토요일+공휴일","weekdayOpen":"00:00","weekdayClose":"23:59","weekendOpen":"00:00","weekendClose":"23:59","holidayOpen":"00:00","holidayClose":"23:59","feeInfo":"무료","phone":"063-454-3812","updatedAt":"2025-11-17","sido":"전북특별자치도","sigungu":"군산시","dong":"서수면"},{"name":"월명동 7","type":"공영","category":"노외","address":"전북특별자치도 군산시 효자길 23 (선양동 )","lat":35.979623,"lng":126.7122955,"totalSpaces":10,"isFree":true,"operatingDays":"평일+토요일+공휴일","weekdayOpen":"00:00","weekdayClose":"23:59","weekendOpen":"00:00","weekendClose":"23:59","holidayOpen":"00:00","holidayClose":"23:59","feeInfo":"무료","phone":"063-454-3812","updatedAt":"2025-11-17","sido":"전북특별자치도","sigungu":"군산시","dong":"선양동"},{"name":"수송동 1","type":"공영","category":"노외","address":"전북특별자치도 군산시 미장서로 152-1","lat":35.97290697,"lng":126.7242439,"totalSpaces":9,"isFree":true,"operatingDays":"평일+토요일+공휴일","weekdayOpen":"00:00","weekdayClose":"23:59","weekendOpen":"00:00","weekendClose":"23:59","holidayOpen":"00:00","holidayClose":"23:59","feeInfo":"무료","phone":"063-454-3812","updatedAt":"2025-11-17","sido":"전북특별자치도","sigungu":"군산시","dong":"미장동"},{"name":"중앙동 1","type":"공영","category":"노외","address":"전북특별자치도 군산시 해망로 152 (금암동 )","lat":35.98748072,"lng":126.7206948,"totalSpaces":9,"isFree":true,"operatingDays":"평일+토요일+공휴일","weekdayOpen":"00:00","weekdayClose":"23:59","weekendOpen":"00:00","weekendClose":"23:59","holidayOpen":"00:00","holidayClose":"23:59","feeInfo":"무료","phone":"063-454-3812","updatedAt":"2025-11-17","sido":"전북특별자치도","sigungu":"군산시","dong":"금암동"},{"name":"옥서면2","type":"공영","category":"노외","address":"전북특별자치도 군산시 옥서면 신동 1길42, (옥봉리)","lat":35.929247,"lng":126.635821,"totalSpaces":9,"isFree":true,"operatingDays":"평일+토요일+공휴일","weekdayOpen":"00:00","weekdayClose":"23:59","weekendOpen":"00:00","weekendClose":"23:59","holidayOpen":"00:00","holidayClose":"23:59","feeInfo":"무료","phone":"063-454-3812","updatedAt":"2025-11-17","sido":"전북특별자치도","sigungu":"군산시","dong":"옥서면"},{"name":"옥서면1","type":"공영","category":"노외","address":"전북특별자치도 군산시 옥서면 신동 1길123, (옥봉리)","lat":35.929683,"lng":126.634539,"totalSpaces":8,"isFree":true,"operatingDays":"평일+토요일+공휴일","weekdayOpen":"00:00","weekdayClose":"23:59","weekendOpen":"00:00","weekendClose":"23:59","holidayOpen":"00:00","holidayClose":"23:59","feeInfo":"무료","phone":"063-454-3812","updatedAt":"2025-11-17","sido":"전북특별자치도","sigungu":"군산시","dong":"옥서면"},{"name":"월명동 2","type":"공영","category":"노상","address":"전북특별자치도 군산시 오룡로 55-1 (명산동 )","lat":35.982291,"lng":126.7097425,"totalSpaces":6,"isFree":true,"operatingDays":"평일+토요일+공휴일","weekdayOpen":"00:00","weekdayClose":"23:59","weekendOpen":"00:00","weekendClose":"23:59","holidayOpen":"00:00","holidayClose":"23:59","feeInfo":"무료","phone":"063-454-3812","updatedAt":"2025-11-17","sido":"전북특별자치도","sigungu":"군산시","dong":"명산동"},{"name":"임피면1","type":"공영","category":"노외","address":"전북특별자치도 군산시 임피면 소령길53, (영창리)","lat":35.970549,"lng":126.874891,"totalSpaces":6,"isFree":true,"operatingDays":"평일+토요일+공휴일","weekdayOpen":"00:00","weekdayClose":"23:59","weekendOpen":"00:00","weekendClose":"23:59","holidayOpen":"00:00","holidayClose":"23:59","feeInfo":"무료","phone":"063-454-3812","updatedAt":"2025-11-17","sido":"전북특별자치도","sigungu":"군산시","dong":"임피면"},{"name":"해신동 6","type":"공영","category":"노외","address":"전북특별자치도 군산시 절골1길 9 (신흥동 )","lat":35.98651024,"lng":126.703845,"totalSpaces":5,"isFree":true,"operatingDays":"평일+토요일+공휴일","weekdayOpen":"00:00","weekdayClose":"23:59","weekendOpen":"00:00","weekendClose":"23:59","holidayOpen":"00:00","holidayClose":"23:59","feeInfo":"무료","phone":"063-454-3812","updatedAt":"2025-11-17","sido":"전북특별자치도","sigungu":"군산시","dong":"신흥동"},{"name":"월명동 2","type":"공영","category":"노외","address":"전북특별자치도 군산시 아리랑로 25 (창성동 )","lat":35.983291,"lng":126.713911,"totalSpaces":5,"isFree":true,"operatingDays":"평일+토요일+공휴일","weekdayOpen":"00:00","weekdayClose":"23:59","weekendOpen":"00:00","weekendClose":"23:59","holidayOpen":"00:00","holidayClose":"23:59","feeInfo":"무료","phone":"063-454-3812","updatedAt":"2025-11-17","sido":"전북특별자치도","sigungu":"군산시","dong":"창성동"},{"name":"성산면3","type":"공영","category":"노외","address":"전북특별자치도 군산시 성산면 창오3길18, (창오리)","lat":35.985866,"lng":126.817131,"totalSpaces":4,"isFree":true,"operatingDays":"평일+토요일+공휴일","weekdayOpen":"00:00","weekdayClose":"23:59","weekendOpen":"00:00","weekendClose":"23:59","holidayOpen":"00:00","holidayClose":"23:59","feeInfo":"무료","phone":"063-454-3812","updatedAt":"2025-11-17","sido":"전북특별자치도","sigungu":"군산시","dong":"성산면"},{"name":"월명동 1","type":"공영","category":"노외","address":"전북특별자치도 군산시 신풍1길 13 (송풍동 )","lat":35.97865784,"lng":126.703496,"totalSpaces":2,"isFree":true,"operatingDays":"평일+토요일+공휴일","weekdayOpen":"00:00","weekdayClose":"23:59","weekendOpen":"00:00","weekendClose":"23:59","holidayOpen":"00:00","holidayClose":"23:59","feeInfo":"무료","phone":"063-454-3812","updatedAt":"2025-11-17","sido":"전북특별자치도","sigungu":"군산시","dong":"송풍동"},{"name":"옥도면 선유2","type":"공영","category":"노외","address":"전북특별자치도 군산시 옥도면 선유도리 279-8","lat":35.8131158096,"lng":126.413143235,"totalSpaces":359,"isFree":false,"operatingDays":"평일+토요일+공휴일","weekdayOpen":"00:00","weekdayClose":"23:59","weekendOpen":"00:00","weekendClose":"23:59","holidayOpen":"00:00","holidayClose":"23:59","feeInfo":"유료","phone":"063-454-3812","updatedAt":"2025-11-17","sido":"전북특별자치도","sigungu":"군산시","dong":"옥도면"},{"name":"옥도면 장자1","type":"공영","category":"노외","address":"전북특별자치도 군산시 옥도면 장자도리 57","lat":35.8112095356,"lng":126.3990917884,"totalSpaces":145,"isFree":false,"operatingDays":"평일+토요일+공휴일","weekdayOpen":"00:00","weekdayClose":"23:59","weekendOpen":"00:00","weekendClose":"23:59","holidayOpen":"00:00","holidayClose":"23:59","feeInfo":"유료","phone":"063-454-3812","updatedAt":"2025-11-17","sido":"전북특별자치도","sigungu":"군산시","dong":"옥도면"}]}