{"sido":"전북특별자치도","sigungu":"익산시","totalCount":11,"validCount":9,"items":[{"name":"역골지구공영주차장","type":"공영","category":"노외","address":"전북특별자치도 익산시 송학동 85-5","lat":35.93885657,"lng":126.943439,"totalSpaces":183,"isFree":false,"operatingDays":"평일+토요일+공휴일","weekdayOpen":"00:00","weekdayClose":"23:59","weekendOpen":"00:00","weekendClose":"23:59","holidayOpen":"00:00","holidayClose":"23:59","feeInfo":"기본 30분 0원 / 추가 30분당 500원","phone":"063-859-7264","updatedAt":"2025-09-17","sido":"전북특별자치도","sigungu":"익산시","dong":"송학동"},{"name":"영등동 공영주차장","type":"공영","category":"노외","address":"전북특별자치도 익산시 영등동 859","lat":35.957796,"lng":126.9777206,"totalSpaces":93,"isFree":false,"operatingDays":"평일+토요일+공휴일","weekdayOpen":"09:00","weekdayClose":"18:00","weekendOpen":"00:00","weekendClose":"23:59","holidayOpen":"00:00","holidayClose":"23:59","feeInfo":"기본 30분 0원 / 추가 30분당 500원","phone":"063-859-7264","updatedAt":"2025-09-17","sido":"전북특별자치도","sigungu":"익산시","dong":"영등동"},{"name":"중앙동 공영주차장","type":"공영","category":"노외","address":"전북특별자치도 익산시 갈산동 1-1","lat":35.93941371,"lng":126.9523317,"totalSpaces":75,"isFree":false,"operatingDays":"평일+토요일+공휴일","weekdayOpen":"09:00","weekdayClose":"18:00","weekendOpen":"00:00","weekendClose":"23:59","holidayOpen":"00:00","holidayClose":"23:59","feeInfo":"기본 30분 0원 / 추가 30분당 500원","phone":"063-859-7264","updatedAt":"2025-09-17","sido":"전북특별자치도","sigungu":"익산시","dong":"갈산동"},{"name":"모현동 제2공영주차장","type":"공영","category":"노외","address":"전북특별자치도 익산시 모현동1가 873","lat":35.950443,"lng":126.9388296,"totalSpaces":59,"isFree":false,"operatingDays":"평일+토요일+공휴일","weekdayOpen":"09:00","weekdayClose":"18:00","weekendOpen":"00:00","weekendClose":"23:59","holidayOpen":"00:00","holidayClose":"23:59","feeInfo":"기본 30분 0원 / 추가 30분당 500원","phone":"063-859-7264","updatedAt":"2025-09-17","sido":"전북특별자치도","sigungu":"익산시","dong":"모현동1가"},{"name":"모현동 제1공영주차장","type":"공영","category":"노외","address":"전북특별자치도 익산시 모현동1가 851","lat":35.95123062,"lng":126.9393214,"totalSpaces":49,"isFree":false,"operatingDays":"평일+토요일+공휴일","weekdayOpen":"09:00","weekdayClose":"18:00","weekendOpen":"00:00","weekendClose":"23:59","holidayOpen":"00:00","holidayClose":"23:59","feeInfo":"기본 30분 0원 / 추가 30분당 500원","phone":"063-859-7264","updatedAt":"2025-09-17","sido":"전북특별자치도","sigungu":"익산시","dong":"모현동1가"},{"name":"송학공영주차장","type":"공영","category":"노외","address":"전북특별자치도 익산시 송학동 13-1","lat":35.9400726601,"lng":126.9422153098,"totalSpaces":35,"isFree":false,"operatingDays":"평일+토요일+공휴일","weekdayOpen":"00:00","weekdayClose":"23:59","weekendOpen":"00:00","weekendClose":"23:59","holidayOpen":"00:00","holidayClose":"23:59","feeInfo":"기본 30분 0원 / 추가 30분당 500원","phone":"063-859-7264","updatedAt":"2025-09-17","sido":"전북특별자치도","sigungu":"익산시","dong":"송학동"},{"name":"모현유료노상주차장","type":"공영","category":"노상","address":"전북특별자치도 익산시 모현동1가 923","lat":35.95136584,"lng":126.9397387,"totalSpaces":26,"isFree":false,"operatingDays":"평일+토요일+공휴일","weekdayOpen":"09:00","weekdayClose":"18:00","weekendOpen":"00:00","weekendClose":"23:59","holidayOpen":"00:00","holidayClose":"23:59","feeInfo":"기본 30분 0원 / 추가 30분당 500원","phone":"063-859-7264","updatedAt":"2025-09-17","sido":"전북특별자치도","sigungu":"익산시","dong":"모현동1가"},{"name":"문화공영주차장","type":"공영","category":"노외","address":"전북특별자치도 익산시 중앙동2가 14-14","lat":35.938767995,"lng":126.9474534584,"totalSpaces":20,"isFree":false,"operatingDays":"평일+토요일+공휴일","weekdayOpen":"00:00","weekdayClose":"23:59","weekendOpen":"00:00","weekendClose":"23:59","holidayOpen":"00:00","holidayClose":"23:59","feeInfo":"기본 30분 0원 / 추가 30분당 500원","phone":"063-859-7264","updatedAt":"2025-09-17","sido":"전북특별자치도","sigungu":"익산시","dong":"중앙동2가"},{"name":"영등2동 공영주차장","type":"공영","category":"노외","address":"전북특별자치도 익산시 영등동 828-11","lat":35.95984621,"lng":126.9725487,"totalSpaces":19,"isFree":false,"operatingDays":"평일+토요일+공휴일","weekdayOpen":"09:00","weekdayClose":"18:00","weekendOpen":"00:00","weekendClose":"23:59","holidayOpen":"00:00","holidayClose":"23:59","feeInfo":"기본 30분 0원 / 추가 30분당 500원","phone":"063-859-7264","updatedAt":"2025-09-17","sido":"전북특별자치도","sigungu":"익산시","dong":"영등동"}]}