{"sido":"전북특별자치도","sigungu":"전주시","totalCount":110,"validCount":110,"items":[{"name":"한옥마을4 공영주차장(대성동)","type":"공영","category":"노외","address":"전북특별자치도 전주시 완산구 춘향로 5299","lat":35.80062313,"lng":127.1686811,"totalSpaces":636,"isFree":true,"operatingDays":"평일+토요일+공휴일","weekdayOpen":"00:00","weekdayClose":"23:59","weekendOpen":"00:00","weekendClose":"23:59","holidayOpen":"00:00","holidayClose":"23:59","feeInfo":"무료","phone":"063-239-2767","updatedAt":"2025-06-09","sido":"전북특별자치도","sigungu":"전주시","dong":""},{"name":"송천2동 시영아파트 앞","type":"공영","category":"노외","address":"전북특별자치도 전주시 덕진구 와룡로 97-14","lat":35.86832995,"lng":127.1124085,"totalSpaces":156,"isFree":true,"operatingDays":"평일+토요일+공휴일","weekdayOpen":"00:00","weekdayClose":"23:59","weekendOpen":"00:00","weekendClose":"23:59","holidayOpen":"00:00","holidayClose":"23:59","feeInfo":"무료","phone":"063-239-2767","updatedAt":"2025-06-09","sido":"전북특별자치도","sigungu":"전주시","dong":""},{"name":"인후3동 진버들","type":"공영","category":"노외","address":"전북특별자치도 전주시 덕진구 진버들5길 15","lat":35.8363209,"lng":127.1647506,"totalSpaces":88,"isFree":true,"operatingDays":"평일+토요일+공휴일","weekdayOpen":"00:00","weekdayClose":"23:59","weekendOpen":"00:00","weekendClose":"23:59","holidayOpen":"00:00","holidayClose":"23:59","feeInfo":"무료","phone":"063-239-2767","updatedAt":"2025-06-09","sido":"전북특별자치도","sigungu":"전주시","dong":""},{"name":"아중지구 부영아파트 옆","type":"공영","category":"노외","address":"전북특별자치도 전주시 덕진구 인교6길 13","lat":35.82547138,"lng":127.1716413,"totalSpaces":88,"isFree":true,"operatingDays":"평일+토요일+공휴일","weekdayOpen":"00:00","weekdayClose":"23:59","weekendOpen":"00:00","weekendClose":"23:59","holidayOpen":"00:00","holidayClose":"23:59","feeInfo":"무료","phone":"063-239-2767","updatedAt":"2025-06-09","sido":"전북특별자치도","sigungu":"전주시","dong":""},{"name":"정읍방면 만남의 광장","type":"공영","category":"노외","address":"전북특별자치도 전주시 완산구 쑥고개로 251-20","lat":35.80135808,"lng":127.0931304,"totalSpaces":84,"isFree":true,"operatingDays":"평일+토요일+공휴일","weekdayOpen":"00:00","weekdayClose":"23:59","weekendOpen":"00:00","weekendClose":"23:59","holidayOpen":"00:00","holidayClose":"23:59","feeInfo":"무료","phone":"063-239-2767","updatedAt":"2025-06-09","sido":"전북특별자치도","sigungu":"전주시","dong":""},{"name":"효천지구 제2주차장","type":"공영","category":"노외","address":"전북특별자치도 전주시 완산구 효자동2가 1369-1","lat":35.80167377,"lng":127.1067859,"totalSpaces":83,"isFree":true,"operatingDays":"평일+토요일+공휴일","weekdayOpen":"00:00","weekdayClose":"23:59","weekendOpen":"00:00","weekendClose":"23:59","holidayOpen":"00:00","holidayClose":"23:59","feeInfo":"무료","phone":"063-239-2767","updatedAt":"2025-06-09","sido":"전북특별자치도","sigungu":"전주시","dong":""},{"name":"송천2동 농수산시장 안","type":"공영","category":"노외","address":"전북특별자치도 전주시 덕진구 송천동2가 597-14","lat":35.86823532,"lng":127.1164314,"totalSpaces":82,"isFree":true,"operatingDays":"평일+토요일+공휴일","weekdayOpen":"00:00","weekdayClose":"23:59","weekendOpen":"00:00","weekendClose":"23:59","holidayOpen":"00:00","holidayClose":"23:59","feeInfo":"무료","phone":"063-239-2767","updatedAt":"2025-06-09","sido":"전북특별자치도","sigungu":"전주시","dong":""},{"name":"아중지구 밀레니엄 옆","type":"공영","category":"노외","address":"전북특별자치도 전주시 덕진구 정언신로 178","lat":35.83152828,"lng":127.1729686,"totalSpaces":73,"isFree":true,"operatingDays":"평일+토요일+공휴일","weekdayOpen":"00:00","weekdayClose":"23:59","weekendOpen":"00:00","weekendClose":"23:59","holidayOpen":"00:00","holidayClose":"23:59","feeInfo":"무료","phone":"063-239-2767","updatedAt":"2025-06-09","sido":"전북특별자치도","sigungu":"전주시","dong":""},{"name":"아중지구 롯데아파트 옆","type":"공영","category":"노외","address":"전북특별자치도 전주시 덕진구 정언신로 151","lat":35.8315861,"lng":127.1706002,"totalSpaces":70,"isFree":true,"operatingDays":"평일+토요일+공휴일","weekdayOpen":"00:00","weekdayClose":"23:59","weekendOpen":"00:00","weekendClose":"23:59","holidayOpen":"00:00","holidayClose":"23:59","feeInfo":"무료","phone":"063-239-2767","updatedAt":"2025-06-09","sido":"전북특별자치도","sigungu":"전주시","dong":""},{"name":"우아2동 아중택지 개발지구","type":"공영","category":"노외","address":"전북특별자치도 전주시 덕진구 산정1길 18","lat":35.83757174,"lng":127.1684072,"totalSpaces":69,"isFree":true,"operatingDays":"평일+토요일+공휴일","weekdayOpen":"00:00","weekdayClose":"23:59","weekendOpen":"00:00","weekendClose":"23:59","holidayOpen":"00:00","holidayClose":"23:59","feeInfo":"무료","phone":"063-239-2767","updatedAt":"2025-06-09","sido":"전북특별자치도","sigungu":"전주시","dong":""},{"name":"무진장방면 만남의 광장","type":"공영","category":"노외","address":"전북특별자치도 전주시 덕진구 금상길 27","lat":35.84213528,"lng":127.1758765,"totalSpaces":69,"isFree":true,"operatingDays":"평일+토요일+공휴일","weekdayOpen":"00:00","weekdayClose":"23:59","weekendOpen":"00:00","weekendClose":"23:59","holidayOpen":"00:00","holidayClose":"23:59","feeInfo":"무료","phone":"063-239-2767","updatedAt":"2025-06-09","sido":"전북특별자치도","sigungu":"전주시","dong":""},{"name":"인후공원","type":"공영","category":"노외","address":"전북특별자치도 전주시 덕진구 안덕원3길 10","lat":35.84412192,"lng":127.1645497,"totalSpaces":64,"isFree":true,"operatingDays":"평일+토요일+공휴일","weekdayOpen":"00:00","weekdayClose":"23:59","weekendOpen":"00:00","weekendClose":"23:59","holidayOpen":"00:00","holidayClose":"23:59","feeInfo":"무료","phone":"063-239-2767","updatedAt":"2025-06-09","sido":"전북특별자치도","sigungu":"전주시","dong":""},{"name":"아중지구 아중도서관(산림청 옆)","type":"공영","category":"노외","address":"전북특별자치도 전주시 덕진구 무삼지2길 7","lat":35.82632995,"lng":127.1626078,"totalSpaces":62,"isFree":true,"operatingDays":"평일+토요일+공휴일","weekdayOpen":"00:00","weekdayClose":"23:59","weekendOpen":"00:00","weekendClose":"23:59","holidayOpen":"00:00","holidayClose":"23:59","feeInfo":"무료","phone":"063-239-2767","updatedAt":"2025-06-09","sido":"전북특별자치도","sigungu":"전주시","dong":""},{"name":"색장동 만남의 광장","type":"공영","category":"노외","address":"전북특별자치도 전주시 완산구 부남길 24","lat":35.78843975,"lng":127.1934117,"totalSpaces":62,"isFree":true,"operatingDays":"평일+토요일+공휴일","weekdayOpen":"00:00","weekdayClose":"23:59","weekendOpen":"00:00","weekendClose":"23:59","holidayOpen":"00:00","holidayClose":"23:59","feeInfo":"무료","phone":"063-239-2767","updatedAt":"2025-06-09","sido":"전북특별자치도","sigungu":"전주시","dong":""},{"name":"모악산","type":"공영","category":"노외","address":"전북특별자치도 전주시 완산구 중인1길 254","lat":35.75808408,"lng":127.0866859,"totalSpaces":56,"isFree":true,"operatingDays":"평일+토요일+공휴일","weekdayOpen":"00:00","weekdayClose":"23:59","weekendOpen":"00:00","weekendClose":"23:59","holidayOpen":"00:00","holidayClose":"23:59","feeInfo":"무료","phone":"063-239-2767","updatedAt":"2025-06-09","sido":"전북특별자치도","sigungu":"전주시","dong":""},{"name":"군산익산방면 만남의 광장","type":"공영","category":"노외","address":"전북특별자치도 전주시 덕진구 번영로 453","lat":35.8750205,"lng":127.0566879,"totalSpaces":52,"isFree":true,"operatingDays":"평일+토요일+공휴일","weekdayOpen":"00:00","weekdayClose":"23:59","weekendOpen":"00:00","weekendClose":"23:59","holidayOpen":"00:00","holidayClose":"23:59","feeInfo":"무료","phone":"063-239-2767","updatedAt":"2025-06-09","sido":"전북특별자치도","sigungu":"전주시","dong":""},{"name":"효천지구 제5주차장","type":"공영","category":"노외","address":"전북특별자치도 전주시 완산구 삼천동2가 762-1","lat":35.79465231,"lng":127.1068278,"totalSpaces":51,"isFree":true,"operatingDays":"평일+토요일+공휴일","weekdayOpen":"00:00","weekdayClose":"23:59","weekendOpen":"00:00","weekendClose":"23:59","holidayOpen":"00:00","holidayClose":"23:59","feeInfo":"무료","phone":"063-239-2767","updatedAt":"2025-06-09","sido":"전북특별자치도","sigungu":"전주시","dong":""},{"name":"여의동","type":"공영","category":"노외","address":"전북특별자치도 전주시 덕진구 여의동2가 608","lat":35.86980889,"lng":127.080543,"totalSpaces":45,"isFree":true,"operatingDays":"평일+토요일+공휴일","weekdayOpen":"00:00","weekdayClose":"23:59","weekendOpen":"00:00","weekendClose":"23:59","holidayOpen":"00:00","holidayClose":"23:59","feeInfo":"무료","phone":"063-239-2767","updatedAt":"2025-06-09","sido":"전북특별자치도","sigungu":"전주시","dong":""},{"name":"근영여고 앞","type":"공영","category":"노외","address":"전북특별자치도 전주시 완산구 백제대로 270","lat":35.81717372,"lng":127.1234251,"totalSpaces":45,"isFree":true,"operatingDays":"평일+토요일+공휴일","weekdayOpen":"00:00","weekdayClose":"23:59","weekendOpen":"00:00","weekendClose":"23:59","holidayOpen":"00:00","holidayClose":"23:59","feeInfo":"무료","phone":"063-239-2767","updatedAt":"2025-06-09","sido":"전북특별자치도","sigungu":"전주시","dong":""},{"name":"서부신시가지 롯데마트뒤","type":"공영","category":"노외","address":"전북특별자치도 전주시 완산구 바우배기2길 27","lat":35.81698805,"lng":127.1049332,"totalSpaces":42,"isFree":true,"operatingDays":"평일+토요일+공휴일","weekdayOpen":"00:00","weekdayClose":"23:59","weekendOpen":"00:00","weekendClose":"23:59","holidayOpen":"00:00","holidayClose":"23:59","feeInfo":"무료","phone":"063-239-2767","updatedAt":"2025-06-09","sido":"전북특별자치도","sigungu":"전주시","dong":""},{"name":"서부신시가지 마전","type":"공영","category":"노외","address":"전북특별자치도 전주시 완산구 문학대5길 31-3","lat":35.82774683,"lng":127.1051531,"totalSpaces":42,"isFree":true,"operatingDays":"평일+토요일+공휴일","weekdayOpen":"00:00","weekdayClose":"23:59","weekendOpen":"00:00","weekendClose":"23:59","holidayOpen":"00:00","holidayClose":"23:59","feeInfo":"무료","phone":"063-239-2767","updatedAt":"2025-06-09","sido":"전북특별자치도","sigungu":"전주시","dong":""},{"name":"서부신시가지 보훈청","type":"공영","category":"노외","address":"전북특별자치도 전주시 완산구 효자동 2가 1243-1","lat":35.81515404,"lng":127.1033904,"totalSpaces":42,"isFree":true,"operatingDays":"평일+토요일+공휴일","weekdayOpen":"00:00","weekdayClose":"23:59","weekendOpen":"00:00","weekendClose":"23:59","holidayOpen":"00:00","holidayClose":"23:59","feeInfo":"무료","phone":"063-239-2767","updatedAt":"2025-06-09","sido":"전북특별자치도","sigungu":"전주시","dong":""},{"name":"가련산","type":"공영","category":"노외","address":"전북특별자치도 전주시 덕진구 기린대로 534","lat":35.84607526,"lng":127.1210473,"totalSpaces":41,"isFree":true,"operatingDays":"평일+토요일+공휴일","weekdayOpen":"00:00","weekdayClose":"23:59","weekendOpen":"00:00","weekendClose":"23:59","holidayOpen":"00:00","holidayClose":"23:59","feeInfo":"무료","phone":"063-239-2767","updatedAt":"2025-06-09","sido":"전북특별자치도","sigungu":"전주시","dong":""},{"name":"효천지구 제4주차장","type":"공영","category":"노외","address":"전북특별자치도 전주시 완산구 효자동2가 1371-1","lat":35.7998416,"lng":127.1077472,"totalSpaces":33,"isFree":true,"operatingDays":"평일+토요일+공휴일","weekdayOpen":"00:00","weekdayClose":"23:59","weekendOpen":"00:00","weekendClose":"23:59","holidayOpen":"00:00","holidayClose":"23:59","feeInfo":"무료","phone":"063-239-2767","updatedAt":"2025-06-09","sido":"전북특별자치도","sigungu":"전주시","dong":""},{"name":"이중본 뒤","type":"공영","category":"노외","address":"전북특별자치도 전주시 완산구 산월1길 10","lat":35.81288955,"lng":127.1220368,"totalSpaces":33,"isFree":true,"operatingDays":"평일+토요일+공휴일","weekdayOpen":"00:00","weekdayClose":"23:59","weekendOpen":"00:00","weekendClose":"23:59","holidayOpen":"00:00","holidayClose":"23:59","feeInfo":"무료","phone":"063-239-2767","updatedAt":"2025-06-09","sido":"전북특별자치도","sigungu":"전주시","dong":""},{"name":"서부신시가지 전북경찰청옆","type":"공영","category":"노외","address":"전북특별자치도 전주시 완산구 마전3길 12","lat":35.82381149,"lng":127.1029489,"totalSpaces":33,"isFree":true,"operatingDays":"평일+토요일+공휴일","weekdayOpen":"00:00","weekdayClose":"23:59","weekendOpen":"00:00","weekendClose":"23:59","holidayOpen":"00:00","holidayClose":"23:59","feeInfo":"무료","phone":"063-239-2767","updatedAt":"2025-06-09","sido":"전북특별자치도","sigungu":"전주시","dong":""},{"name":"서부신시가지 KBS옆","type":"공영","category":"노외","address":"전북특별자치도 전주시 완산구 마전1길 12-3","lat":35.82175841,"lng":127.1029617,"totalSpaces":33,"isFree":true,"operatingDays":"평일+토요일+공휴일","weekdayOpen":"00:00","weekdayClose":"23:59","weekendOpen":"00:00","weekendClose":"23:59","holidayOpen":"00:00","holidayClose":"23:59","feeInfo":"무료","phone":"063-239-2767","updatedAt":"2025-06-09","sido":"전북특별자치도","sigungu":"전주시","dong":""},{"name":"인후1동 안골","type":"공영","category":"노외","address":"전북특별자치도 전주시 덕진구 팽나무4길 11","lat":35.83552649,"lng":127.1546105,"totalSpaces":32,"isFree":true,"operatingDays":"평일+토요일+공휴일","weekdayOpen":"00:00","weekdayClose":"23:59","weekendOpen":"00:00","weekendClose":"23:59","holidayOpen":"00:00","holidayClose":"23:59","feeInfo":"무료","phone":"063-239-2767","updatedAt":"2025-06-09","sido":"전북특별자치도","sigungu":"전주시","dong":""},{"name":"송천1동 송천도서관 앞","type":"공영","category":"노외","address":"전북특별자치도 전주시 덕진구 솔내로 212","lat":35.86938833,"lng":127.1281282,"totalSpaces":32,"isFree":true,"operatingDays":"평일+토요일+공휴일","weekdayOpen":"00:00","weekdayClose":"23:59","weekendOpen":"00:00","weekendClose":"23:59","holidayOpen":"00:00","holidayClose":"23:59","feeInfo":"무료","phone":"063-239-2767","updatedAt":"2025-06-09","sido":"전북특별자치도","sigungu":"전주시","dong":""},{"name":"서부신시가지 전주대 신정문","type":"공영","category":"노외","address":"전북특별자치도 전주시 완산구 농소6길 3-5","lat":35.81722291,"lng":127.0966722,"totalSpaces":32,"isFree":true,"operatingDays":"평일+토요일+공휴일","weekdayOpen":"00:00","weekdayClose":"23:59","weekendOpen":"00:00","weekendClose":"23:59","holidayOpen":"00:00","holidayClose":"23:59","feeInfo":"무료","phone":"063-239-2767","updatedAt":"2025-06-09","sido":"전북특별자치도","sigungu":"전주시","dong":""},{"name":"서부신시가지 신한은행","type":"공영","category":"노외","address":"전북특별자치도 전주시 완산구 홍산북로 13","lat":35.81759828,"lng":127.1032854,"totalSpaces":32,"isFree":true,"operatingDays":"평일+토요일+공휴일","weekdayOpen":"00:00","weekdayClose":"23:59","weekendOpen":"00:00","weekendClose":"23:59","holidayOpen":"00:00","holidayClose":"23:59","feeInfo":"무료","phone":"063-239-2767","updatedAt":"2025-06-09","sido":"전북특별자치도","sigungu":"전주시","dong":""},{"name":"하가지구 하가홈마트 뒤","type":"공영","category":"노외","address":"전북특별자치도 전주시 덕진구 가리내8길 19","lat":35.84330766,"lng":127.1097145,"totalSpaces":30,"isFree":true,"operatingDays":"평일+토요일+공휴일","weekdayOpen":"00:00","weekdayClose":"23:59","weekendOpen":"00:00","weekendClose":"23:59","holidayOpen":"00:00","holidayClose":"23:59","feeInfo":"무료","phone":"063-239-2767","updatedAt":"2025-06-09","sido":"전북특별자치도","sigungu":"전주시","dong":""},{"name":"호성동 만남의 광장","type":"공영","category":"노외","address":"전북특별자치도 전주시 덕진구 완주로 6","lat":35.86745757,"lng":127.1475373,"totalSpaces":30,"isFree":true,"operatingDays":"평일+토요일+공휴일","weekdayOpen":"00:00","weekdayClose":"23:59","weekendOpen":"00:00","weekendClose":"23:59","holidayOpen":"00:00","holidayClose":"23:59","feeInfo":"무료","phone":"063-239-2767","updatedAt":"2025-06-09","sido":"전북특별자치도","sigungu":"전주시","dong":""},{"name":"하가지구 풍경안경원 옆","type":"공영","category":"노외","address":"전북특별자치도 전주시 덕진구 가리내10길 12-1","lat":35.8422224,"lng":127.1105578,"totalSpaces":30,"isFree":true,"operatingDays":"평일+토요일+공휴일","weekdayOpen":"00:00","weekdayClose":"23:59","weekendOpen":"00:00","weekendClose":"23:59","holidayOpen":"00:00","holidayClose":"23:59","feeInfo":"무료","phone":"063-239-2767","updatedAt":"2025-06-09","sido":"전북특별자치도","sigungu":"전주시","dong":""},{"name":"신일강변 아파트 옆","type":"공영","category":"노외","address":"전북특별자치도 전주시 완산구 삼천동1가 723-4","lat":35.79910194,"lng":127.1135686,"totalSpaces":30,"isFree":true,"operatingDays":"평일+토요일+공휴일","weekdayOpen":"00:00","weekdayClose":"23:59","weekendOpen":"00:00","weekendClose":"23:59","holidayOpen":"00:00","holidayClose":"23:59","feeInfo":"무료","phone":"063-239-2767","updatedAt":"2025-06-09","sido":"전북특별자치도","sigungu":"전주시","dong":""},{"name":"서부신시가지 여명교회뒤","type":"공영","category":"노외","address":"전북특별자치도 전주시 완산구 배학5길 7","lat":35.82063188,"lng":127.0961614,"totalSpaces":30,"isFree":true,"operatingDays":"평일+토요일+공휴일","weekdayOpen":"00:00","weekdayClose":"23:59","weekendOpen":"00:00","weekendClose":"23:59","holidayOpen":"00:00","holidayClose":"23:59","feeInfo":"무료","phone":"063-239-2767","updatedAt":"2025-06-09","sido":"전북특별자치도","sigungu":"전주시","dong":""},{"name":"서부신시가지 봉곡","type":"공영","category":"노외","address":"전북특별자치도 전주시 완산구 봉곡1길 42-4","lat":35.81296672,"lng":127.101358,"totalSpaces":30,"isFree":true,"operatingDays":"평일+토요일+공휴일","weekdayOpen":"00:00","weekdayClose":"23:59","weekendOpen":"00:00","weekendClose":"23:59","holidayOpen":"00:00","holidayClose":"23:59","feeInfo":"무료","phone":"063-239-2767","updatedAt":"2025-06-09","sido":"전북특별자치도","sigungu":"전주시","dong":""},{"name":"하가지구 초담불고기 뒤","type":"공영","category":"노외","address":"전북특별자치도 전주시 덕진구 가리내5길 16","lat":35.84609945,"lng":127.1099445,"totalSpaces":29,"isFree":true,"operatingDays":"평일+토요일+공휴일","weekdayOpen":"00:00","weekdayClose":"23:59","weekendOpen":"00:00","weekendClose":"23:59","holidayOpen":"00:00","holidayClose":"23:59","feeInfo":"무료","phone":"063-239-2767","updatedAt":"2025-06-09","sido":"전북특별자치도","sigungu":"전주시","dong":""},{"name":"하가지구 나그네교회 앞","type":"공영","category":"노외","address":"전북특별자치도 전주시 덕진구 가리내1길 13","lat":35.84772155,"lng":127.1105185,"totalSpaces":29,"isFree":true,"operatingDays":"평일+토요일+공휴일","weekdayOpen":"00:00","weekdayClose":"23:59","weekendOpen":"00:00","weekendClose":"23:59","holidayOpen":"00:00","holidayClose":"23:59","feeInfo":"무료","phone":"063-239-2767","updatedAt":"2025-06-09","sido":"전북특별자치도","sigungu":"전주시","dong":""},{"name":"서신동 에덴교회 앞","type":"공영","category":"노외","address":"전북특별자치도 전주시 완산구 고사평1길 3","lat":35.83452064,"lng":127.1090515,"totalSpaces":29,"isFree":true,"operatingDays":"평일+토요일+공휴일","weekdayOpen":"00:00","weekdayClose":"23:59","weekendOpen":"00:00","weekendClose":"23:59","holidayOpen":"00:00","holidayClose":"23:59","feeInfo":"무료","phone":"063-239-2767","updatedAt":"2025-06-09","sido":"전북특별자치도","sigungu":"전주시","dong":""},{"name":"서부신시가지 예다움 원룸","type":"공영","category":"노외","address":"전북특별자치도 전주시 완산구 척동4길 16-8","lat":35.82167786,"lng":127.1013438,"totalSpaces":29,"isFree":true,"operatingDays":"평일+토요일+공휴일","weekdayOpen":"00:00","weekdayClose":"23:59","weekendOpen":"00:00","weekendClose":"23:59","holidayOpen":"00:00","holidayClose":"23:59","feeInfo":"무료","phone":"063-239-2767","updatedAt":"2025-06-09","sido":"전북특별자치도","sigungu":"전주시","dong":""},{"name":"풍남초 주차장","type":"공영","category":"노외","address":"전북특별자치도 전주시 완산구 중노송동 501-6","lat":35.82253558,"lng":127.1517254,"totalSpaces":28,"isFree":true,"operatingDays":"평일+토요일+공휴일","weekdayOpen":"00:00","weekdayClose":"23:59","weekendOpen":"00:00","weekendClose":"23:59","holidayOpen":"00:00","holidayClose":"23:59","feeInfo":"무료","phone":"063-239-2767","updatedAt":"2025-06-09","sido":"전북특별자치도","sigungu":"전주시","dong":""},{"name":"우아동 주민센터 옆","type":"공영","category":"노외","address":"전북특별자치도 전주시 덕진구 우아동3가 746-45","lat":35.85002702,"lng":127.1593866,"totalSpaces":28,"isFree":true,"operatingDays":"평일+토요일+공휴일","weekdayOpen":"00:00","weekdayClose":"23:59","weekendOpen":"00:00","weekendClose":"23:59","holidayOpen":"00:00","holidayClose":"23:59","feeInfo":"무료","phone":"063-239-2767","updatedAt":"2025-06-09","sido":"전북특별자치도","sigungu":"전주시","dong":""},{"name":"서학동 예술마을","type":"공영","category":"노외","address":"전북특별자치도 전주시 완산구 서서학동 967","lat":35.80929601,"lng":127.1490068,"totalSpaces":27,"isFree":true,"operatingDays":"평일+토요일+공휴일","weekdayOpen":"00:00","weekdayClose":"23:59","weekendOpen":"00:00","weekendClose":"23:59","holidayOpen":"00:00","holidayClose":"23:59","feeInfo":"무료","phone":"063-239-2767","updatedAt":"2025-06-09","sido":"전북특별자치도","sigungu":"전주시","dong":""},{"name":"서부신시가지 서곡방면","type":"공영","category":"노외","address":"전북특별자치도 전주시 완산구 황강서원1길 7","lat":35.82849728,"lng":127.0978168,"totalSpaces":27,"isFree":true,"operatingDays":"평일+토요일+공휴일","weekdayOpen":"00:00","weekdayClose":"23:59","weekendOpen":"00:00","weekendClose":"23:59","holidayOpen":"00:00","holidayClose":"23:59","feeInfo":"무료","phone":"063-239-2767","updatedAt":"2025-06-09","sido":"전북특별자치도","sigungu":"전주시","dong":""},{"name":"하가지구 소소빌딩 뒤","type":"공영","category":"노외","address":"전북특별자치도 전주시 덕진구 가리내3길 16-1","lat":35.84668632,"lng":127.1097816,"totalSpaces":26,"isFree":true,"operatingDays":"평일+토요일+공휴일","weekdayOpen":"00:00","weekdayClose":"23:59","weekendOpen":"00:00","weekendClose":"23:59","holidayOpen":"00:00","holidayClose":"23:59","feeInfo":"무료","phone":"063-239-2767","updatedAt":"2025-06-09","sido":"전북특별자치도","sigungu":"전주시","dong":""},{"name":"인후2동 건지","type":"공영","category":"노외","address":"전북특별자치도 전주시 덕진구 백동로 14-7","lat":35.84663099,"lng":127.148226,"totalSpaces":26,"isFree":true,"operatingDays":"평일+토요일+공휴일","weekdayOpen":"00:00","weekdayClose":"23:59","weekendOpen":"00:00","weekendClose":"23:59","holidayOpen":"00:00","holidayClose":"23:59","feeInfo":"무료","phone":"063-239-2767","updatedAt":"2025-06-09","sido":"전북특별자치도","sigungu":"전주시","dong":""},{"name":"인후2동 금평","type":"공영","category":"노외","address":"전북특별자치도 전주시 덕진구 명주1길 9","lat":35.84304016,"lng":127.1453078,"totalSpaces":26,"isFree":true,"operatingDays":"평일+토요일+공휴일","weekdayOpen":"00:00","weekdayClose":"23:59","weekendOpen":"00:00","weekendClose":"23:59","holidayOpen":"00:00","holidayClose":"23:59","feeInfo":"무료","phone":"063-239-2767","updatedAt":"2025-06-09","sido":"전북특별자치도","sigungu":"전주시","dong":""},{"name":"여의동 주민센터 옆","type":"공영","category":"노외","address":"전북특별자치도 전주시 덕진구 반월동 248-31","lat":35.87131635,"lng":127.0759714,"totalSpaces":26,"isFree":true,"operatingDays":"평일+토요일+공휴일","weekdayOpen":"00:00","weekdayClose":"23:59","weekendOpen":"00:00","weekendClose":"23:59","holidayOpen":"00:00","holidayClose":"23:59","feeInfo":"무료","phone":"063-239-2767","updatedAt":"2025-06-09","sido":"전북특별자치도","sigungu":"전주시","dong":""},{"name":"평화1동","type":"공영","category":"노외","address":"전북특별자치도 전주시 완산구 덕적골3길 51-1","lat":35.796128,"lng":127.1436245,"totalSpaces":25,"isFree":true,"operatingDays":"평일+토요일+공휴일","weekdayOpen":"00:00","weekdayClose":"23:59","weekendOpen":"00:00","weekendClose":"23:59","holidayOpen":"00:00","holidayClose":"23:59","feeInfo":"무료","phone":"063-239-2767","updatedAt":"2025-06-09","sido":"전북특별자치도","sigungu":"전주시","dong":""},{"name":"남노송동 주차장(기린대로변)","type":"공영","category":"노외","address":"전북특별자치도 전주시 완산구 기린대로 126","lat":35.82034046,"lng":127.1536255,"totalSpaces":25,"isFree":true,"operatingDays":"평일+토요일+공휴일","weekdayOpen":"00:00","weekdayClose":"23:59","weekendOpen":"00:00","weekendClose":"23:59","holidayOpen":"00:00","holidayClose":"23:59","feeInfo":"무료","phone":"063-239-2767","updatedAt":"2025-06-09","sido":"전북특별자치도","sigungu":"전주시","dong":""},{"name":"서부신시가지 엘드아파트","type":"공영","category":"노외","address":"전북특별자치도 전주시 완산구 범안1길 7-27","lat":35.81316648,"lng":127.1096218,"totalSpaces":24,"isFree":true,"operatingDays":"평일+토요일+공휴일","weekdayOpen":"00:00","weekdayClose":"23:59","weekendOpen":"00:00","weekendClose":"23:59","holidayOpen":"00:00","holidayClose":"23:59","feeInfo":"무료","phone":"063-239-2767","updatedAt":"2025-06-09","sido":"전북특별자치도","sigungu":"전주시","dong":""},{"name":"남노송동(병무청 맞은편)","type":"공영","category":"노외","address":"전북특별자치도 전주시 완산구 관선3길 17-6","lat":35.82131357,"lng":127.1548778,"totalSpaces":20,"isFree":true,"operatingDays":"평일+토요일+공휴일","weekdayOpen":"00:00","weekdayClose":"23:59","weekendOpen":"00:00","weekendClose":"23:59","holidayOpen":"00:00","holidayClose":"23:59","feeInfo":"무료","phone":"063-239-2767","updatedAt":"2025-06-09","sido":"전북특별자치도","sigungu":"전주시","dong":""},{"name":"서부신시가지 도청사거리","type":"공영","category":"노외","address":"전북특별자치도 전주시 완산구 석산2길 7","lat":35.81968124,"lng":127.1049814,"totalSpaces":20,"isFree":true,"operatingDays":"평일+토요일+공휴일","weekdayOpen":"00:00","weekdayClose":"23:59","weekendOpen":"00:00","weekendClose":"23:59","holidayOpen":"00:00","holidayClose":"23:59","feeInfo":"무료","phone":"063-239-2767","updatedAt":"2025-06-09","sido":"전북특별자치도","sigungu":"전주시","dong":""},{"name":"서부신시가지 KT&G전북본부 옆","type":"공영","category":"노외","address":"전북특별자치도 전주시 완산구 마전1길 12-3","lat":35.82175841,"lng":127.1029617,"totalSpaces":20,"isFree":true,"operatingDays":"평일+토요일+공휴일","weekdayOpen":"00:00","weekdayClose":"23:59","weekendOpen":"00:00","weekendClose":"23:59","holidayOpen":"00:00","holidayClose":"23:59","feeInfo":"무료","phone":"063-239-2767","updatedAt":"2025-06-09","sido":"전북특별자치도","sigungu":"전주시","dong":""},{"name":"하가지구 상가마을 주차장","type":"공영","category":"노외","address":"전북특별자치도 전주시 덕진구 덕진동2가 440","lat":35.8401503,"lng":127.1147087,"totalSpaces":19,"isFree":true,"operatingDays":"평일+토요일+공휴일","weekdayOpen":"00:00","weekdayClose":"23:59","weekendOpen":"00:00","weekendClose":"23:59","holidayOpen":"00:00","holidayClose":"23:59","feeInfo":"무료","phone":"063-239-2767","updatedAt":"2025-06-09","sido":"전북특별자치도","sigungu":"전주시","dong":""},{"name":"서학동 예술마을 소규모주차장","type":"공영","category":"노외","address":"전북특별자치도 전주시 완산구 서서학동 244","lat":35.80646526,"lng":127.1509425,"totalSpaces":17,"isFree":true,"operatingDays":"평일+토요일+공휴일","weekdayOpen":"00:00","weekdayClose":"23:59","weekendOpen":"00:00","weekendClose":"23:59","holidayOpen":"00:00","holidayClose":"23:59","feeInfo":"무료","phone":"063-239-2767","updatedAt":"2025-06-09","sido":"전북특별자치도","sigungu":"전주시","dong":""},{"name":"송천2동 용소초교 옆","type":"공영","category":"노외","address":"전북특별자치도 전주시 덕진구 송천3길 30-34","lat":35.86135501,"lng":127.1180041,"totalSpaces":17,"isFree":true,"operatingDays":"평일+토요일+공휴일","weekdayOpen":"00:00","weekdayClose":"23:59","weekendOpen":"00:00","weekendClose":"23:59","holidayOpen":"00:00","holidayClose":"23:59","feeInfo":"무료","phone":"063-239-2767","updatedAt":"2025-06-09","sido":"전북특별자치도","sigungu":"전주시","dong":""},{"name":"송천2동 주민자치센터 옆","type":"공영","category":"노외","address":"전북특별자치도 전주시 덕진구 두간11길 3-4","lat":35.86493827,"lng":127.1152586,"totalSpaces":17,"isFree":true,"operatingDays":"평일+토요일+공휴일","weekdayOpen":"00:00","weekdayClose":"23:59","weekendOpen":"00:00","weekendClose":"23:59","holidayOpen":"00:00","holidayClose":"23:59","feeInfo":"무료","phone":"063-239-2767","updatedAt":"2025-06-09","sido":"전북특별자치도","sigungu":"전주시","dong":""},{"name":"서부신시가지 전주대 원룸옆","type":"공영","category":"노외","address":"전북특별자치도 전주시 완산구 봉곡2길 17-4","lat":35.81298102,"lng":127.0949926,"totalSpaces":17,"isFree":true,"operatingDays":"평일+토요일+공휴일","weekdayOpen":"00:00","weekdayClose":"23:59","weekendOpen":"00:00","weekendClose":"23:59","holidayOpen":"00:00","holidayClose":"23:59","feeInfo":"무료","phone":"063-239-2767","updatedAt":"2025-06-09","sido":"전북특별자치도","sigungu":"전주시","dong":""},{"name":"중화산2동 공영주차장","type":"공영","category":"노외","address":"전북특별자치도 전주시 완산구 화산천변3길 11-3","lat":35.82019013,"lng":127.1150821,"totalSpaces":16,"isFree":true,"operatingDays":"평일+토요일+공휴일","weekdayOpen":"00:00","weekdayClose":"23:59","weekendOpen":"00:00","weekendClose":"23:59","holidayOpen":"00:00","holidayClose":"23:59","feeInfo":"무료","phone":"063-239-2767","updatedAt":"2025-06-09","sido":"전북특별자치도","sigungu":"전주시","dong":""},{"name":"서서학동 주민자치센터 뒤","type":"공영","category":"노외","address":"전북특별자치도 전주시 완산구 팔달로 39-21","lat":35.80559814,"lng":127.1491444,"totalSpaces":16,"isFree":true,"operatingDays":"평일+토요일+공휴일","weekdayOpen":"00:00","weekdayClose":"23:59","weekendOpen":"00:00","weekendClose":"23:59","holidayOpen":"00:00","holidayClose":"23:59","feeInfo":"무료","phone":"063-239-2767","updatedAt":"2025-06-09","sido":"전북특별자치도","sigungu":"전주시","dong":""},{"name":"인후2동","type":"공영","category":"노외","address":"전북특별자치도 전주시 덕진구 거북바우로 142","lat":35.84295217,"lng":127.1509582,"totalSpaces":15,"isFree":true,"operatingDays":"평일+토요일+공휴일","weekdayOpen":"00:00","weekdayClose":"23:59","weekendOpen":"00:00","weekendClose":"23:59","holidayOpen":"00:00","holidayClose":"23:59","feeInfo":"무료","phone":"063-239-2767","updatedAt":"2025-06-09","sido":"전북특별자치도","sigungu":"전주시","dong":""},{"name":"고사동 전주영화제작소 옆","type":"공영","category":"노외","address":"전북특별자치도 전주시 완산구 전주객사3길 22","lat":35.81836023,"lng":127.1427168,"totalSpaces":14,"isFree":true,"operatingDays":"평일+토요일+공휴일","weekdayOpen":"00:00","weekdayClose":"23:59","weekendOpen":"00:00","weekendClose":"23:59","holidayOpen":"00:00","holidayClose":"23:59","feeInfo":"무료","phone":"063-239-2767","updatedAt":"2025-06-09","sido":"전북특별자치도","sigungu":"전주시","dong":""},{"name":"송천2동 공원","type":"공영","category":"노외","address":"전북특별자치도 전주시 덕진구 두간5길 9","lat":35.86452264,"lng":127.1181062,"totalSpaces":13,"isFree":true,"operatingDays":"평일+토요일+공휴일","weekdayOpen":"00:00","weekdayClose":"23:59","weekendOpen":"00:00","weekendClose":"23:59","holidayOpen":"00:00","holidayClose":"23:59","feeInfo":"무료","phone":"063-239-2767","updatedAt":"2025-06-09","sido":"전북특별자치도","sigungu":"전주시","dong":""},{"name":"다가서당","type":"공영","category":"노외","address":"전북특별자치도 전주시 완산구 전주객사1길 96-40","lat":35.82072861,"lng":127.1391426,"totalSpaces":13,"isFree":true,"operatingDays":"평일+토요일+공휴일","weekdayOpen":"00:00","weekdayClose":"23:59","weekendOpen":"00:00","weekendClose":"23:59","holidayOpen":"00:00","holidayClose":"23:59","feeInfo":"무료","phone":"063-239-2767","updatedAt":"2025-06-09","sido":"전북특별자치도","sigungu":"전주시","dong":""},{"name":"도당산4길","type":"공영","category":"노외","address":"전북특별자치도 전주시 덕진구 우아동3가 752-29","lat":35.84751636,"lng":127.1587548,"totalSpaces":13,"isFree":true,"operatingDays":"평일+토요일+공휴일","weekdayOpen":"00:00","weekdayClose":"23:59","weekendOpen":"00:00","weekendClose":"23:59","holidayOpen":"00:00","holidayClose":"23:59","feeInfo":"무료","phone":"063-239-2767","updatedAt":"2025-06-09","sido":"전북특별자치도","sigungu":"전주시","dong":""},{"name":"효천지구 제3주차장","type":"공영","category":"노외","address":"전북특별자치도 전주시 완산구 효자동2가 1374-4","lat":35.80236016,"lng":127.1099424,"totalSpaces":11,"isFree":true,"operatingDays":"평일+토요일+공휴일","weekdayOpen":"00:00","weekdayClose":"23:59","weekendOpen":"00:00","weekendClose":"23:59","holidayOpen":"00:00","holidayClose":"23:59","feeInfo":"무료","phone":"063-239-2767","updatedAt":"2025-06-09","sido":"전북특별자치도","sigungu":"전주시","dong":""},{"name":"인후2동 용수마을","type":"공영","category":"노외","address":"전북특별자치도 전주시 덕진구 거북바우로 124-15","lat":35.84159498,"lng":127.149582,"totalSpaces":11,"isFree":true,"operatingDays":"평일+토요일+공휴일","weekdayOpen":"00:00","weekdayClose":"23:59","weekendOpen":"00:00","weekendClose":"23:59","holidayOpen":"00:00","holidayClose":"23:59","feeInfo":"무료","phone":"063-239-2767","updatedAt":"2025-06-09","sido":"전북특별자치도","sigungu":"전주시","dong":""},{"name":"팔복동주차장","type":"공영","category":"노외","address":"전북특별자치도 전주시 덕진구 신복5길 33-11","lat":35.85595728,"lng":127.1062538,"totalSpaces":8,"isFree":true,"operatingDays":"평일+토요일+공휴일","weekdayOpen":"00:00","weekdayClose":"23:59","weekendOpen":"00:00","weekendClose":"23:59","holidayOpen":"00:00","holidayClose":"23:59","feeInfo":"무료","phone":"063-239-2767","updatedAt":"2025-06-09","sido":"전북특별자치도","sigungu":"전주시","dong":""},{"name":"태평동","type":"공영","category":"노외","address":"전북특별자치도 전주시 완산구 태진로 16","lat":35.82238396,"lng":127.1377288,"totalSpaces":7,"isFree":true,"operatingDays":"평일+토요일+공휴일","weekdayOpen":"00:00","weekdayClose":"23:59","weekendOpen":"00:00","weekendClose":"23:59","holidayOpen":"00:00","holidayClose":"23:59","feeInfo":"무료","phone":"063-239-2767","updatedAt":"2025-06-09","sido":"전북특별자치도","sigungu":"전주시","dong":""},{"name":"동물원(호랑이)/ 동물원(기린)","type":"공영","category":"부설","address":"전북특별자치도 전주시 덕진구 소리로 68","lat":35.85730635,"lng":127.1440769,"totalSpaces":828,"isFree":false,"operatingDays":"평일+토요일+공휴일","weekdayOpen":"09:00","weekdayClose":"18:00","weekendOpen":"09:00","weekendClose":"18:00","holidayOpen":"09:00","holidayClose":"18:00","feeInfo":"기본 30분 1,000원","phone":"063-239-2767","updatedAt":"2025-06-09","sido":"전북특별자치도","sigungu":"전주시","dong":""},{"name":"종합경기장(정문)/ 종합경기장(서문)","type":"공영","category":"부설","address":"전북특별자치도 전주시 덕진구 기린대로 451","lat":35.84075454,"lng":127.127127,"totalSpaces":638,"isFree":false,"operatingDays":"평일+토요일+공휴일","weekdayOpen":"07:00","weekdayClose":"23:00","weekendOpen":"07:00","weekendClose":"23:00","holidayOpen":"07:00","holidayClose":"23:00","feeInfo":"기본 30분 700원 / 추가 15분당 350원","phone":"063-239-2767","updatedAt":"2025-06-09","sido":"전북특별자치도","sigungu":"전주시","dong":""},{"name":"한옥마을1","type":"공영","category":"부설","address":"전북특별자치도 전주시 완산구 기린대로 99","lat":35.81825047,"lng":127.1536774,"totalSpaces":293,"isFree":false,"operatingDays":"평일+토요일+공휴일","weekdayOpen":"00:00","weekdayClose":"23:59","weekendOpen":"00:00","weekendClose":"23:59","holidayOpen":"00:00","holidayClose":"23:59","feeInfo":"기본 30분 1,200원 / 추가 15분당 600원","phone":"063-239-2767","updatedAt":"2025-06-09","sido":"전북특별자치도","sigungu":"전주시","dong":""},{"name":"화산체육관","type":"공영","category":"부설","address":"전북특별자치도 전주시 완산구 백제대로 310","lat":35.82094133,"lng":127.1245751,"totalSpaces":256,"isFree":false,"operatingDays":"평일+토요일+공휴일","weekdayOpen":"00:00","weekdayClose":"23:59","weekendOpen":"00:00","weekendClose":"23:59","holidayOpen":"00:00","holidayClose":"23:59","feeInfo":"기본 30분 500원 / 추가 15분당 250원","phone":"063-239-2767","updatedAt":"2025-06-09","sido":"전북특별자치도","sigungu":"전주시","dong":""},{"name":"삼천 2동","type":"공영","category":"노외","address":"전북특별자치도 전주시 완산구 상거마4길 24","lat":35.79668383,"lng":127.1217145,"totalSpaces":194,"isFree":false,"operatingDays":"평일+토요일+공휴일","weekdayOpen":"00:00","weekdayClose":"23:59","weekendOpen":"00:00","weekendClose":"23:59","holidayOpen":"00:00","holidayClose":"23:59","feeInfo":"기본 30분 700원 / 추가 15분당 350원","phone":"063-239-2767","updatedAt":"2025-06-09","sido":"전북특별자치도","sigungu":"전주시","dong":""},{"name":"오거리","type":"공영","category":"노외","address":"전북특별자치도 전주시 완산구 팔달로 217-21","lat":35.82128952,"lng":127.1451912,"totalSpaces":183,"isFree":false,"operatingDays":"평일+토요일+공휴일","weekdayOpen":"00:00","weekdayClose":"23:59","weekendOpen":"00:00","weekendClose":"23:59","holidayOpen":"00:00","holidayClose":"23:59","feeInfo":"기본 30분 900원 / 추가 15분당 450원","phone":"063-239-2767","updatedAt":"2025-06-09","sido":"전북특별자치도","sigungu":"전주시","dong":""},{"name":"한옥마을2","type":"공영","category":"부설","address":"전북특별자치도 전주시 완산구 어진길 30-10","lat":35.81832443,"lng":127.152854,"totalSpaces":171,"isFree":false,"operatingDays":"평일+토요일+공휴일","weekdayOpen":"00:00","weekdayClose":"23:59","weekendOpen":"00:00","weekendClose":"23:59","holidayOpen":"00:00","holidayClose":"23:59","feeInfo":"기본 30분 1,200원 / 추가 15분당 600원","phone":"063-239-2767","updatedAt":"2025-06-09","sido":"전북특별자치도","sigungu":"전주시","dong":""},{"name":"실내체육관","type":"공영","category":"부설","address":"전북특별자치도 전주시 덕진구 권삼득로 308","lat":35.8411407,"lng":127.13159,"totalSpaces":158,"isFree":false,"operatingDays":"평일+토요일+공휴일","weekdayOpen":"00:00","weekdayClose":"23:59","weekendOpen":"00:00","weekendClose":"23:59","holidayOpen":"00:00","holidayClose":"23:59","feeInfo":"기본 30분 700원 / 추가 15분당 350원","phone":"063-239-2767","updatedAt":"2025-06-09","sido":"전북특별자치도","sigungu":"전주시","dong":""},{"name":"서신동","type":"공영","category":"노외","address":"전북특별자치도 전주시 완산구 당산로 56","lat":35.83159158,"lng":127.1144504,"totalSpaces":131,"isFree":false,"operatingDays":"평일+토요일+공휴일","weekdayOpen":"00:00","weekdayClose":"23:59","weekendOpen":"00:00","weekendClose":"23:59","holidayOpen":"00:00","holidayClose":"23:59","feeInfo":"기본 30분 700원 / 추가 15분당 350원","phone":"063-239-2767","updatedAt":"2025-06-09","sido":"전북특별자치도","sigungu":"전주시","dong":""},{"name":"서부신시가지 비보이광장","type":"공영","category":"노외","address":"전북특별자치도 전주시 완산구 홍산남로 83-17","lat":35.81643779,"lng":127.1103087,"totalSpaces":124,"isFree":false,"operatingDays":"평일+토요일+공휴일","weekdayOpen":"00:00","weekdayClose":"23:59","weekendOpen":"00:00","weekendClose":"23:59","holidayOpen":"00:00","holidayClose":"23:59","feeInfo":"기본 30분 900원 / 추가 15분당 450원","phone":"063-239-2767","updatedAt":"2025-06-09","sido":"전북특별자치도","sigungu":"전주시","dong":""},{"name":"서부신시가지 홍산광장","type":"공영","category":"노외","address":"전북특별자치도 전주시 완산구 홍산남로 45-20","lat":35.81644796,"lng":127.1076418,"totalSpaces":120,"isFree":false,"operatingDays":"평일+토요일+공휴일","weekdayOpen":"00:00","weekdayClose":"23:59","weekendOpen":"00:00","weekendClose":"23:59","holidayOpen":"00:00","holidayClose":"23:59","feeInfo":"기본 30분 900원 / 추가 15분당 450원","phone":"063-239-2767","updatedAt":"2025-06-09","sido":"전북특별자치도","sigungu":"전주시","dong":""},{"name":"건산천1","type":"공영","category":"노외","address":"전북특별자치도 전주시 덕진구 팔달로 357-23","lat":35.83202671,"lng":127.1370205,"totalSpaces":77,"isFree":false,"operatingDays":"평일+토요일+공휴일","weekdayOpen":"00:00","weekdayClose":"23:59","weekendOpen":"00:00","weekendClose":"23:59","holidayOpen":"00:00","holidayClose":"23:59","feeInfo":"기본 30분 700원 / 추가 15분당 350원","phone":"063-239-2767","updatedAt":"2025-06-09","sido":"전북특별자치도","sigungu":"전주시","dong":""},{"name":"제1산업단지 주차장","type":"공영","category":"노외","address":"전북특별자치도 전주시 덕진구 팔복동1가 350-9","lat":35.85993412,"lng":127.0985552,"totalSpaces":76,"isFree":false,"operatingDays":"평일+토요일+공휴일","weekdayOpen":"00:00","weekdayClose":"23:59","weekendOpen":"00:00","weekendClose":"23:59","holidayOpen":"00:00","holidayClose":"23:59","feeInfo":"기본 30분 700원 / 추가 15분당 350원","phone":"063-239-2767","updatedAt":"2025-06-09","sido":"전북특별자치도","sigungu":"전주시","dong":""},{"name":"중화산 2동","type":"공영","category":"노외","address":"전북특별자치도 전주시 완산구 신촌3길 28-4","lat":35.81757823,"lng":127.1152257,"totalSpaces":75,"isFree":false,"operatingDays":"평일+토요일+공휴일","weekdayOpen":"00:00","weekdayClose":"23:59","weekendOpen":"00:00","weekendClose":"23:59","holidayOpen":"00:00","holidayClose":"23:59","feeInfo":"기본 30분 700원 / 추가 15분당 350원","phone":"063-239-2767","updatedAt":"2025-06-09","sido":"전북특별자치도","sigungu":"전주시","dong":""},{"name":"한옥마을제3주차장","type":"공영","category":"노외","address":"전북특별자치도 전주시 완산구 간납로 20","lat":35.81660036,"lng":127.1566663,"totalSpaces":72,"isFree":false,"operatingDays":"평일+토요일+공휴일","weekdayOpen":"00:00","weekdayClose":"23:59","weekendOpen":"00:00","weekendClose":"23:59","holidayOpen":"00:00","holidayClose":"23:59","feeInfo":"기본 30분 1,200원 / 추가 15분당 600원","phone":"063-239-2767","updatedAt":"2025-06-09","sido":"전북특별자치도","sigungu":"전주시","dong":""},{"name":"노송천 주차장","type":"공영","category":"노외","address":"전북특별자치도 전주시 완산구 노송여울2길 108","lat":35.82690168,"lng":127.1423128,"totalSpaces":70,"isFree":false,"operatingDays":"평일+토요일+공휴일","weekdayOpen":"00:00","weekdayClose":"23:59","weekendOpen":"00:00","weekendClose":"23:59","holidayOpen":"00:00","holidayClose":"23:59","feeInfo":"기본 30분 900원 / 추가 15분당 450원","phone":"063-239-2767","updatedAt":"2025-06-09","sido":"전북특별자치도","sigungu":"전주시","dong":""},{"name":"건산천2","type":"공영","category":"노외","address":"전북특별자치도 전주시 덕진구 태진로 125-22","lat":35.83294201,"lng":127.1347196,"totalSpaces":68,"isFree":false,"operatingDays":"평일+토요일+공휴일","weekdayOpen":"00:00","weekdayClose":"23:59","weekendOpen":"00:00","weekendClose":"23:59","holidayOpen":"00:00","holidayClose":"23:59","feeInfo":"기본 30분 700원 / 추가 15분당 350원","phone":"063-239-2767","updatedAt":"2025-06-09","sido":"전북특별자치도","sigungu":"전주시","dong":""},{"name":"전주시청 주변 노상","type":"공영","category":"노상","address":"전북특별자치도 전주시 완산구 서노송동 595-9","lat":35.82411965,"lng":127.1471435,"totalSpaces":66,"isFree":false,"operatingDays":"평일+토요일+공휴일","weekdayOpen":"07:00","weekdayClose":"19:00","weekendOpen":"07:00","weekendClose":"19:00","holidayOpen":"07:00","holidayClose":"19:00","feeInfo":"기본 30분 900원 / 추가 15분당 450원","phone":"063-239-2767","updatedAt":"2025-06-09","sido":"전북특별자치도","sigungu":"전주시","dong":""},{"name":"만성지구 제1주차장","type":"공영","category":"노외","address":"전북특별자치도 전주시 덕진구 만성동 1372-7","lat":35.84280186,"lng":127.0787618,"totalSpaces":66,"isFree":false,"operatingDays":"평일+토요일+공휴일","weekdayOpen":"00:00","weekdayClose":"23:59","weekendOpen":"00:00","weekendClose":"23:59","holidayOpen":"00:00","holidayClose":"23:59","feeInfo":"기본 30분 900원 / 추가 15분당 450원","phone":"063-239-2767","updatedAt":"2025-06-09","sido":"전북특별자치도","sigungu":"전주시","dong":""},{"name":"만성지구 제7주차장","type":"공영","category":"노외","address":"전북특별자치도 전주시 덕진구 만성동 1364-3","lat":35.84478267,"lng":127.0738994,"totalSpaces":65,"isFree":false,"operatingDays":"평일+토요일+공휴일","weekdayOpen":"00:00","weekdayClose":"23:59","weekendOpen":"00:00","weekendClose":"23:59","holidayOpen":"00:00","holidayClose":"23:59","feeInfo":"기본 30분 700원 / 추가 15분당 350원","phone":"063-239-2767","updatedAt":"2025-06-09","sido":"전북특별자치도","sigungu":"전주시","dong":""},{"name":"서부신시가지 KB은행","type":"공영","category":"노외","address":"전북특별자치도 전주시 완산구 홍산1길 4-13","lat":35.81516099,"lng":127.1078072,"totalSpaces":62,"isFree":false,"operatingDays":"평일+토요일+공휴일","weekdayOpen":"00:00","weekdayClose":"23:59","weekendOpen":"00:00","weekendClose":"23:59","holidayOpen":"00:00","holidayClose":"23:59","feeInfo":"기본 30분 900원 / 추가 15분당 450원","phone":"063-239-2767","updatedAt":"2025-06-09","sido":"전북특별자치도","sigungu":"전주시","dong":""},{"name":"만성지구 제2주차장","type":"공영","category":"노외","address":"전북특별자치도 전주시 덕진구 만성동 1265-13","lat":35.8414222,"lng":127.074826,"totalSpaces":54,"isFree":false,"operatingDays":"평일+토요일+공휴일","weekdayOpen":"00:00","weekdayClose":"23:59","weekendOpen":"00:00","weekendClose":"23:59","holidayOpen":"00:00","holidayClose":"23:59","feeInfo":"기본 30분 700원 / 추가 15분당 350원","phone":"063-239-2767","updatedAt":"2025-06-09","sido":"전북특별자치도","sigungu":"전주시","dong":""},{"name":"에코시티 12","type":"공영","category":"노외","address":"전북특별자치도 전주시 덕진구 송천동2가 1327-3","lat":35.87332179,"lng":127.1264799,"totalSpaces":52,"isFree":false,"operatingDays":"평일+토요일+공휴일","weekdayOpen":"00:00","weekdayClose":"23:59","weekendOpen":"00:00","weekendClose":"23:59","holidayOpen":"00:00","holidayClose":"23:59","feeInfo":"기본 30분 900원 / 추가 15분당 450원","phone":"063-239-2767","updatedAt":"2025-06-09","sido":"전북특별자치도","sigungu":"전주시","dong":""},{"name":"만성지구 제8주차장","type":"공영","category":"노외","address":"전북특별자치도 전주시 덕진구 만성동 1354-6","lat":35.84873934,"lng":127.0772524,"totalSpaces":50,"isFree":false,"operatingDays":"평일+토요일+공휴일","weekdayOpen":"00:00","weekdayClose":"23:59","weekendOpen":"00:00","weekendClose":"23:59","holidayOpen":"00:00","holidayClose":"23:59","feeInfo":"기본 30분 700원 / 추가 15분당 350원","phone":"063-239-2767","updatedAt":"2025-06-09","sido":"전북특별자치도","sigungu":"전주시","dong":""},{"name":"서부신시가지 시티병원","type":"공영","category":"노외","address":"전북특별자치도 전주시 완산구 홍산2길 5-12","lat":35.81516209,"lng":127.1101742,"totalSpaces":50,"isFree":false,"operatingDays":"평일+토요일+공휴일","weekdayOpen":"00:00","weekdayClose":"23:59","weekendOpen":"00:00","weekendClose":"23:59","holidayOpen":"00:00","holidayClose":"23:59","feeInfo":"기본 30분 900원 / 추가 15분당 450원","phone":"063-239-2767","updatedAt":"2025-06-09","sido":"전북특별자치도","sigungu":"전주시","dong":""},{"name":"객리단길(거주자우선)","type":"공영","category":"노상","address":"전북특별자치도 전주시 완산구 전주객사2길 74-3","lat":35.82023782,"lng":127.1400439,"totalSpaces":48,"isFree":false,"operatingDays":"평일+토요일+공휴일","weekdayOpen":"09:00","weekdayClose":"22:00","weekendOpen":"09:00","weekendClose":"22:00","holidayOpen":"09:00","holidayClose":"22:00","feeInfo":"기본 30분 700원 / 추가 15분당 350원","phone":"063-239-2767","updatedAt":"2025-06-09","sido":"전북특별자치도","sigungu":"전주시","dong":""},{"name":"서부신시가지 농협중앙회","type":"공영","category":"노외","address":"전북특별자치도 전주시 완산구 홍산북로 53","lat":35.81762512,"lng":127.1078221,"totalSpaces":48,"isFree":false,"operatingDays":"평일+토요일+공휴일","weekdayOpen":"00:00","weekdayClose":"23:59","weekendOpen":"00:00","weekendClose":"23:59","holidayOpen":"00:00","holidayClose":"23:59","feeInfo":"기본 30분 900원 / 추가 15분당 450원","phone":"063-239-2767","updatedAt":"2025-06-09","sido":"전북특별자치도","sigungu":"전주시","dong":""},{"name":"효천지구 제1주차장","type":"공영","category":"노외","address":"전북특별자치도 전주시 완산구 효자동2가 1359-3","lat":35.80159239,"lng":127.1010959,"totalSpaces":44,"isFree":false,"operatingDays":"평일+토요일+공휴일","weekdayOpen":"00:00","weekdayClose":"23:59","weekendOpen":"00:00","weekendClose":"23:59","holidayOpen":"00:00","holidayClose":"23:59","feeInfo":"기본 30분 900원 / 추가 15분당 450원","phone":"063-239-2767","updatedAt":"2025-06-09","sido":"전북특별자치도","sigungu":"전주시","dong":""},{"name":"서부신시가지 도청옆","type":"공영","category":"노외","address":"전북특별자치도 전주시 완산구 홍산북로 75","lat":35.81761757,"lng":127.1101793,"totalSpaces":43,"isFree":false,"operatingDays":"평일+토요일+공휴일","weekdayOpen":"00:00","weekdayClose":"23:59","weekendOpen":"00:00","weekendClose":"23:59","holidayOpen":"00:00","holidayClose":"23:59","feeInfo":"기본 30분 900원 / 추가 15분당 450원","phone":"063-239-2767","updatedAt":"2025-06-09","sido":"전북특별자치도","sigungu":"전주시","dong":""},{"name":"공구거리 노상","type":"공영","category":"노상","address":"전북특별자치도 전주시 완산구 고사동 227-1","lat":35.8225592,"lng":127.143692,"totalSpaces":40,"isFree":false,"operatingDays":"평일+토요일+공휴일","weekdayOpen":"08:00","weekdayClose":"19:00","weekendOpen":"08:00","weekendClose":"19:00","holidayOpen":"08:00","holidayClose":"19:00","feeInfo":"기본 30분 900원 / 추가 15분당 450원","phone":"063-239-2767","updatedAt":"2025-06-09","sido":"전북특별자치도","sigungu":"전주시","dong":""},{"name":"덕진광장","type":"공영","category":"노외","address":"전북특별자치도 전주시 덕진구 덕진광장로 3","lat":35.84419534,"lng":127.1240375,"totalSpaces":33,"isFree":false,"operatingDays":"평일+토요일+공휴일","weekdayOpen":"00:00","weekdayClose":"23:59","weekendOpen":"00:00","weekendClose":"23:59","holidayOpen":"00:00","holidayClose":"23:59","feeInfo":"기본 30분 900원 / 추가 15분당 450원","phone":"063-239-2767","updatedAt":"2025-06-09","sido":"전북특별자치도","sigungu":"전주시","dong":""},{"name":"신복마을","type":"공영","category":"노외","address":"전북특별자치도 전주시 덕진구 신복5길 22","lat":35.85503223,"lng":127.1060562,"totalSpaces":30,"isFree":false,"operatingDays":"평일+토요일+공휴일","weekdayOpen":"09:00","weekdayClose":"18:00","weekendOpen":"09:00","weekendClose":"18:00","holidayOpen":"09:00","holidayClose":"18:00","feeInfo":"기본 30분 700원 / 추가 15분당 350원","phone":"063-239-2767","updatedAt":"2025-06-09","sido":"전북특별자치도","sigungu":"전주시","dong":""},{"name":"서신동 서신지구대 옆","type":"공영","category":"노외","address":"전북특별자치도 전주시 완산구 새터로 46","lat":35.83541434,"lng":127.1114012,"totalSpaces":28,"isFree":false,"operatingDays":"평일+토요일+공휴일","weekdayOpen":"09:00","weekdayClose":"21:00","weekendOpen":"09:00","weekendClose":"21:00","holidayOpen":"09:00","holidayClose":"21:00","feeInfo":"기본 30분 700원 / 추가 15분당 350원","phone":"063-239-2767","updatedAt":"2025-06-09","sido":"전북특별자치도","sigungu":"전주시","dong":""},{"name":"만성지구 제4주차장","type":"공영","category":"노외","address":"전북특별자치도 전주시 덕진구 만성동 1265-1","lat":35.84271867,"lng":127.0715576,"totalSpaces":26,"isFree":false,"operatingDays":"평일+토요일+공휴일","weekdayOpen":"00:00","weekdayClose":"23:59","weekendOpen":"00:00","weekendClose":"23:59","holidayOpen":"00:00","holidayClose":"23:59","feeInfo":"기본 30분 700원 / 추가 15분당 350원","phone":"063-239-2767","updatedAt":"2025-06-09","sido":"전북특별자치도","sigungu":"전주시","dong":""},{"name":"금암2동 주차장","type":"공영","category":"노외","address":"전북특별자치도 전주시 덕진구 매봉12길 5","lat":35.83961627,"lng":127.1411636,"totalSpaces":24,"isFree":false,"operatingDays":"평일+토요일+공휴일","weekdayOpen":"00:00","weekdayClose":"23:59","weekendOpen":"00:00","weekendClose":"23:59","holidayOpen":"00:00","holidayClose":"23:59","feeInfo":"기본 30분 700원 / 추가 15분당 350원","phone":"063-239-2767","updatedAt":"2025-06-09","sido":"전북특별자치도","sigungu":"전주시","dong":""},{"name":"하가지구 리드빌딩 옆","type":"공영","category":"노외","address":"전북특별자치도 전주시 덕진구 가련산로 20","lat":35.8413385,"lng":127.1112829,"totalSpaces":23,"isFree":false,"operatingDays":"평일+토요일+공휴일","weekdayOpen":"00:00","weekdayClose":"23:59","weekendOpen":"00:00","weekendClose":"23:59","holidayOpen":"00:00","holidayClose":"23:59","feeInfo":"기본 30분 700원 / 추가 15분당 350원","phone":"063-239-2767","updatedAt":"2025-06-09","sido":"전북특별자치도","sigungu":"전주시","dong":""},{"name":"전북대앞 노상","type":"공영","category":"노상","address":"전북특별자치도 전주시 덕진구 금암동 664-9","lat":35.84320142,"lng":127.1287033,"totalSpaces":17,"isFree":false,"operatingDays":"평일+토요일+공휴일","weekdayOpen":"08:00","weekdayClose":"21:00","weekendOpen":"08:00","weekendClose":"21:00","holidayOpen":"08:00","holidayClose":"21:00","feeInfo":"기본 30분 900원 / 추가 15분당 450원","phone":"063-239-2767","updatedAt":"2025-06-09","sido":"전북특별자치도","sigungu":"전주시","dong":""},{"name":"평화2동","type":"공영","category":"노외","address":"전북특별자치도 전주시 완산구 평화로 216","lat":35.7958792,"lng":127.1367028,"totalSpaces":13,"isFree":false,"operatingDays":"평일+토요일+공휴일","weekdayOpen":"00:00","weekdayClose":"23:59","weekendOpen":"00:00","weekendClose":"23:59","holidayOpen":"00:00","holidayClose":"23:59","feeInfo":"기본 30분 700원 / 추가 15분당 350원","phone":"063-239-2767","updatedAt":"2025-06-09","sido":"전북특별자치도","sigungu":"전주시","dong":""},{"name":"역사도심","type":"공영","category":"노외","address":"전북특별자치도 전주시 완산구 전라감영로 9","lat":35.81426835,"lng":127.1404782,"totalSpaces":11,"isFree":false,"operatingDays":"평일+토요일+공휴일","weekdayOpen":"00:00","weekdayClose":"23:59","weekendOpen":"00:00","weekendClose":"23:59","holidayOpen":"00:00","holidayClose":"23:59","feeInfo":"기본 30분 900원 / 추가 15분당 450원","phone":"063-239-2767","updatedAt":"2025-06-09","sido":"전북특별자치도","sigungu":"전주시","dong":""}]}