{"sido":"부산광역시","sigungu":"남구","totalCount":76,"validCount":76,"items":[{"name":"용호부두 공영주차장","type":"공영","category":"노외","address":"부산광역시 남구 분포로 93","lat":35.1321062,"lng":129.1160951,"totalSpaces":172,"isFree":false,"operatingDays":"평일+토요일+공휴일","weekdayOpen":"00:00","weekdayClose":"23:59","weekendOpen":"00:00","weekendClose":"23:59","holidayOpen":"00:00","holidayClose":"23:59","feeInfo":"기본 10분 300원 / 추가 10분당 300원","phone":"051-626-8302","updatedAt":"2025-04-10","sido":"부산광역시","sigungu":"남구","dong":"용호동"},{"name":"이기대제1,제2공영주차장","type":"공영","category":"노외","address":"부산광역시 남구 용호동 15-1","lat":35.12558312,"lng":129.1184079,"totalSpaces":134,"isFree":false,"operatingDays":"평일+토요일+공휴일","weekdayOpen":"00:00","weekdayClose":"23:59","weekendOpen":"00:00","weekendClose":"23:59","holidayOpen":"00:00","holidayClose":"23:59","feeInfo":"기본 0분 300원","phone":"051-601-3438","updatedAt":"2025-11-18","sido":"부산광역시","sigungu":"남구","dong":"용호동"},{"name":"백운포체육공원앞공영주차장","type":"공영","category":"노상","address":"부산광역시 남구 용호동 895-5","lat":35.10227327,"lng":129.1091912,"totalSpaces":121,"isFree":false,"operatingDays":"평일+토요일+공휴일","weekdayOpen":"00:00","weekdayClose":"18:00","weekendOpen":"00:00","weekendClose":"15:00","holidayOpen":"00:00","holidayClose":"23:59","feeInfo":"기본 0분 100원","phone":"051-601-3438","updatedAt":"2025-11-18","sido":"부산광역시","sigungu":"남구","dong":"용호동"},{"name":"수영로39번길(번영로 아래)","type":"공영","category":"노상","address":"부산광역시 남구 문현동 231-8","lat":35.13755761,"lng":129.0743417,"totalSpaces":121,"isFree":false,"operatingDays":"평일+토요일+공휴일","weekdayOpen":"00:00","weekdayClose":"23:59","weekendOpen":"00:00","weekendClose":"23:59","holidayOpen":"00:00","holidayClose":"23:59","feeInfo":"기본 0분 40,000원","phone":"051-607-6951","updatedAt":"2025-11-18","sido":"부산광역시","sigungu":"남구","dong":"문현동"},{"name":"용호만유람선터미널 부설주차장","type":"공영","category":"노외","address":"부산광역시 남구 분포로 101","lat":35.13272835,"lng":129.1153521,"totalSpaces":66,"isFree":false,"operatingDays":"평일+토요일+공휴일","weekdayOpen":"00:00","weekdayClose":"23:59","weekendOpen":"00:00","weekendClose":"23:59","holidayOpen":"00:00","holidayClose":"23:59","feeInfo":"기본 10분 300원 / 추가 10분당 300원","phone":"051-626-8302","updatedAt":"2025-04-10","sido":"부산광역시","sigungu":"남구","dong":"용호동"},{"name":"한일오피스텔주변","type":"공영","category":"노상","address":"부산광역시 남구 지게골로 17","lat":35.13578498,"lng":129.0690086,"totalSpaces":51,"isFree":false,"operatingDays":"평일+토요일+공휴일","weekdayOpen":"00:00","weekdayClose":"23:59","weekendOpen":"00:00","weekendClose":"23:59","holidayOpen":"00:00","holidayClose":"23:59","feeInfo":"기본 0분 40,000원","phone":"051-607-6962","updatedAt":"2025-11-18","sido":"부산광역시","sigungu":"남구","dong":"문현동"},{"name":"동국제강 진입로","type":"공영","category":"노상","address":"부산광역시 남구 감만동 602","lat":35.11996835,"lng":129.0809973,"totalSpaces":47,"isFree":false,"operatingDays":"평일+토요일+공휴일","weekdayOpen":"00:00","weekdayClose":"23:59","weekendOpen":"00:00","weekendClose":"23:59","holidayOpen":"00:00","holidayClose":"23:59","feeInfo":"기본 0분 40,000원","phone":"051-607-6822","updatedAt":"2025-11-18","sido":"부산광역시","sigungu":"남구","dong":"감만동"},{"name":"스카이워크공영주차장","type":"공영","category":"노외","address":"부산광역시 남구 용호동 950","lat":35.10248663,"lng":129.1223846,"totalSpaces":46,"isFree":false,"operatingDays":"평일+토요일+공휴일","weekdayOpen":"00:00","weekdayClose":"23:59","weekendOpen":"00:00","weekendClose":"23:59","holidayOpen":"00:00","holidayClose":"23:59","feeInfo":"기본 0분 300원","phone":"051-601-3416","updatedAt":"2025-11-18","sido":"부산광역시","sigungu":"남구","dong":"용호동"},{"name":"용호중학교 옆 공영주차장","type":"공영","category":"노외","address":"부산광역시 남구 용호동 514","lat":35.1187193,"lng":129.1173071,"totalSpaces":42,"isFree":false,"operatingDays":"평일+토요일+공휴일","weekdayOpen":"00:00","weekdayClose":"23:59","weekendOpen":"00:00","weekendClose":"23:59","holidayOpen":"00:00","holidayClose":"23:59","feeInfo":"기본 0분 40,000원","phone":"051-607-6764","updatedAt":"2025-11-18","sido":"부산광역시","sigungu":"남구","dong":"용호동"},{"name":"남천중 진입로","type":"공영","category":"노상","address":"부산광역시 남구 대연동 455-13","lat":35.13693222,"lng":129.1050051,"totalSpaces":37,"isFree":false,"operatingDays":"평일+토요일+공휴일","weekdayOpen":"00:00","weekdayClose":"23:59","weekendOpen":"00:00","weekendClose":"23:59","holidayOpen":"00:00","holidayClose":"23:59","feeInfo":"기본 0분 40,000원","phone":"051-607-6644","updatedAt":"2025-11-18","sido":"부산광역시","sigungu":"남구","dong":"대연동"},{"name":"문현1동 제2공영주차장","type":"공영","category":"노외","address":"부산광역시 남구 문현동 54-59","lat":35.14510729,"lng":129.0764783,"totalSpaces":36,"isFree":false,"operatingDays":"평일+토요일+공휴일","weekdayOpen":"00:00","weekdayClose":"23:59","weekendOpen":"00:00","weekendClose":"23:59","holidayOpen":"00:00","holidayClose":"23:59","feeInfo":"기본 0분 40,000원","phone":"051-607-6906","updatedAt":"2025-11-18","sido":"부산광역시","sigungu":"남구","dong":"문현동"},{"name":"중앙고교담장주변","type":"공영","category":"노상","address":"부산광역시 남구 대연동 1779","lat":35.13976019,"lng":129.0782076,"totalSpaces":35,"isFree":false,"operatingDays":"평일+토요일+공휴일","weekdayOpen":"00:00","weekdayClose":"23:59","weekendOpen":"00:00","weekendClose":"23:59","holidayOpen":"00:00","holidayClose":"23:59","feeInfo":"기본 0분 40,000원","phone":"051-607-6704","updatedAt":"2025-11-18","sido":"부산광역시","sigungu":"남구","dong":"대연동"},{"name":"현대오일뱅크주유소 옆","type":"공영","category":"노상","address":"부산광역시 남구 문현동 854-18","lat":35.1347774,"lng":129.0683264,"totalSpaces":29,"isFree":false,"operatingDays":"평일+토요일+공휴일","weekdayOpen":"00:00","weekdayClose":"23:59","weekendOpen":"00:00","weekendClose":"23:59","holidayOpen":"00:00","holidayClose":"23:59","feeInfo":"기본 0분 40,000원","phone":"051-607-6962","updatedAt":"2025-11-18","sido":"부산광역시","sigungu":"남구","dong":"문현동"},{"name":"부산세무고등학교주변","type":"공영","category":"노상","address":"부산광역시 남구 대연동 1801","lat":35.13885179,"lng":129.0847678,"totalSpaces":29,"isFree":false,"operatingDays":"평일+토요일+공휴일","weekdayOpen":"00:00","weekdayClose":"23:59","weekendOpen":"00:00","weekendClose":"23:59","holidayOpen":"00:00","holidayClose":"23:59","feeInfo":"기본 0분 40,000원","phone":"051-607-6704","updatedAt":"2025-11-18","sido":"부산광역시","sigungu":"남구","dong":"대연동"},{"name":"진남로232번길 공영주차장","type":"공영","category":"노외","address":"부산광역시 남구 문현동 53-11","lat":35.14579738,"lng":129.0767795,"totalSpaces":28,"isFree":false,"operatingDays":"평일+토요일+공휴일","weekdayOpen":"00:00","weekdayClose":"23:59","weekendOpen":"00:00","weekendClose":"23:59","holidayOpen":"00:00","holidayClose":"23:59","feeInfo":"기본 0분 40,000원","phone":"051-607-6906","updatedAt":"2025-11-18","sido":"부산광역시","sigungu":"남구","dong":"문현동"},{"name":"용호로232번길 공영주차장","type":"공영","category":"노외","address":"부산광역시 남구 용호동 536-1","lat":35.1136905,"lng":129.1090257,"totalSpaces":28,"isFree":false,"operatingDays":"평일+토요일+공휴일","weekdayOpen":"00:00","weekdayClose":"23:59","weekendOpen":"00:00","weekendClose":"23:59","holidayOpen":"00:00","holidayClose":"23:59","feeInfo":"기본 0분 40,000원","phone":"051-607-6782","updatedAt":"2025-11-18","sido":"부산광역시","sigungu":"남구","dong":"용호동"},{"name":"백세교","type":"공영","category":"노외","address":"부산광역시 남구 용호동 869","lat":35.11380616,"lng":129.1163929,"totalSpaces":28,"isFree":false,"operatingDays":"평일+토요일+공휴일","weekdayOpen":"00:00","weekdayClose":"23:59","weekendOpen":"00:00","weekendClose":"23:59","holidayOpen":"00:00","holidayClose":"23:59","feeInfo":"기본 0분 40,000원","phone":"051-607-6742","updatedAt":"2025-11-18","sido":"부산광역시","sigungu":"남구","dong":"용호동"},{"name":"부산공고담장주변","type":"공영","category":"노상","address":"부산광역시 남구 대연동 1203-115","lat":35.13091392,"lng":129.0869949,"totalSpaces":28,"isFree":false,"operatingDays":"평일+토요일+공휴일","weekdayOpen":"00:00","weekdayClose":"23:59","weekendOpen":"00:00","weekendClose":"23:59","holidayOpen":"00:00","holidayClose":"23:59","feeInfo":"기본 0분 40,000원","phone":"051-607-6662","updatedAt":"2025-11-18","sido":"부산광역시","sigungu":"남구","dong":"대연동"},{"name":"구거복개지","type":"공영","category":"노외","address":"부산광역시 남구 문현동 837-1","lat":35.13588156,"lng":129.0680648,"totalSpaces":27,"isFree":false,"operatingDays":"평일+토요일+공휴일","weekdayOpen":"00:00","weekdayClose":"23:59","weekendOpen":"00:00","weekendClose":"23:59","holidayOpen":"00:00","holidayClose":"23:59","feeInfo":"기본 0분 40,000원","phone":"051-607-6962","updatedAt":"2025-11-18","sido":"부산광역시","sigungu":"남구","dong":"문현동"},{"name":"용호로178번길 공영주차장","type":"공영","category":"노외","address":"부산광역시 남구 용호동 485-2","lat":35.11643077,"lng":129.1100396,"totalSpaces":25,"isFree":false,"operatingDays":"평일+토요일+공휴일","weekdayOpen":"00:00","weekdayClose":"23:59","weekendOpen":"00:00","weekendClose":"23:59","holidayOpen":"00:00","holidayClose":"23:59","feeInfo":"기본 0분 40,000원","phone":"051-607-6782","updatedAt":"2025-11-18","sido":"부산광역시","sigungu":"남구","dong":"용호동"},{"name":"동명로157번길 공영주차장","type":"공영","category":"노외","address":"부산광역시 남구 용호동 373-15","lat":35.11963238,"lng":129.1145472,"totalSpaces":23,"isFree":false,"operatingDays":"평일+토요일+공휴일","weekdayOpen":"00:00","weekdayClose":"23:59","weekendOpen":"00:00","weekendClose":"23:59","holidayOpen":"00:00","holidayClose":"23:59","feeInfo":"기본 0분 40,000원","phone":"051-607-6764","updatedAt":"2025-11-18","sido":"부산광역시","sigungu":"남구","dong":"용호동"},{"name":"감만2동 제1공영주차장","type":"공영","category":"노외","address":"부산광역시 남구 감만동 3-47","lat":35.12114984,"lng":129.0867098,"totalSpaces":22,"isFree":false,"operatingDays":"평일+토요일+공휴일","weekdayOpen":"00:00","weekdayClose":"23:59","weekendOpen":"00:00","weekendClose":"23:59","holidayOpen":"00:00","holidayClose":"23:59","feeInfo":"기본 0분 40,000원","phone":"051-607-6842","updatedAt":"2025-11-18","sido":"부산광역시","sigungu":"남구","dong":"감만동"},{"name":"성암사 주변","type":"공영","category":"노상","address":"부산광역시 남구 문현동 71-6","lat":35.14566492,"lng":129.0786738,"totalSpaces":21,"isFree":false,"operatingDays":"평일+토요일+공휴일","weekdayOpen":"00:00","weekdayClose":"23:59","weekendOpen":"00:00","weekendClose":"23:59","holidayOpen":"00:00","holidayClose":"23:59","feeInfo":"기본 0분 40,000원","phone":"051-607-6906","updatedAt":"2025-11-18","sido":"부산광역시","sigungu":"남구","dong":"문현동"},{"name":"한신문화타운맞은편","type":"공영","category":"노상","address":"부산광역시 남구 용당동 566-2","lat":35.12391022,"lng":129.0972203,"totalSpaces":21,"isFree":false,"operatingDays":"평일+토요일+공휴일","weekdayOpen":"00:00","weekdayClose":"23:59","weekendOpen":"00:00","weekendClose":"23:59","holidayOpen":"00:00","holidayClose":"23:59","feeInfo":"기본 0분 40,000원","phone":"051-607-6802","updatedAt":"2025-11-18","sido":"부산광역시","sigungu":"남구","dong":"용당동"},{"name":"동명로118번길 공영주차장","type":"공영","category":"노외","address":"부산광역시 남구 용호동 485-16","lat":35.11511138,"lng":129.1097275,"totalSpaces":20,"isFree":false,"operatingDays":"평일+토요일+공휴일","weekdayOpen":"00:00","weekdayClose":"23:59","weekendOpen":"00:00","weekendClose":"23:59","holidayOpen":"00:00","holidayClose":"23:59","feeInfo":"기본 0분 40,000원","phone":"051-607-6782","updatedAt":"2025-11-18","sido":"부산광역시","sigungu":"남구","dong":"용호동"},{"name":"119안전센터 옆","type":"공영","category":"노상","address":"부산광역시 남구 감만동 592-24","lat":35.11771738,"lng":129.0805327,"totalSpaces":19,"isFree":false,"operatingDays":"평일+토요일+공휴일","weekdayOpen":"00:00","weekdayClose":"23:59","weekendOpen":"00:00","weekendClose":"23:59","holidayOpen":"00:00","holidayClose":"23:59","feeInfo":"기본 0분 40,000원","phone":"051-607-6822","updatedAt":"2025-11-18","sido":"부산광역시","sigungu":"남구","dong":"감만동"},{"name":"용호4동주민센터 주변","type":"공영","category":"노상","address":"부산광역시 남구 동명로132번길 146","lat":35.11332715,"lng":129.1100981,"totalSpaces":19,"isFree":false,"operatingDays":"평일+토요일+공휴일","weekdayOpen":"00:00","weekdayClose":"23:59","weekendOpen":"00:00","weekendClose":"23:59","holidayOpen":"00:00","holidayClose":"23:59","feeInfo":"기본 0분 40,000원","phone":"051-607-6782","updatedAt":"2025-11-18","sido":"부산광역시","sigungu":"남구","dong":"용호동"},{"name":"문화회관진입로","type":"공영","category":"노상","address":"부산광역시 남구 대연동 848-4","lat":35.12718493,"lng":129.0934781,"totalSpaces":19,"isFree":false,"operatingDays":"평일+토요일+공휴일","weekdayOpen":"00:00","weekdayClose":"23:59","weekendOpen":"00:00","weekendClose":"23:59","holidayOpen":"00:00","holidayClose":"23:59","feeInfo":"기본 0분 40,000원","phone":"051-607-6662","updatedAt":"2025-11-18","sido":"부산광역시","sigungu":"남구","dong":"대연동"},{"name":"용호초등학교뒤 공영주차장","type":"공영","category":"노외","address":"부산광역시 남구 용호동 66-3","lat":35.1229471,"lng":129.1081843,"totalSpaces":19,"isFree":false,"operatingDays":"평일+토요일+공휴일","weekdayOpen":"00:00","weekdayClose":"23:59","weekendOpen":"00:00","weekendClose":"23:59","holidayOpen":"00:00","holidayClose":"23:59","feeInfo":"기본 0분 40,000원","phone":"051-607-6734","updatedAt":"2025-11-18","sido":"부산광역시","sigungu":"남구","dong":"용호동"},{"name":"청호탕 주변","type":"공영","category":"노상","address":"부산광역시 남구 문현동 655-149","lat":35.13282338,"lng":129.0764345,"totalSpaces":18,"isFree":false,"operatingDays":"평일+토요일+공휴일","weekdayOpen":"00:00","weekdayClose":"23:59","weekendOpen":"00:00","weekendClose":"23:59","holidayOpen":"00:00","holidayClose":"23:59","feeInfo":"기본 0분 40,000원","phone":"051-607-6962","updatedAt":"2025-11-18","sido":"부산광역시","sigungu":"남구","dong":"문현동"},{"name":"E-마트 담벽 주변","type":"공영","category":"노상","address":"부산광역시 남구 전포대로91번길 47","lat":35.1443054,"lng":129.0642386,"totalSpaces":18,"isFree":false,"operatingDays":"평일+토요일+공휴일","weekdayOpen":"00:00","weekdayClose":"23:59","weekendOpen":"00:00","weekendClose":"23:59","holidayOpen":"00:00","holidayClose":"23:59","feeInfo":"기본 0분 40,000원","phone":"051-607-6922","updatedAt":"2025-11-18","sido":"부산광역시","sigungu":"남구","dong":"문현동"},{"name":"삼성시장 배수펌프장 상부","type":"공영","category":"노외","address":"부산광역시 남구 용호동 261-5","lat":35.12352921,"lng":129.1101868,"totalSpaces":18,"isFree":false,"operatingDays":"평일+토요일+공휴일","weekdayOpen":"00:00","weekdayClose":"23:59","weekendOpen":"00:00","weekendClose":"23:59","holidayOpen":"00:00","holidayClose":"23:59","feeInfo":"기본 0분 40,000원","phone":"051-607-6734","updatedAt":"2025-11-18","sido":"부산광역시","sigungu":"남구","dong":"용호동"},{"name":"용호종합복지관주변","type":"공영","category":"노상","address":"부산광역시 남구 용호동 85-2","lat":35.12424973,"lng":129.1138002,"totalSpaces":18,"isFree":false,"operatingDays":"평일+토요일+공휴일","weekdayOpen":"00:00","weekdayClose":"23:59","weekendOpen":"00:00","weekendClose":"23:59","holidayOpen":"00:00","holidayClose":"23:59","feeInfo":"기본 0분 40,000원","phone":"051-607-6764","updatedAt":"2025-11-18","sido":"부산광역시","sigungu":"남구","dong":"용호동"},{"name":"성동중학교 담장 주변","type":"공영","category":"노상","address":"부산광역시 남구 문현동 791-1","lat":35.14135678,"lng":129.065057,"totalSpaces":17,"isFree":false,"operatingDays":"평일+토요일+공휴일","weekdayOpen":"00:00","weekdayClose":"23:59","weekendOpen":"00:00","weekendClose":"23:59","holidayOpen":"00:00","holidayClose":"23:59","feeInfo":"기본 0분 40,000원","phone":"051-607-6922","updatedAt":"2025-11-18","sido":"부산광역시","sigungu":"남구","dong":"문현동"},{"name":"용호1동 제4공영주차장","type":"공영","category":"노외","address":"부산광역시 남구 용호동 221-1","lat":35.12443012,"lng":129.1093228,"totalSpaces":17,"isFree":false,"operatingDays":"평일+토요일+공휴일","weekdayOpen":"00:00","weekdayClose":"23:59","weekendOpen":"00:00","weekendClose":"23:59","holidayOpen":"00:00","holidayClose":"23:59","feeInfo":"기본 0분 40,000원","phone":"051-607-6734","updatedAt":"2025-11-18","sido":"부산광역시","sigungu":"남구","dong":"용호동"},{"name":"제2주거지전용주차장","type":"공영","category":"노상","address":"부산광역시 남구 유엔로157번길 57","lat":35.1328152,"lng":129.0932175,"totalSpaces":17,"isFree":false,"operatingDays":"평일+토요일+공휴일","weekdayOpen":"00:00","weekdayClose":"23:59","weekendOpen":"00:00","weekendClose":"23:59","holidayOpen":"00:00","holidayClose":"23:59","feeInfo":"기본 0분 40,000원","phone":"051-607-6604","updatedAt":"2025-11-18","sido":"부산광역시","sigungu":"남구","dong":"대연동"},{"name":"수영로69번길 공영주차장","type":"공영","category":"노외","address":"부산광역시 남구 문현동 262-2","lat":35.13664128,"lng":129.0769611,"totalSpaces":16,"isFree":false,"operatingDays":"평일+토요일+공휴일","weekdayOpen":"00:00","weekdayClose":"23:59","weekendOpen":"00:00","weekendClose":"23:59","holidayOpen":"00:00","holidayClose":"23:59","feeInfo":"기본 0분 40,000원","phone":"051-607-6951","updatedAt":"2025-11-18","sido":"부산광역시","sigungu":"남구","dong":"문현동"},{"name":"새마을금고주변","type":"공영","category":"노상","address":"부산광역시 남구 우암동 189","lat":35.12791844,"lng":129.0710305,"totalSpaces":16,"isFree":false,"operatingDays":"평일+토요일+공휴일","weekdayOpen":"00:00","weekdayClose":"23:59","weekendOpen":"00:00","weekendClose":"23:59","holidayOpen":"00:00","holidayClose":"23:59","feeInfo":"기본 0분 40,000원","phone":"051-607-6866","updatedAt":"2025-11-18","sido":"부산광역시","sigungu":"남구","dong":"우암동"},{"name":"당산로 공영주차장","type":"공영","category":"노외","address":"부산광역시 남구 우암동 93-11","lat":35.12597625,"lng":129.077699,"totalSpaces":16,"isFree":false,"operatingDays":"평일+토요일+공휴일","weekdayOpen":"00:00","weekdayClose":"23:59","weekendOpen":"00:00","weekendClose":"23:59","holidayOpen":"00:00","holidayClose":"23:59","feeInfo":"기본 0분 40,000원","phone":"051-607-6866","updatedAt":"2025-11-18","sido":"부산광역시","sigungu":"남구","dong":"우암동"},{"name":"수영로325번길(번영로 아래)","type":"공영","category":"노상","address":"부산광역시 남구 대연동 217-6","lat":35.14507117,"lng":129.0958034,"totalSpaces":16,"isFree":false,"operatingDays":"평일+토요일+공휴일","weekdayOpen":"00:00","weekdayClose":"23:59","weekendOpen":"00:00","weekendClose":"23:59","holidayOpen":"00:00","holidayClose":"23:59","feeInfo":"기본 0분 40,000원","phone":"051-607-6644","updatedAt":"2025-11-18","sido":"부산광역시","sigungu":"남구","dong":"대연동"},{"name":"양지아파트주변","type":"공영","category":"노외","address":"부산광역시 남구 감만동 44-149","lat":35.12351383,"lng":129.085048,"totalSpaces":15,"isFree":false,"operatingDays":"평일+토요일+공휴일","weekdayOpen":"00:00","weekdayClose":"23:59","weekendOpen":"00:00","weekendClose":"23:59","holidayOpen":"00:00","holidayClose":"23:59","feeInfo":"기본 0분 40,000원","phone":"051-607-6842","updatedAt":"2025-11-18","sido":"부산광역시","sigungu":"남구","dong":"감만동"},{"name":"문현1동 제3공영주차장","type":"공영","category":"노외","address":"부산광역시 남구 문현동 125-7","lat":35.14360716,"lng":129.0724354,"totalSpaces":14,"isFree":false,"operatingDays":"평일+토요일+공휴일","weekdayOpen":"00:00","weekdayClose":"23:59","weekendOpen":"00:00","weekendClose":"23:59","holidayOpen":"00:00","holidayClose":"23:59","feeInfo":"기본 0분 40,000원","phone":"051-607-6906","updatedAt":"2025-11-18","sido":"부산광역시","sigungu":"남구","dong":"문현동"},{"name":"용호중앙교회앞 공영주차장","type":"공영","category":"노외","address":"부산광역시 남구 용호동 409-25","lat":35.11856099,"lng":129.1091141,"totalSpaces":14,"isFree":false,"operatingDays":"평일+토요일+공휴일","weekdayOpen":"00:00","weekdayClose":"23:59","weekendOpen":"00:00","weekendClose":"23:59","holidayOpen":"00:00","holidayClose":"23:59","feeInfo":"기본 0분 40,000원","phone":"051-607-6734","updatedAt":"2025-11-18","sido":"부산광역시","sigungu":"남구","dong":"용호동"},{"name":"오륙도수변공원 공영주차장","type":"공영","category":"노외","address":"부산광역시 남구 용호동 산 196-4","lat":35.09984817,"lng":129.1229845,"totalSpaces":13,"isFree":false,"operatingDays":"평일+토요일+공휴일","weekdayOpen":"00:00","weekdayClose":"18:00","weekendOpen":"00:00","weekendClose":"18:00","holidayOpen":"00:00","holidayClose":"18:00","feeInfo":"기본 0분 300원","phone":"051-601-3416","updatedAt":"2025-11-18","sido":"부산광역시","sigungu":"남구","dong":"용호동"},{"name":"문현2동 주민센터 윗편","type":"공영","category":"노상","address":"부산광역시 남구 문현동 552-8","lat":35.1449971,"lng":129.0693615,"totalSpaces":13,"isFree":false,"operatingDays":"평일+토요일+공휴일","weekdayOpen":"00:00","weekdayClose":"23:59","weekendOpen":"00:00","weekendClose":"23:59","holidayOpen":"00:00","holidayClose":"23:59","feeInfo":"기본 0분 40,000원","phone":"051-607-6922","updatedAt":"2025-11-18","sido":"부산광역시","sigungu":"남구","dong":"문현동"},{"name":"국제아파트주변","type":"공영","category":"노상","address":"부산광역시 남구 감만동 27-10","lat":35.1217363,"lng":129.0852169,"totalSpaces":13,"isFree":false,"operatingDays":"평일+토요일+공휴일","weekdayOpen":"00:00","weekdayClose":"23:59","weekendOpen":"00:00","weekendClose":"23:59","holidayOpen":"00:00","holidayClose":"23:59","feeInfo":"기본 0분 40,000원","phone":"051-607-6842","updatedAt":"2025-11-18","sido":"부산광역시","sigungu":"남구","dong":"감만동"},{"name":"대연5동 제1공영주차장","type":"공영","category":"노외","address":"부산광역시 남구 대연동 1490-17","lat":35.14210156,"lng":129.0894217,"totalSpaces":13,"isFree":false,"operatingDays":"평일+토요일+공휴일","weekdayOpen":"00:00","weekdayClose":"23:59","weekendOpen":"00:00","weekendClose":"23:59","holidayOpen":"00:00","holidayClose":"23:59","feeInfo":"기본 0분 40,000원","phone":"051-607-6687","updatedAt":"2025-11-18","sido":"부산광역시","sigungu":"남구","dong":"대연동"},{"name":"하이빌 주변","type":"공영","category":"노상","address":"부산광역시 남구 전포대로110번길 26","lat":35.14648842,"lng":129.0683827,"totalSpaces":12,"isFree":false,"operatingDays":"평일+토요일+공휴일","weekdayOpen":"00:00","weekdayClose":"23:59","weekendOpen":"00:00","weekendClose":"23:59","holidayOpen":"00:00","holidayClose":"23:59","feeInfo":"기본 0분 40,000원","phone":"051-607-6922","updatedAt":"2025-11-18","sido":"부산광역시","sigungu":"남구","dong":"문현동"},{"name":"우암양달로 주거지주차장","type":"공영","category":"노상","address":"부산광역시 남구 우암동 181-498","lat":35.12617922,"lng":129.0721521,"totalSpaces":12,"isFree":false,"operatingDays":"평일+토요일+공휴일","weekdayOpen":"00:00","weekdayClose":"23:59","weekendOpen":"00:00","weekendClose":"23:59","holidayOpen":"00:00","holidayClose":"23:59","feeInfo":"기본 0분 40,000원","phone":"051-607-6866","updatedAt":"2025-11-18","sido":"부산광역시","sigungu":"남구","dong":"우암동"},{"name":"대연극동아파트 옆","type":"공영","category":"노상","address":"부산광역시 남구 대연동 282-5","lat":35.14019243,"lng":129.0914363,"totalSpaces":12,"isFree":false,"operatingDays":"평일+토요일+공휴일","weekdayOpen":"00:00","weekdayClose":"23:59","weekendOpen":"00:00","weekendClose":"23:59","holidayOpen":"00:00","holidayClose":"23:59","feeInfo":"기본 0분 40,000원","phone":"051-607-6687","updatedAt":"2025-11-18","sido":"부산광역시","sigungu":"남구","dong":"대연동"},{"name":"대흥택시 주변","type":"공영","category":"노상","address":"부산광역시 남구 대연동 1018","lat":35.13150697,"lng":129.0981915,"totalSpaces":12,"isFree":false,"operatingDays":"평일+토요일+공휴일","weekdayOpen":"00:00","weekdayClose":"23:59","weekendOpen":"00:00","weekendClose":"23:59","holidayOpen":"00:00","holidayClose":"23:59","feeInfo":"기본 0분 40,000원","phone":"051-607-6644","updatedAt":"2025-11-18","sido":"부산광역시","sigungu":"남구","dong":"대연동"},{"name":"제1주거지전용주차장","type":"공영","category":"노상","address":"부산광역시 남구 유엔평화로9번길 53","lat":35.13441511,"lng":129.0949226,"totalSpaces":12,"isFree":false,"operatingDays":"평일+토요일+공휴일","weekdayOpen":"00:00","weekdayClose":"23:59","weekendOpen":"00:00","weekendClose":"23:59","holidayOpen":"00:00","holidayClose":"23:59","feeInfo":"기본 0분 40,000원","phone":"051-607-6604","updatedAt":"2025-11-18","sido":"부산광역시","sigungu":"남구","dong":"대연동"},{"name":"효성택시 진입로","type":"공영","category":"노상","address":"부산광역시 남구 진남로188번길 13","lat":35.14343606,"lng":129.0784764,"totalSpaces":11,"isFree":false,"operatingDays":"평일+토요일+공휴일","weekdayOpen":"00:00","weekdayClose":"23:59","weekendOpen":"00:00","weekendClose":"23:59","holidayOpen":"00:00","holidayClose":"23:59","feeInfo":"기본 0분 40,000원","phone":"051-607-6906","updatedAt":"2025-11-18","sido":"부산광역시","sigungu":"남구","dong":"문현동"},{"name":"해군아파트아래 담장길","type":"공영","category":"노상","address":"부산광역시 남구 동명로118번길 125","lat":35.11453756,"lng":129.1096444,"totalSpaces":11,"isFree":false,"operatingDays":"평일+토요일+공휴일","weekdayOpen":"00:00","weekdayClose":"23:59","weekendOpen":"00:00","weekendClose":"23:59","holidayOpen":"00:00","holidayClose":"23:59","feeInfo":"기본 0분 40,000원","phone":"051-607-6782","updatedAt":"2025-11-18","sido":"부산광역시","sigungu":"남구","dong":"용호동"},{"name":"유엔평화로 9번길(항도빌라 주변)","type":"공영","category":"노상","address":"부산광역시 남구 유엔평화로9번길 42","lat":35.13403725,"lng":129.094297,"totalSpaces":11,"isFree":false,"operatingDays":"평일+토요일+공휴일","weekdayOpen":"00:00","weekdayClose":"23:59","weekendOpen":"00:00","weekendClose":"23:59","holidayOpen":"00:00","holidayClose":"23:59","feeInfo":"기본 0분 40,000원","phone":"051-607-6604","updatedAt":"2025-11-18","sido":"부산광역시","sigungu":"남구","dong":"대연동"},{"name":"감만2동 제2공영주차장","type":"공영","category":"노외","address":"부산광역시 남구 감만동 3-598","lat":35.11990315,"lng":129.0860342,"totalSpaces":10,"isFree":false,"operatingDays":"평일+토요일+공휴일","weekdayOpen":"00:00","weekdayClose":"23:59","weekendOpen":"00:00","weekendClose":"23:59","holidayOpen":"00:00","holidayClose":"23:59","feeInfo":"기본 0분 40,000원","phone":"051-607-6842","updatedAt":"2025-11-18","sido":"부산광역시","sigungu":"남구","dong":"감만동"},{"name":"뉴서울아파트주변","type":"공영","category":"노상","address":"부산광역시 남구 우암동 53-5","lat":35.12445436,"lng":129.0806891,"totalSpaces":10,"isFree":false,"operatingDays":"평일+토요일+공휴일","weekdayOpen":"00:00","weekdayClose":"23:59","weekendOpen":"00:00","weekendClose":"23:59","holidayOpen":"00:00","holidayClose":"23:59","feeInfo":"기본 0분 40,000원","phone":"051-607-6866","updatedAt":"2025-11-18","sido":"부산광역시","sigungu":"남구","dong":"우암동"},{"name":"부산성모병원 주차장","type":"공영","category":"노외","address":"부산광역시 남구 용호로232번길 25-14","lat":35.11051609,"lng":129.1091865,"totalSpaces":10,"isFree":false,"operatingDays":"평일+토요일+공휴일","weekdayOpen":"00:00","weekdayClose":"23:59","weekendOpen":"00:00","weekendClose":"23:59","holidayOpen":"00:00","holidayClose":"23:59","feeInfo":"기본 0분 40,000원","phone":"051-607-6782","updatedAt":"2025-11-18","sido":"부산광역시","sigungu":"남구","dong":""},{"name":"동보빌리지 주변","type":"공영","category":"노상","address":"부산광역시 남구 대연동 1479-22","lat":35.14041633,"lng":129.0893992,"totalSpaces":10,"isFree":false,"operatingDays":"평일+토요일+공휴일","weekdayOpen":"00:00","weekdayClose":"23:59","weekendOpen":"00:00","weekendClose":"23:59","holidayOpen":"00:00","holidayClose":"23:59","feeInfo":"기본 0분 40,000원","phone":"051-607-6687","updatedAt":"2025-11-18","sido":"부산광역시","sigungu":"남구","dong":"대연동"},{"name":"솔밭공원 윗길","type":"공영","category":"노상","address":"부산광역시 남구 용호동 409-22","lat":35.1186689,"lng":129.1087497,"totalSpaces":10,"isFree":false,"operatingDays":"평일+토요일+공휴일","weekdayOpen":"00:00","weekdayClose":"23:59","weekendOpen":"00:00","weekendClose":"23:59","holidayOpen":"00:00","holidayClose":"23:59","feeInfo":"기본 0분 40,000원","phone":"051-607-6734","updatedAt":"2025-11-18","sido":"부산광역시","sigungu":"남구","dong":"용호동"},{"name":"솔밭공원 아랫길","type":"공영","category":"노상","address":"부산광역시 남구 용호동 356-1","lat":35.11957014,"lng":129.1098529,"totalSpaces":10,"isFree":false,"operatingDays":"평일+토요일+공휴일","weekdayOpen":"00:00","weekdayClose":"23:59","weekendOpen":"00:00","weekendClose":"23:59","holidayOpen":"00:00","holidayClose":"23:59","feeInfo":"기본 0분 40,000원","phone":"051-607-6734","updatedAt":"2025-11-18","sido":"부산광역시","sigungu":"남구","dong":"용호동"},{"name":"동산그린아파트 앞","type":"공영","category":"노외","address":"부산광역시 남구 용호동 527-11","lat":35.11448428,"lng":129.1141799,"totalSpaces":10,"isFree":false,"operatingDays":"평일+토요일+공휴일","weekdayOpen":"00:00","weekdayClose":"23:59","weekendOpen":"00:00","weekendClose":"23:59","holidayOpen":"00:00","holidayClose":"23:59","feeInfo":"기본 0분 40,000원","phone":"051-607-6742","updatedAt":"2025-11-18","sido":"부산광역시","sigungu":"남구","dong":"용호동"},{"name":"대연1동 공영주차장","type":"공영","category":"노외","address":"부산광역시 남구 대연동 1750-7","lat":35.1341998,"lng":129.0898621,"totalSpaces":10,"isFree":false,"operatingDays":"평일+토요일+공휴일","weekdayOpen":"00:00","weekdayClose":"23:59","weekendOpen":"00:00","weekendClose":"23:59","holidayOpen":"00:00","holidayClose":"23:59","feeInfo":"기본 0분 40,000원","phone":"051-607-6604","updatedAt":"2025-11-18","sido":"부산광역시","sigungu":"남구","dong":"대연동"},{"name":"신풍상사 주변","type":"공영","category":"노상","address":"부산광역시 남구 자유평화로59번길 71","lat":35.14464319,"lng":129.0660965,"totalSpaces":9,"isFree":false,"operatingDays":"평일+토요일+공휴일","weekdayOpen":"00:00","weekdayClose":"23:59","weekendOpen":"00:00","weekendClose":"23:59","holidayOpen":"00:00","holidayClose":"23:59","feeInfo":"기본 0분 40,000원","phone":"051-607-6922","updatedAt":"2025-11-18","sido":"부산광역시","sigungu":"남구","dong":"문현동"},{"name":"유엔평화로153번길","type":"공영","category":"노상","address":"부산광역시 남구 유엔평화로153번길 20","lat":35.12338347,"lng":129.0984844,"totalSpaces":9,"isFree":false,"operatingDays":"평일+토요일+공휴일","weekdayOpen":"00:00","weekdayClose":"23:59","weekendOpen":"00:00","weekendClose":"23:59","holidayOpen":"00:00","holidayClose":"23:59","feeInfo":"기본 0분 40,000원","phone":"051-607-6802","updatedAt":"2025-11-18","sido":"부산광역시","sigungu":"남구","dong":"용당동"},{"name":"하얏트아파트주변","type":"공영","category":"노상","address":"부산광역시 남구 감만동 33-401","lat":35.12429821,"lng":129.0867311,"totalSpaces":9,"isFree":false,"operatingDays":"평일+토요일+공휴일","weekdayOpen":"00:00","weekdayClose":"23:59","weekendOpen":"00:00","weekendClose":"23:59","holidayOpen":"00:00","holidayClose":"23:59","feeInfo":"기본 0분 40,000원","phone":"051-607-6842","updatedAt":"2025-11-18","sido":"부산광역시","sigungu":"남구","dong":"감만동"},{"name":"분포맨션주변","type":"공영","category":"노상","address":"부산광역시 남구 용호동 368-3","lat":35.12152751,"lng":129.1129157,"totalSpaces":8,"isFree":false,"operatingDays":"평일+토요일+공휴일","weekdayOpen":"00:00","weekdayClose":"23:59","weekendOpen":"00:00","weekendClose":"23:59","holidayOpen":"00:00","holidayClose":"23:59","feeInfo":"기본 0분 40,000원","phone":"051-607-6764","updatedAt":"2025-11-18","sido":"부산광역시","sigungu":"남구","dong":"용호동"},{"name":"대연성당 주변","type":"공영","category":"노상","address":"부산광역시 남구 대연동 67-33","lat":35.13545514,"lng":129.0977949,"totalSpaces":8,"isFree":false,"operatingDays":"평일+토요일+공휴일","weekdayOpen":"00:00","weekdayClose":"23:59","weekendOpen":"00:00","weekendClose":"23:59","holidayOpen":"00:00","holidayClose":"23:59","feeInfo":"기본 0분 40,000원","phone":"051-607-6644","updatedAt":"2025-11-18","sido":"부산광역시","sigungu":"남구","dong":"대연동"},{"name":"구)대연3동주민센터 주변","type":"공영","category":"노상","address":"부산광역시 남구 대연동 393-28","lat":35.13451584,"lng":129.0996374,"totalSpaces":8,"isFree":false,"operatingDays":"평일+토요일+공휴일","weekdayOpen":"00:00","weekdayClose":"23:59","weekendOpen":"00:00","weekendClose":"23:59","holidayOpen":"00:00","holidayClose":"23:59","feeInfo":"기본 0분 40,000원","phone":"051-607-6644","updatedAt":"2025-11-18","sido":"부산광역시","sigungu":"남구","dong":"대연동"},{"name":"못골성당 앞","type":"공영","category":"노상","address":"부산광역시 남구 대연동 1535-2","lat":35.1372213,"lng":129.0872388,"totalSpaces":7,"isFree":false,"operatingDays":"평일+토요일+공휴일","weekdayOpen":"00:00","weekdayClose":"23:59","weekendOpen":"00:00","weekendClose":"23:59","holidayOpen":"00:00","holidayClose":"23:59","feeInfo":"기본 0분 40,000원","phone":"051-607-6687","updatedAt":"2025-11-18","sido":"부산광역시","sigungu":"남구","dong":"대연동"},{"name":"대연천 구거복개지","type":"공영","category":"노상","address":"부산광역시 남구 대연동 1635-55","lat":35.1291666,"lng":129.1053065,"totalSpaces":6,"isFree":false,"operatingDays":"평일+토요일+공휴일","weekdayOpen":"00:00","weekdayClose":"23:59","weekendOpen":"00:00","weekendClose":"23:59","holidayOpen":"00:00","holidayClose":"23:59","feeInfo":"기본 0분 40,000원","phone":"051-607-6644","updatedAt":"2025-11-18","sido":"부산광역시","sigungu":"남구","dong":"대연동"},{"name":"사슴빌라 주변","type":"공영","category":"노상","address":"부산광역시 남구 대연동 1487-15","lat":35.1414207,"lng":129.0903588,"totalSpaces":5,"isFree":false,"operatingDays":"평일+토요일+공휴일","weekdayOpen":"00:00","weekdayClose":"23:59","weekendOpen":"00:00","weekendClose":"23:59","holidayOpen":"00:00","holidayClose":"23:59","feeInfo":"기본 0분 40,000원","phone":"051-607-6687","updatedAt":"2025-11-18","sido":"부산광역시","sigungu":"남구","dong":"대연동"},{"name":"다보네가구 주차장(부설개방)","type":"공영","category":"노외","address":"부산광역시 남구 이기대공원로 450","lat":35.10826905,"lng":129.1134225,"totalSpaces":5,"isFree":false,"operatingDays":"평일+토요일+공휴일","weekdayOpen":"00:00","weekdayClose":"23:59","weekendOpen":"00:00","weekendClose":"23:59","holidayOpen":"00:00","holidayClose":"23:59","feeInfo":"기본 0분 40,000원","phone":"051-607-6742","updatedAt":"2025-11-18","sido":"부산광역시","sigungu":"남구","dong":"용호동"},{"name":"수영로266번길(글로리빌라 앞)","type":"공영","category":"노상","address":"부산광역시 남구 대연동 548-6","lat":35.1326995,"lng":129.0998691,"totalSpaces":5,"isFree":false,"operatingDays":"평일+토요일+공휴일","weekdayOpen":"00:00","weekdayClose":"23:59","weekendOpen":"00:00","weekendClose":"23:59","holidayOpen":"00:00","holidayClose":"23:59","feeInfo":"기본 0분 40,000원","phone":"051-607-6644","updatedAt":"2025-11-18","sido":"부산광역시","sigungu":"남구","dong":"대연동"},{"name":"용호성당 주변","type":"공영","category":"노상","address":"부산광역시 남구 용호동 487-9","lat":35.11697196,"lng":129.110632,"totalSpaces":4,"isFree":false,"operatingDays":"평일+토요일+공휴일","weekdayOpen":"00:00","weekdayClose":"23:59","weekendOpen":"00:00","weekendClose":"23:59","holidayOpen":"00:00","holidayClose":"23:59","feeInfo":"기본 0분 40,000원","phone":"051-607-6734","updatedAt":"2025-11-18","sido":"부산광역시","sigungu":"남구","dong":"용호동"},{"name":"솔밭주거지전용주차장","type":"공영","category":"노외","address":"부산광역시 남구 대연동 1002-1","lat":35.13250888,"lng":129.0899247,"totalSpaces":4,"isFree":false,"operatingDays":"평일+토요일+공휴일","weekdayOpen":"00:00","weekdayClose":"23:59","weekendOpen":"00:00","weekendClose":"23:59","holidayOpen":"00:00","holidayClose":"23:59","feeInfo":"기본 0분 40,000원","phone":"051-607-6604","updatedAt":"2025-11-18","sido":"부산광역시","sigungu":"남구","dong":"대연동"}]}