{"sido":"부산광역시","sigungu":"해운대구","totalCount":165,"validCount":159,"items":[{"name":"센텀Q주차장","type":"민영","category":"노외","address":"부산광역시 해운대구 센텀5로 55 (우동)","lat":35.17295765,"lng":129.131585,"totalSpaces":399,"isFree":false,"operatingDays":"평일+토요일+공휴일","weekdayOpen":"10:00","weekdayClose":"22:00","weekendOpen":"10:00","weekendClose":"22:00","holidayOpen":"10:00","holidayClose":"22:00","feeInfo":"기본 60분 2,000원","phone":"051-749-4887","updatedAt":"2025-11-21","sido":"부산광역시","sigungu":"해운대구","dong":""},{"name":"한라주차장","type":"민영","category":"노외","address":"부산광역시 해운대구 중동1521-3","lat":35.1621854272,"lng":129.1773372673,"totalSpaces":363,"isFree":false,"operatingDays":"평일+토요일+공휴일","weekdayOpen":"10:00","weekdayClose":"22:00","weekendOpen":"10:00","weekendClose":"22:00","holidayOpen":"10:00","holidayClose":"22:00","feeInfo":"기본 60분 1,000원 / 추가 60분당 1,000원","phone":"051-749-4887","updatedAt":"2025-11-21","sido":"부산광역시","sigungu":"해운대구","dong":""},{"name":"해운대백병원임시주차장","type":"민영","category":"노외","address":"부산광역시 해운대구 해운대로875 (좌동)","lat":35.1732594833,"lng":129.1821638942,"totalSpaces":352,"isFree":false,"operatingDays":"평일+토요일+공휴일","weekdayOpen":"09:00","weekdayClose":"22:00","weekendOpen":"09:00","weekendClose":"22:00","holidayOpen":"09:00","holidayClose":"22:00","feeInfo":"유료","phone":"051-749-4887","updatedAt":"2025-11-21","sido":"부산광역시","sigungu":"해운대구","dong":"좌동"},{"name":"반송1동 제1공영","type":"공영","category":"노외","address":"부산광역시 해운대구 반송순환로 24 (반송동)","lat":35.22081459,"lng":129.146627,"totalSpaces":301,"isFree":false,"operatingDays":"평일+토요일+공휴일","weekdayOpen":"00:00","weekdayClose":"23:59","weekendOpen":"00:00","weekendClose":"23:59","holidayOpen":"00:00","holidayClose":"23:59","feeInfo":"기본 10분 100원 / 추가 10분당 100원","phone":"051-749-4882","updatedAt":"2025-11-21","sido":"부산광역시","sigungu":"해운대구","dong":""},{"name":"IS프라자 근린상가주차장","type":"민영","category":"노외","address":"부산광역시 해운대구 좌동순환로249번길 21 (좌동)","lat":35.1743023863,"lng":129.181817858,"totalSpaces":297,"isFree":false,"operatingDays":"평일+토요일+공휴일","weekdayOpen":"10:00","weekdayClose":"22:00","weekendOpen":"10:00","weekendClose":"22:00","holidayOpen":"10:00","holidayClose":"22:00","feeInfo":"기본 60분 1,500원 / 추가 10분당 500원","phone":"051-749-4887","updatedAt":"2025-11-21","sido":"부산광역시","sigungu":"해운대구","dong":""},{"name":"지에스타임즈스테이션센텀필주차장","type":"민영","category":"노외","address":"부산광역시 해운대구 센텀동로 102 (재송동)","lat":35.1765866866,"lng":129.1264896201,"totalSpaces":290,"isFree":false,"operatingDays":"평일+토요일+공휴일","weekdayOpen":"10:00","weekdayClose":"22:00","weekendOpen":"10:00","weekendClose":"22:00","holidayOpen":"10:00","holidayClose":"22:00","feeInfo":"기본 30분 1,000원 / 추가 30분당 1,000원","phone":"051-749-4887","updatedAt":"2025-11-21","sido":"부산광역시","sigungu":"해운대구","dong":""},{"name":"반송2동 공영","type":"공영","category":"노외","address":"부산광역시 해운대구 윗반송로 26","lat":35.22964675,"lng":129.1518458,"totalSpaces":290,"isFree":false,"operatingDays":"평일+토요일+공휴일","weekdayOpen":"00:00","weekdayClose":"23:59","weekendOpen":"00:00","weekendClose":"23:59","holidayOpen":"00:00","holidayClose":"23:59","feeInfo":"기본 10분 100원 / 추가 10분당 100원","phone":"051-749-4882","updatedAt":"2025-11-21","sido":"부산광역시","sigungu":"해운대구","dong":"반송동"},{"name":"반여2동 제1공영","type":"공영","category":"노외","address":"부산광역시 해운대구 재반로211번길 62 (반여동)","lat":35.19571685,"lng":129.1273916,"totalSpaces":264,"isFree":false,"operatingDays":"평일+토요일+공휴일","weekdayOpen":"00:00","weekdayClose":"23:59","weekendOpen":"00:00","weekendClose":"23:59","holidayOpen":"00:00","holidayClose":"23:59","feeInfo":"기본 10분 100원 / 추가 10분당 100원","phone":"051-749-4882","updatedAt":"2025-11-21","sido":"부산광역시","sigungu":"해운대구","dong":""},{"name":"반여2동 제2공영","type":"공영","category":"노외","address":"부산광역시 해운대구 재반로184번길 31 (반여동)","lat":35.19424621,"lng":129.1323064,"totalSpaces":232,"isFree":false,"operatingDays":"평일+토요일+공휴일","weekdayOpen":"00:00","weekdayClose":"23:59","weekendOpen":"00:00","weekendClose":"23:59","holidayOpen":"00:00","holidayClose":"23:59","feeInfo":"기본 10분 100원 / 추가 10분당 100원","phone":"051-749-4882","updatedAt":"2025-11-21","sido":"부산광역시","sigungu":"해운대구","dong":""},{"name":"송정호안도로 노상 공영","type":"공영","category":"노상","address":"부산광역시 해운대구 송정동288-44","lat":35.18056289,"lng":129.2050866,"totalSpaces":168,"isFree":false,"operatingDays":"평일+토요일+공휴일","weekdayOpen":"09:00","weekdayClose":"22:00","weekendOpen":"09:00","weekendClose":"22:00","holidayOpen":"09:00","holidayClose":"22:00","feeInfo":"기본 10분 300원 / 추가 10분당 300원","phone":"051-749-4882","updatedAt":"2025-11-21","sido":"부산광역시","sigungu":"해운대구","dong":""},{"name":"온천주차장","type":"민영","category":"노외","address":"부산광역시 해운대구 중동1226-3,14,15,1370-2,3,4","lat":35.1634136774,"lng":129.1653768448,"totalSpaces":158,"isFree":false,"operatingDays":"평일+토요일+공휴일","weekdayOpen":"10:00","weekdayClose":"22:00","weekendOpen":"10:00","weekendClose":"22:00","holidayOpen":"10:00","holidayClose":"22:00","feeInfo":"유료","phone":"051-749-4887","updatedAt":"2025-11-21","sido":"부산광역시","sigungu":"해운대구","dong":""},{"name":"반송1동 제2공영","type":"공영","category":"노외","address":"부산광역시 해운대구 반송순환로 164 (반송동)","lat":35.22497776,"lng":129.1515028,"totalSpaces":154,"isFree":false,"operatingDays":"평일+토요일+공휴일","weekdayOpen":"00:00","weekdayClose":"23:59","weekendOpen":"00:00","weekendClose":"23:59","holidayOpen":"00:00","holidayClose":"23:59","feeInfo":"기본 10분 100원 / 추가 10분당 100원","phone":"051-749-4882","updatedAt":"2025-11-21","sido":"부산광역시","sigungu":"해운대구","dong":""},{"name":"하이파킹주차장","type":"민영","category":"노외","address":"부산광역시 해운대구 해운대로570번길 46 (우동)","lat":35.15980603,"lng":129.1587259,"totalSpaces":149,"isFree":false,"operatingDays":"평일+토요일+공휴일","weekdayOpen":"10:00","weekdayClose":"22:00","weekendOpen":"10:00","weekendClose":"22:00","holidayOpen":"10:00","holidayClose":"22:00","feeInfo":"유료","phone":"051-749-4887","updatedAt":"2025-11-21","sido":"부산광역시","sigungu":"해운대구","dong":""},{"name":"송정 중앙 공영","type":"공영","category":"노외","address":"부산광역시 해운대구 송정동 711-5","lat":35.17985694,"lng":129.2005259,"totalSpaces":144,"isFree":false,"operatingDays":"평일+토요일+공휴일","weekdayOpen":"00:00","weekdayClose":"23:59","weekendOpen":"00:00","weekendClose":"23:59","holidayOpen":"00:00","holidayClose":"23:59","feeInfo":"기본 10분 300원 / 추가 10분당 300원","phone":"051-749-4885","updatedAt":"2025-11-21","sido":"부산광역시","sigungu":"해운대구","dong":"송정동"},{"name":"동백공원공영주차장","type":"공영","category":"노상","address":"부산광역시 해운대구 동백로 90","lat":35.15401381,"lng":129.1510145,"totalSpaces":127,"isFree":false,"operatingDays":"평일+토요일+공휴일","weekdayOpen":"00:00","weekdayClose":"23:59","weekendOpen":"00:00","weekendClose":"23:59","holidayOpen":"00:00","holidayClose":"23:59","feeInfo":"기본 10분 500원 / 추가 10분당 500원","phone":"051-749-4885","updatedAt":"2025-11-21","sido":"부산광역시","sigungu":"해운대구","dong":""},{"name":"해운대미포주차장","type":"민영","category":"노외","address":"부산광역시 해운대구 달맞이길62번길 11","lat":35.1600539671,"lng":129.1711587927,"totalSpaces":120,"isFree":false,"operatingDays":"평일+토요일+공휴일","weekdayOpen":"10:00","weekdayClose":"22:00","weekendOpen":"10:00","weekendClose":"22:00","holidayOpen":"10:00","holidayClose":"22:00","feeInfo":"유료","phone":"051-749-4887","updatedAt":"2025-11-21","sido":"부산광역시","sigungu":"해운대구","dong":""},{"name":"재송2동 공영","type":"공영","category":"노외","address":"부산광역시 해운대구 재송동1042-3","lat":35.19228343,"lng":129.1267189,"totalSpaces":114,"isFree":false,"operatingDays":"평일+토요일+공휴일","weekdayOpen":"00:00","weekdayClose":"23:59","weekendOpen":"00:00","weekendClose":"23:59","holidayOpen":"00:00","holidayClose":"23:59","feeInfo":"기본 10분 100원 / 추가 10분당 100원","phone":"051-749-4882","updatedAt":"2025-11-21","sido":"부산광역시","sigungu":"해운대구","dong":""},{"name":"청사포 공영","type":"공영","category":"노외","address":"부산광역시 해운대구 중동553","lat":35.1619382,"lng":129.1917743,"totalSpaces":113,"isFree":false,"operatingDays":"평일+토요일+공휴일","weekdayOpen":"06:00","weekdayClose":"22:00","weekendOpen":"06:00","weekendClose":"22:00","holidayOpen":"06:00","holidayClose":"22:00","feeInfo":"기본 10분 300원 / 추가 10분당 300원","phone":"051-749-4885","updatedAt":"2025-11-21","sido":"부산광역시","sigungu":"해운대구","dong":""},{"name":"반여4동 공영","type":"공영","category":"노외","address":"부산광역시 해운대구 삼어로91번길 97","lat":35.20918836,"lng":129.1159308,"totalSpaces":109,"isFree":false,"operatingDays":"평일+토요일+공휴일","weekdayOpen":"00:00","weekdayClose":"23:59","weekendOpen":"00:00","weekendClose":"23:59","holidayOpen":"00:00","holidayClose":"23:59","feeInfo":"기본 10분 100원 / 추가 10분당 100원","phone":"051-749-4882","updatedAt":"2025-11-21","sido":"부산광역시","sigungu":"해운대구","dong":""},{"name":"비치주차장","type":"민영","category":"노외","address":"부산광역시 해운대구 해운대해변로209번가길 24(우동)","lat":35.1592461246,"lng":129.1563447643,"totalSpaces":108,"isFree":false,"operatingDays":"평일+토요일+공휴일","weekdayOpen":"10:00","weekdayClose":"22:00","weekendOpen":"10:00","weekendClose":"22:00","holidayOpen":"10:00","holidayClose":"22:00","feeInfo":"유료","phone":"051-749-4887","updatedAt":"2025-11-21","sido":"부산광역시","sigungu":"해운대구","dong":"우동"},{"name":"송정주차장","type":"민영","category":"노외","address":"부산광역시 해운대구 송정동427-2","lat":35.1823133108,"lng":129.2009850277,"totalSpaces":101,"isFree":false,"operatingDays":"평일+토요일+공휴일","weekdayOpen":"10:00","weekdayClose":"22:00","weekendOpen":"10:00","weekendClose":"22:00","holidayOpen":"10:00","holidayClose":"22:00","feeInfo":"유료","phone":"051-749-4887","updatedAt":"2025-11-21","sido":"부산광역시","sigungu":"해운대구","dong":""},{"name":"해운대구청주차장","type":"민영","category":"노외","address":"부산광역시 해운대구 중동2로 11 (중동)","lat":35.1631399227,"lng":129.1635612637,"totalSpaces":99,"isFree":false,"operatingDays":"평일+토요일+공휴일","weekdayOpen":"10:00","weekdayClose":"22:00","weekendOpen":"10:00","weekendClose":"22:00","holidayOpen":"10:00","holidayClose":"00:00","feeInfo":"기본 10분 300원","phone":"051-749-4887","updatedAt":"2025-11-21","sido":"부산광역시","sigungu":"해운대구","dong":""},{"name":"문탠로드관광 공영","type":"공영","category":"노외","address":"부산광역시 해운대구 달맞이길 64","lat":35.16098302,"lng":129.1715271,"totalSpaces":98,"isFree":false,"operatingDays":"평일+토요일+공휴일","weekdayOpen":"00:00","weekdayClose":"23:59","weekendOpen":"00:00","weekendClose":"23:59","holidayOpen":"00:00","holidayClose":"23:59","feeInfo":"기본 10분 300원 / 추가 10분당 300원","phone":"051-749-4885","updatedAt":"2025-11-21","sido":"부산광역시","sigungu":"해운대구","dong":""},{"name":"태양주차장","type":"민영","category":"노외","address":"부산광역시 해운대구 우동649-2","lat":35.1590983889,"lng":129.156435148,"totalSpaces":89,"isFree":false,"operatingDays":"평일+토요일+공휴일","weekdayOpen":"10:00","weekdayClose":"22:00","weekendOpen":"10:00","weekendClose":"22:00","holidayOpen":"10:00","holidayClose":"22:00","feeInfo":"유료","phone":"051-749-4887","updatedAt":"2025-11-21","sido":"부산광역시","sigungu":"해운대구","dong":""},{"name":"강변주차장","type":"민영","category":"노외","address":"부산광역시 해운대구 선수촌로145","lat":35.2075787738,"lng":129.1213593816,"totalSpaces":81,"isFree":false,"operatingDays":"평일+토요일+공휴일","weekdayOpen":"10:00","weekdayClose":"22:00","weekendOpen":"10:00","weekendClose":"22:00","holidayOpen":"10:00","holidayClose":"22:00","feeInfo":"유료","phone":"051-749-4887","updatedAt":"2025-11-21","sido":"부산광역시","sigungu":"해운대구","dong":"반여동"},{"name":"송정 광어골 노상 공영","type":"공영","category":"노상","address":"부산광역시 해운대구 송정동462","lat":35.17553721,"lng":129.1962056,"totalSpaces":79,"isFree":false,"operatingDays":"평일+토요일+공휴일","weekdayOpen":"09:00","weekdayClose":"22:00","weekendOpen":"09:00","weekendClose":"22:00","holidayOpen":"09:00","holidayClose":"22:00","feeInfo":"기본 10분 300원 / 추가 10분당 300원","phone":"051-749-4882","updatedAt":"2025-11-21","sido":"부산광역시","sigungu":"해운대구","dong":""},{"name":"반송2동 운봉 공영","type":"공영","category":"노외","address":"부산광역시 해운대구 반송동 621-1","lat":35.23250093,"lng":129.1457464,"totalSpaces":79,"isFree":false,"operatingDays":"평일+토요일+공휴일","weekdayOpen":"00:00","weekdayClose":"23:59","weekendOpen":"00:00","weekendClose":"23:59","holidayOpen":"00:00","holidayClose":"23:59","feeInfo":"기본 10분 100원 / 추가 10분당 100원","phone":"051-749-4882","updatedAt":"2025-11-21","sido":"부산광역시","sigungu":"해운대구","dong":"반송동"},{"name":"더베이주차장","type":"민영","category":"노외","address":"부산광역시 해운대구 우동747-5,-6,-9,-10-11","lat":35.1571043284,"lng":129.1525931229,"totalSpaces":78,"isFree":false,"operatingDays":"평일+토요일+공휴일","weekdayOpen":"10:00","weekdayClose":"22:00","weekendOpen":"10:00","weekendClose":"22:00","holidayOpen":"10:00","holidayClose":"22:00","feeInfo":"기본 60분 6,000원 / 추가 10분당 1,000원","phone":"051-749-4887","updatedAt":"2025-11-21","sido":"부산광역시","sigungu":"해운대구","dong":""},{"name":"대천공원공영주차장","type":"공영","category":"노상","address":"부산광역시 해운대구 양운로 199","lat":35.17881234,"lng":129.1679709,"totalSpaces":78,"isFree":false,"operatingDays":"평일+토요일+공휴일","weekdayOpen":"00:00","weekdayClose":"23:59","weekendOpen":"00:00","weekendClose":"23:59","holidayOpen":"00:00","holidayClose":"23:59","feeInfo":"기본 10분 200원 / 추가 10분당 200원","phone":"051-749-4882","updatedAt":"2025-11-21","sido":"부산광역시","sigungu":"해운대구","dong":""},{"name":"구해운대역주차장","type":"민영","category":"노외","address":"부산광역시 해운대구 우동524-16","lat":35.1636178328,"lng":129.1574507637,"totalSpaces":73,"isFree":false,"operatingDays":"평일+토요일+공휴일","weekdayOpen":"10:00","weekdayClose":"22:00","weekendOpen":"10:00","weekendClose":"22:00","holidayOpen":"10:00","holidayClose":"22:00","feeInfo":"유료","phone":"051-749-4887","updatedAt":"2025-11-21","sido":"부산광역시","sigungu":"해운대구","dong":""},{"name":"동백 공영","type":"공영","category":"노외","address":"부산광역시 해운대구 우동1151-3","lat":35.15793728,"lng":129.1532207,"totalSpaces":70,"isFree":false,"operatingDays":"평일+토요일+공휴일","weekdayOpen":"00:00","weekdayClose":"23:59","weekendOpen":"00:00","weekendClose":"23:59","holidayOpen":"00:00","holidayClose":"23:59","feeInfo":"기본 10분 500원 / 추가 10분당 500원","phone":"051-749-4882","updatedAt":"2025-11-21","sido":"부산광역시","sigungu":"해운대구","dong":""},{"name":"파킹오피스 해운대점","type":"민영","category":"노외","address":"부산광역시 해운대구 중동1로 42-18 (중동)","lat":35.1615290288,"lng":129.163087884,"totalSpaces":66,"isFree":false,"operatingDays":"평일+토요일+공휴일","weekdayOpen":"10:00","weekdayClose":"22:00","weekendOpen":"10:00","weekendClose":"22:00","holidayOpen":"10:00","holidayClose":"22:00","feeInfo":"유료","phone":"051-749-4887","updatedAt":"2025-11-21","sido":"부산광역시","sigungu":"해운대구","dong":"중동"},{"name":"광장주차장","type":"민영","category":"노외","address":"부산광역시 해운대구 중동1411-11","lat":35.1596537256,"lng":129.1630046745,"totalSpaces":57,"isFree":false,"operatingDays":"평일+토요일+공휴일","weekdayOpen":"10:00","weekdayClose":"22:00","weekendOpen":"10:00","weekendClose":"22:00","holidayOpen":"10:00","holidayClose":"22:00","feeInfo":"기본 30분 2,000원 / 추가 10분당 1,000원","phone":"051-749-4887","updatedAt":"2025-11-21","sido":"부산광역시","sigungu":"해운대구","dong":""},{"name":"해월정 달맞이길 공영","type":"공영","category":"노외","address":"부산광역시 해운대구 달맞이길 190 (중동)","lat":35.15768031,"lng":129.1825416,"totalSpaces":52,"isFree":false,"operatingDays":"평일+토요일+공휴일","weekdayOpen":"09:00","weekdayClose":"22:00","weekendOpen":"09:00","weekendClose":"22:00","holidayOpen":"09:00","holidayClose":"22:00","feeInfo":"기본 10분 300원 / 추가 10분당 300원","phone":"051-749-4882","updatedAt":"2025-11-21","sido":"부산광역시","sigungu":"해운대구","dong":""},{"name":"리베라세이브존주차장","type":"민영","category":"노외","address":"부산광역시 해운대구 중동1394-174","lat":35.1627906744,"lng":129.1619094839,"totalSpaces":49,"isFree":false,"operatingDays":"평일+토요일+공휴일","weekdayOpen":"10:00","weekdayClose":"22:00","weekendOpen":"10:00","weekendClose":"22:00","holidayOpen":"10:00","holidayClose":"22:00","feeInfo":"기본 30분 1,500원 / 추가 10분당 500원","phone":"051-749-4887","updatedAt":"2025-11-21","sido":"부산광역시","sigungu":"해운대구","dong":""},{"name":"APEC 나루공원 공영","type":"공영","category":"노외","address":"부산광역시 해운대구 우동 1494","lat":35.16790825,"lng":129.1273173,"totalSpaces":49,"isFree":false,"operatingDays":"평일+토요일+공휴일","weekdayOpen":"00:00","weekdayClose":"23:59","weekendOpen":"00:00","weekendClose":"23:59","holidayOpen":"00:00","holidayClose":"23:59","feeInfo":"기본 10분 300원 / 추가 10분당 300원","phone":"051-749-4885","updatedAt":"2025-11-21","sido":"부산광역시","sigungu":"해운대구","dong":"우동"},{"name":"죽도공원","type":"공영","category":"노외","address":"부산광역시 해운대구 송정동 288-2","lat":35.1810244822,"lng":129.2054768252,"totalSpaces":46,"isFree":false,"operatingDays":"평일+토요일+공휴일","weekdayOpen":"09:00","weekdayClose":"22:00","weekendOpen":"09:00","weekendClose":"22:00","holidayOpen":"09:00","holidayClose":"22:00","feeInfo":"기본 10분 300원 / 추가 10분당 300원","phone":"051-749-4882","updatedAt":"2025-11-21","sido":"부산광역시","sigungu":"해운대구","dong":"송정동"},{"name":"신도시주차장","type":"민영","category":"노외","address":"부산광역시 해운대구 좌동로91번길 52 (좌동)","lat":35.17430132,"lng":129.1737361,"totalSpaces":45,"isFree":false,"operatingDays":"평일+토요일+공휴일","weekdayOpen":"10:00","weekdayClose":"22:00","weekendOpen":"10:00","weekendClose":"22:00","holidayOpen":"10:00","holidayClose":"22:00","feeInfo":"기본 30분 1,500원","phone":"051-749-4887","updatedAt":"2025-11-21","sido":"부산광역시","sigungu":"해운대구","dong":""},{"name":"해운주차장","type":"민영","category":"노외","address":"부산광역시 해운대구 중동1로 42-16 (중동)","lat":35.1614753828,"lng":129.1627110674,"totalSpaces":43,"isFree":false,"operatingDays":"평일+토요일+공휴일","weekdayOpen":"10:00","weekdayClose":"22:00","weekendOpen":"10:00","weekendClose":"22:00","holidayOpen":"10:00","holidayClose":"22:00","feeInfo":"유료","phone":"051-749-4887","updatedAt":"2025-11-21","sido":"부산광역시","sigungu":"해운대구","dong":""},{"name":"해운대블루주차장","type":"민영","category":"노외","address":"부산광역시 해운대구 좌동 1360","lat":35.168268161,"lng":129.1638854241,"totalSpaces":43,"isFree":false,"operatingDays":"평일+토요일+공휴일","weekdayOpen":"10:00","weekdayClose":"22:00","weekendOpen":"10:00","weekendClose":"22:00","holidayOpen":"10:00","holidayClose":"22:00","feeInfo":"유료","phone":"051-749-4887","updatedAt":"2025-11-21","sido":"부산광역시","sigungu":"해운대구","dong":"좌동"},{"name":"해운대비치주차장","type":"민영","category":"노외","address":"부산광역시 해운대구 해운대해변로209번가길 24 (우동)","lat":35.1592461246,"lng":129.1563447643,"totalSpaces":40,"isFree":false,"operatingDays":"평일+토요일+공휴일","weekdayOpen":"10:00","weekdayClose":"22:00","weekendOpen":"10:00","weekendClose":"22:00","holidayOpen":"10:00","holidayClose":"22:00","feeInfo":"기본 60분 3,000원 / 추가 30분당 1,500원","phone":"051-749-4887","updatedAt":"2025-11-21","sido":"부산광역시","sigungu":"해운대구","dong":""},{"name":"좌3동 신도 노상 공영","type":"공영","category":"노상","address":"부산광역시 해운대구 좌동1341-26","lat":35.17085105,"lng":129.1663429,"totalSpaces":39,"isFree":false,"operatingDays":"평일+토요일+공휴일","weekdayOpen":"09:00","weekdayClose":"20:00","weekendOpen":"09:00","weekendClose":"20:00","holidayOpen":"09:00","holidayClose":"20:00","feeInfo":"기본 10분 200원 / 추가 10분당 200원","phone":"051-749-4882","updatedAt":"2025-11-21","sido":"부산광역시","sigungu":"해운대구","dong":""},{"name":"센텀힐주차장","type":"민영","category":"노외","address":"부산광역시 해운대구 재반로 74 (재송동)","lat":35.1853671087,"lng":129.1261142781,"totalSpaces":37,"isFree":false,"operatingDays":"평일+토요일+공휴일","weekdayOpen":"10:00","weekdayClose":"22:00","weekendOpen":"10:00","weekendClose":"22:00","holidayOpen":"10:00","holidayClose":"22:00","feeInfo":"유료","phone":"051-749-4887","updatedAt":"2025-11-21","sido":"부산광역시","sigungu":"해운대구","dong":""},{"name":"해운대푸르지오주차장","type":"민영","category":"노외","address":"부산광역시 해운대구 해운대해변로298번길 29 (중동)","lat":35.1609671625,"lng":129.1668835552,"totalSpaces":35,"isFree":false,"operatingDays":"평일+토요일+공휴일","weekdayOpen":"10:00","weekdayClose":"22:00","weekendOpen":"10:00","weekendClose":"22:00","holidayOpen":"10:00","holidayClose":"22:00","feeInfo":"유료","phone":"051-749-4887","updatedAt":"2025-11-21","sido":"부산광역시","sigungu":"해운대구","dong":""},{"name":"해운대교육지원청주변 노상 공영","type":"공영","category":"노상","address":"부산광역시 해운대구 세실로 137 (좌동)","lat":35.17688155,"lng":129.1759429,"totalSpaces":34,"isFree":false,"operatingDays":"평일+토요일+공휴일","weekdayOpen":"09:00","weekdayClose":"22:00","weekendOpen":"09:00","weekendClose":"22:00","holidayOpen":"09:00","holidayClose":"22:00","feeInfo":"기본 10분 300원 / 추가 10분당 300원","phone":"051-749-4882","updatedAt":"2025-11-21","sido":"부산광역시","sigungu":"해운대구","dong":"좌동"},{"name":"조은주차빌딩주차장","type":"민영","category":"노외","address":"부산광역시 해운대구 반여로 116 (반여동)","lat":35.2018420236,"lng":129.123947806,"totalSpaces":33,"isFree":false,"operatingDays":"평일+토요일+공휴일","weekdayOpen":"10:00","weekdayClose":"22:00","weekendOpen":"10:00","weekendClose":"22:00","holidayOpen":"10:00","holidayClose":"22:00","feeInfo":"유료","phone":"051-749-4887","updatedAt":"2025-11-21","sido":"부산광역시","sigungu":"해운대구","dong":""},{"name":"중동주차장","type":"민영","category":"노외","address":"부산광역시 해운대구 달맞이길 22 (중동)","lat":35.1619085352,"lng":129.1672589116,"totalSpaces":33,"isFree":false,"operatingDays":"평일+토요일+공휴일","weekdayOpen":"10:00","weekdayClose":"22:00","weekendOpen":"10:00","weekendClose":"22:00","holidayOpen":"10:00","holidayClose":"22:00","feeInfo":"유료","phone":"051-749-4887","updatedAt":"2025-11-21","sido":"부산광역시","sigungu":"해운대구","dong":""},{"name":"유진주차장","type":"민영","category":"노외","address":"부산광역시 해운대구 반송동331-8,13","lat":35.231452496,"lng":129.1536117982,"totalSpaces":30,"isFree":false,"operatingDays":"평일+토요일+공휴일","weekdayOpen":"10:00","weekdayClose":"22:00","weekendOpen":"10:00","weekendClose":"22:00","holidayOpen":"10:00","holidayClose":"22:00","feeInfo":"유료","phone":"051-749-4887","updatedAt":"2025-11-21","sido":"부산광역시","sigungu":"해운대구","dong":""},{"name":"송정주차장","type":"민영","category":"노외","address":"부산광역시 해운대구 송정동297-58,59,60","lat":35.1808260664,"lng":129.2016782723,"totalSpaces":30,"isFree":false,"operatingDays":"평일+토요일+공휴일","weekdayOpen":"10:00","weekdayClose":"22:00","weekendOpen":"10:00","weekendClose":"22:00","holidayOpen":"10:00","holidayClose":"22:00","feeInfo":"유료","phone":"051-749-4887","updatedAt":"2025-11-21","sido":"부산광역시","sigungu":"해운대구","dong":""},{"name":"상월우동주차장","type":"민영","category":"노외","address":"부산광역시 해운대구 우동437-3,439-1,440-3","lat":35.16718249,"lng":129.1594797,"totalSpaces":29,"isFree":false,"operatingDays":"평일+토요일+공휴일","weekdayOpen":"10:00","weekdayClose":"22:00","weekendOpen":"10:00","weekendClose":"22:00","holidayOpen":"10:00","holidayClose":"22:00","feeInfo":"유료","phone":"051-749-4887","updatedAt":"2025-11-21","sido":"부산광역시","sigungu":"해운대구","dong":""},{"name":"길병원주차장","type":"민영","category":"노외","address":"부산광역시 해운대구 반여동1618","lat":35.2056117689,"lng":129.1216109622,"totalSpaces":29,"isFree":false,"operatingDays":"평일+토요일+공휴일","weekdayOpen":"10:00","weekdayClose":"22:00","weekendOpen":"10:00","weekendClose":"22:00","holidayOpen":"10:00","holidayClose":"22:00","feeInfo":"유료","phone":"051-749-4887","updatedAt":"2025-11-21","sido":"부산광역시","sigungu":"해운대구","dong":""},{"name":"미진유통주차장","type":"민영","category":"노외","address":"부산광역시 해운대구 재송동1150-7","lat":35.1930531127,"lng":129.1297819801,"totalSpaces":28,"isFree":false,"operatingDays":"평일+토요일+공휴일","weekdayOpen":"10:00","weekdayClose":"22:00","weekendOpen":"10:00","weekendClose":"22:00","holidayOpen":"10:00","holidayClose":"22:00","feeInfo":"유료","phone":"051-749-4887","updatedAt":"2025-11-21","sido":"부산광역시","sigungu":"해운대구","dong":""},{"name":"대성주차장","type":"민영","category":"노외","address":"부산광역시 해운대구 반여동955","lat":35.2070964594,"lng":129.1256429563,"totalSpaces":27,"isFree":false,"operatingDays":"평일+토요일+공휴일","weekdayOpen":"10:00","weekdayClose":"22:00","weekendOpen":"10:00","weekendClose":"22:00","holidayOpen":"10:00","holidayClose":"22:00","feeInfo":"유료","phone":"051-749-4887","updatedAt":"2025-11-21","sido":"부산광역시","sigungu":"해운대구","dong":""},{"name":"송정바다주차장","type":"민영","category":"노외","address":"부산광역시 해운대구 송정동 323-10,323-13","lat":35.1807763914,"lng":129.2006535427,"totalSpaces":26,"isFree":false,"operatingDays":"평일+토요일+공휴일","weekdayOpen":"10:00","weekdayClose":"22:00","weekendOpen":"10:00","weekendClose":"22:00","holidayOpen":"10:00","holidayClose":"22:00","feeInfo":"유료","phone":"051-749-4887","updatedAt":"2025-11-21","sido":"부산광역시","sigungu":"해운대구","dong":"송정동"},{"name":"해우주차장","type":"민영","category":"노외","address":"부산광역시 해운대구 해운대해변로 293 (중동)","lat":35.1609432269,"lng":129.16261698,"totalSpaces":24,"isFree":false,"operatingDays":"평일+토요일+공휴일","weekdayOpen":"10:00","weekdayClose":"22:00","weekendOpen":"10:00","weekendClose":"22:00","holidayOpen":"10:00","holidayClose":"22:00","feeInfo":"기본 30분 2,000원","phone":"051-749-4887","updatedAt":"2025-11-21","sido":"부산광역시","sigungu":"해운대구","dong":""},{"name":"제일주차장","type":"민영","category":"노외","address":"부산광역시 해운대구 우동2로14번가길 10 (우동)","lat":35.1668362415,"lng":129.1607997113,"totalSpaces":24,"isFree":false,"operatingDays":"평일+토요일+공휴일","weekdayOpen":"10:00","weekdayClose":"22:00","weekendOpen":"10:00","weekendClose":"22:00","holidayOpen":"10:00","holidayClose":"22:00","feeInfo":"기본 30분 500원 / 추가 30분당 1,000원","phone":"051-749-4887","updatedAt":"2025-11-21","sido":"부산광역시","sigungu":"해운대구","dong":""},{"name":"현대주차장","type":"민영","category":"노외","address":"부산광역시 해운대구 구남로18번길 8-1 (우동)","lat":35.16227693,"lng":129.1593745,"totalSpaces":23,"isFree":false,"operatingDays":"평일+토요일+공휴일","weekdayOpen":"10:00","weekdayClose":"22:00","weekendOpen":"10:00","weekendClose":"22:00","holidayOpen":"10:00","holidayClose":"22:00","feeInfo":"기본 30분 1,500원 / 추가 10분당 500원","phone":"051-749-4887","updatedAt":"2025-11-21","sido":"부산광역시","sigungu":"해운대구","dong":"우동"},{"name":"미진마트주차장","type":"민영","category":"노외","address":"부산광역시 해운대구 재반로 172 (재송동)","lat":35.1928695871,"lng":129.1292215031,"totalSpaces":23,"isFree":false,"operatingDays":"평일+토요일+공휴일","weekdayOpen":"10:00","weekdayClose":"22:00","weekendOpen":"10:00","weekendClose":"22:00","holidayOpen":"10:00","holidayClose":"22:00","feeInfo":"유료","phone":"051-749-4887","updatedAt":"2025-11-21","sido":"부산광역시","sigungu":"해운대구","dong":""},{"name":"재송동주차장","type":"민영","category":"노외","address":"부산광역시 해운대구 재송동1118-5,1118-25","lat":35.1851901985,"lng":129.1261073806,"totalSpaces":21,"isFree":false,"operatingDays":"평일+토요일+공휴일","weekdayOpen":"10:00","weekdayClose":"22:00","weekendOpen":"10:00","weekendClose":"22:00","holidayOpen":"10:00","holidayClose":"22:00","feeInfo":"유료","phone":"051-749-4887","updatedAt":"2025-11-21","sido":"부산광역시","sigungu":"해운대구","dong":""},{"name":"일품한우주차장","type":"민영","category":"노외","address":"부산광역시 해운대구 해운대로570번길 49 (우동)","lat":35.1602341596,"lng":129.1593980056,"totalSpaces":20,"isFree":false,"operatingDays":"평일+토요일+공휴일","weekdayOpen":"10:00","weekdayClose":"22:00","weekendOpen":"10:00","weekendClose":"22:00","holidayOpen":"10:00","holidayClose":"22:00","feeInfo":"유료","phone":"051-749-4887","updatedAt":"2025-11-21","sido":"부산광역시","sigungu":"해운대구","dong":""},{"name":"주차장","type":"민영","category":"노외","address":"부산광역시 해운대구 중동 276-1","lat":35.1686166864,"lng":129.171846538,"totalSpaces":20,"isFree":false,"operatingDays":"평일+토요일+공휴일","weekdayOpen":"10:00","weekdayClose":"22:00","weekendOpen":"10:00","weekendClose":"22:00","holidayOpen":"10:00","holidayClose":"22:00","feeInfo":"유료","phone":"051-749-4887","updatedAt":"2025-11-21","sido":"부산광역시","sigungu":"해운대구","dong":"중동"},{"name":"카카오T해운대파킹","type":"민영","category":"노외","address":"부산광역시 해운대구 우동762-46","lat":35.1593874835,"lng":129.1535111401,"totalSpaces":20,"isFree":false,"operatingDays":"평일+토요일+공휴일","weekdayOpen":"10:00","weekdayClose":"22:00","weekendOpen":"10:00","weekendClose":"22:00","holidayOpen":"10:00","holidayClose":"22:00","feeInfo":"기본 20분 1,000원","phone":"051-749-4887","updatedAt":"2025-11-21","sido":"부산광역시","sigungu":"해운대구","dong":""},{"name":"삼절주차장","type":"민영","category":"노외","address":"부산광역시 해운대구 반송동149","lat":35.2291090014,"lng":129.161116785,"totalSpaces":20,"isFree":false,"operatingDays":"평일+토요일+공휴일","weekdayOpen":"10:00","weekdayClose":"22:00","weekendOpen":"10:00","weekendClose":"22:00","holidayOpen":"10:00","holidayClose":"22:00","feeInfo":"유료","phone":"051-749-4887","updatedAt":"2025-11-21","sido":"부산광역시","sigungu":"해운대구","dong":""},{"name":"대천주차장","type":"민영","category":"노외","address":"부산광역시 해운대구 좌동 1482-4","lat":35.1678249957,"lng":129.1780739984,"totalSpaces":20,"isFree":false,"operatingDays":"평일+토요일+공휴일","weekdayOpen":"10:00","weekdayClose":"22:00","weekendOpen":"10:00","weekendClose":"22:00","holidayOpen":"10:00","holidayClose":"22:00","feeInfo":"기본 30분 1,500원","phone":"051-749-4887","updatedAt":"2025-11-21","sido":"부산광역시","sigungu":"해운대구","dong":"좌동"},{"name":"동백주차장","type":"민영","category":"노외","address":"부산광역시 해운대구 구남로18번길 7 (우동)","lat":35.1619701338,"lng":129.1594376533,"totalSpaces":20,"isFree":false,"operatingDays":"평일+토요일+공휴일","weekdayOpen":"10:00","weekdayClose":"22:00","weekendOpen":"10:00","weekendClose":"22:00","holidayOpen":"10:00","holidayClose":"22:00","feeInfo":"기본 30분 1,500원 / 추가 30분당 1,500원","phone":"051-749-4887","updatedAt":"2025-11-21","sido":"부산광역시","sigungu":"해운대구","dong":""},{"name":"k주차장","type":"민영","category":"노외","address":"부산광역시 해운대구 구남로12번길 39 (우동)","lat":35.1615612219,"lng":129.1576920723,"totalSpaces":20,"isFree":false,"operatingDays":"평일+토요일+공휴일","weekdayOpen":"10:00","weekdayClose":"22:00","weekendOpen":"10:00","weekendClose":"22:00","holidayOpen":"10:00","holidayClose":"22:00","feeInfo":"유료","phone":"051-749-4887","updatedAt":"2025-11-21","sido":"부산광역시","sigungu":"해운대구","dong":""},{"name":"하나주차장","type":"민영","category":"노외","address":"부산광역시 해운대구 좌동985-8","lat":35.1727030967,"lng":129.1745660843,"totalSpaces":19,"isFree":false,"operatingDays":"평일+토요일+공휴일","weekdayOpen":"10:00","weekdayClose":"22:00","weekendOpen":"10:00","weekendClose":"22:00","holidayOpen":"10:00","holidayClose":"22:00","feeInfo":"기본 30분 1,000원","phone":"051-749-4887","updatedAt":"2025-11-21","sido":"부산광역시","sigungu":"해운대구","dong":""},{"name":"삼성주차장","type":"민영","category":"노외","address":"부산광역시 해운대구 수영강변대로 504 (반여동)","lat":35.2029043767,"lng":129.1188838777,"totalSpaces":19,"isFree":false,"operatingDays":"평일+토요일+공휴일","weekdayOpen":"10:00","weekdayClose":"22:00","weekendOpen":"10:00","weekendClose":"22:00","holidayOpen":"10:00","holidayClose":"22:00","feeInfo":"기본 60분 2,000원 / 추가 30분당 1,000원","phone":"051-749-4887","updatedAt":"2025-11-21","sido":"부산광역시","sigungu":"해운대구","dong":""},{"name":"동남주차장","type":"민영","category":"노외","address":"부산광역시 해운대구 구남로30번길 3 (우동)","lat":35.1612494003,"lng":129.1604834395,"totalSpaces":19,"isFree":false,"operatingDays":"평일+토요일+공휴일","weekdayOpen":"10:00","weekdayClose":"22:00","weekendOpen":"10:00","weekendClose":"22:00","holidayOpen":"10:00","holidayClose":"22:00","feeInfo":"유료","phone":"051-749-4887","updatedAt":"2025-11-21","sido":"부산광역시","sigungu":"해운대구","dong":""},{"name":"개미주차장","type":"민영","category":"노외","address":"부산광역시 해운대구 구남로30번길 9-3 (우동)","lat":35.1610006904,"lng":129.1604326378,"totalSpaces":19,"isFree":false,"operatingDays":"평일+토요일+공휴일","weekdayOpen":"10:00","weekdayClose":"22:00","weekendOpen":"10:00","weekendClose":"22:00","holidayOpen":"10:00","holidayClose":"22:00","feeInfo":"기본 30분 1,500원 / 추가 30분당 1,500원","phone":"051-749-4887","updatedAt":"2025-11-21","sido":"부산광역시","sigungu":"해운대구","dong":""},{"name":"송정","type":"민영","category":"노외","address":"부산광역시 해운대구 송정동 121-2","lat":35.1875519568,"lng":129.2034486187,"totalSpaces":18,"isFree":false,"operatingDays":"평일+토요일+공휴일","weekdayOpen":"10:00","weekdayClose":"22:00","weekendOpen":"10:00","weekendClose":"22:00","holidayOpen":"10:00","holidayClose":"22:00","feeInfo":"유료","phone":"051-749-4887","updatedAt":"2025-11-21","sido":"부산광역시","sigungu":"해운대구","dong":"송정동"},{"name":"중동주차장","type":"민영","category":"노외","address":"부산광역시 해운대구 중동 249-3","lat":35.1690118263,"lng":129.172153993,"totalSpaces":18,"isFree":false,"operatingDays":"평일+토요일+공휴일","weekdayOpen":"10:00","weekdayClose":"22:00","weekendOpen":"10:00","weekendClose":"22:00","holidayOpen":"10:00","holidayClose":"22:00","feeInfo":"유료","phone":"051-749-4887","updatedAt":"2025-11-21","sido":"부산광역시","sigungu":"해운대구","dong":"중동"},{"name":"예원주차장","type":"민영","category":"노외","address":"부산광역시 해운대구 송정동201-19","lat":35.1833601967,"lng":129.2042323221,"totalSpaces":18,"isFree":false,"operatingDays":"평일+토요일+공휴일","weekdayOpen":"10:00","weekdayClose":"22:00","weekendOpen":"10:00","weekendClose":"22:00","holidayOpen":"10:00","holidayClose":"22:00","feeInfo":"유료","phone":"051-749-4887","updatedAt":"2025-11-21","sido":"부산광역시","sigungu":"해운대구","dong":""},{"name":"글로리아주차장","type":"민영","category":"노외","address":"부산광역시 해운대구 우동 649-5","lat":35.1592429053,"lng":129.156918616,"totalSpaces":18,"isFree":false,"operatingDays":"평일+토요일+공휴일","weekdayOpen":"10:00","weekdayClose":"22:00","weekendOpen":"10:00","weekendClose":"22:00","holidayOpen":"10:00","holidayClose":"22:00","feeInfo":"유료","phone":"051-749-4887","updatedAt":"2025-11-21","sido":"부산광역시","sigungu":"해운대구","dong":"우동"},{"name":"해동주차장","type":"민영","category":"노외","address":"부산광역시 해운대구 우동1로 84-10 (우동)","lat":35.1688193743,"lng":129.1563468189,"totalSpaces":16,"isFree":false,"operatingDays":"평일+토요일+공휴일","weekdayOpen":"10:00","weekdayClose":"22:00","weekendOpen":"10:00","weekendClose":"22:00","holidayOpen":"10:00","holidayClose":"22:00","feeInfo":"기본 60분 2,000원","phone":"051-749-4887","updatedAt":"2025-11-21","sido":"부산광역시","sigungu":"해운대구","dong":""},{"name":"오반장주차장","type":"민영","category":"노외","address":"부산광역시 해운대구 구남로24번길 20 (우동)","lat":35.1614389848,"lng":129.1591504834,"totalSpaces":16,"isFree":false,"operatingDays":"평일+토요일+공휴일","weekdayOpen":"10:00","weekdayClose":"22:00","weekendOpen":"10:00","weekendClose":"22:00","holidayOpen":"10:00","holidayClose":"22:00","feeInfo":"유료","phone":"051-749-4887","updatedAt":"2025-11-21","sido":"부산광역시","sigungu":"해운대구","dong":""},{"name":"기장주차장","type":"민영","category":"노외","address":"부산광역시 해운대구 구남로24번길 12 (우동)","lat":35.1616609542,"lng":129.1596093302,"totalSpaces":16,"isFree":false,"operatingDays":"평일+토요일+공휴일","weekdayOpen":"10:00","weekdayClose":"22:00","weekendOpen":"10:00","weekendClose":"22:00","holidayOpen":"10:00","holidayClose":"22:00","feeInfo":"기본 60분 3,000원","phone":"051-749-4887","updatedAt":"2025-11-21","sido":"부산광역시","sigungu":"해운대구","dong":""},{"name":"미포주차장","type":"민영","category":"노외","address":"부산광역시 해운대구 달맞이길50번길 6","lat":35.1609841474,"lng":129.1700916897,"totalSpaces":15,"isFree":false,"operatingDays":"평일+토요일+공휴일","weekdayOpen":"10:00","weekdayClose":"22:00","weekendOpen":"10:00","weekendClose":"22:00","holidayOpen":"10:00","holidayClose":"22:00","feeInfo":"유료","phone":"051-749-4887","updatedAt":"2025-11-21","sido":"부산광역시","sigungu":"해운대구","dong":"중동"},{"name":"태성주차장","type":"민영","category":"노외","address":"부산광역시 해운대구 윗반송로 68 (반송동)","lat":35.2301173492,"lng":129.1570363991,"totalSpaces":15,"isFree":false,"operatingDays":"평일+토요일+공휴일","weekdayOpen":"10:00","weekdayClose":"22:00","weekendOpen":"10:00","weekendClose":"22:00","holidayOpen":"10:00","holidayClose":"22:00","feeInfo":"유료","phone":"051-749-4887","updatedAt":"2025-11-21","sido":"부산광역시","sigungu":"해운대구","dong":""},{"name":"청도주차장","type":"민영","category":"노외","address":"부산광역시 해운대구 반송동250-1687","lat":35.2218290145,"lng":129.1526615875,"totalSpaces":15,"isFree":false,"operatingDays":"평일+토요일+공휴일","weekdayOpen":"10:00","weekdayClose":"22:00","weekendOpen":"10:00","weekendClose":"22:00","holidayOpen":"10:00","holidayClose":"22:00","feeInfo":"유료","phone":"051-749-4887","updatedAt":"2025-11-21","sido":"부산광역시","sigungu":"해운대구","dong":""},{"name":"송정주차장","type":"민영","category":"노외","address":"부산광역시 해운대구 송정동140-11","lat":35.1823904302,"lng":129.1997462975,"totalSpaces":15,"isFree":false,"operatingDays":"평일+토요일+공휴일","weekdayOpen":"10:00","weekdayClose":"22:00","weekendOpen":"10:00","weekendClose":"22:00","holidayOpen":"10:00","holidayClose":"22:00","feeInfo":"유료","phone":"051-749-4887","updatedAt":"2025-11-21","sido":"부산광역시","sigungu":"해운대구","dong":""},{"name":"동백가든주차장","type":"민영","category":"노외","address":"부산광역시 해운대구 구남로24번길 39 (우동)","lat":35.16074935,"lng":129.1583867,"totalSpaces":15,"isFree":false,"operatingDays":"평일+토요일+공휴일","weekdayOpen":"10:00","weekdayClose":"22:00","weekendOpen":"10:00","weekendClose":"22:00","holidayOpen":"10:00","holidayClose":"22:00","feeInfo":"유료","phone":"051-749-4887","updatedAt":"2025-11-21","sido":"부산광역시","sigungu":"해운대구","dong":""},{"name":"금수주차장","type":"민영","category":"노외","address":"부산광역시 해운대구 중동1398-86","lat":35.1619229764,"lng":129.1643313741,"totalSpaces":15,"isFree":false,"operatingDays":"평일+토요일+공휴일","weekdayOpen":"10:00","weekdayClose":"22:00","weekendOpen":"10:00","weekendClose":"22:00","holidayOpen":"10:00","holidayClose":"22:00","feeInfo":"유료","phone":"051-749-4887","updatedAt":"2025-11-21","sido":"부산광역시","sigungu":"해운대구","dong":""},{"name":"해운주차장","type":"민영","category":"노외","address":"부산광역시 해운대구 해운대해변로209번길 11 (우동)","lat":35.1594579144,"lng":129.1539637241,"totalSpaces":14,"isFree":false,"operatingDays":"평일+토요일+공휴일","weekdayOpen":"10:00","weekdayClose":"22:00","weekendOpen":"10:00","weekendClose":"22:00","holidayOpen":"10:00","holidayClose":"22:00","feeInfo":"유료","phone":"051-749-4887","updatedAt":"2025-11-21","sido":"부산광역시","sigungu":"해운대구","dong":""},{"name":"해천주차장","type":"민영","category":"노외","address":"부산광역시 해운대구 반송동250-2292","lat":35.2202241845,"lng":129.1527374952,"totalSpaces":14,"isFree":false,"operatingDays":"평일+토요일+공휴일","weekdayOpen":"10:00","weekdayClose":"22:00","weekendOpen":"10:00","weekendClose":"22:00","holidayOpen":"10:00","holidayClose":"22:00","feeInfo":"유료","phone":"051-749-4887","updatedAt":"2025-11-21","sido":"부산광역시","sigungu":"해운대구","dong":""},{"name":"일승주차장","type":"민영","category":"노외","address":"부산광역시 해운대구 좌동로 115 (좌동)","lat":35.1737089966,"lng":129.1771467827,"totalSpaces":14,"isFree":false,"operatingDays":"평일+토요일+공휴일","weekdayOpen":"10:00","weekdayClose":"22:00","weekendOpen":"10:00","weekendClose":"22:00","holidayOpen":"10:00","holidayClose":"22:00","feeInfo":"유료","phone":"051-749-4887","updatedAt":"2025-11-21","sido":"부산광역시","sigungu":"해운대구","dong":""},{"name":"동일주차장","type":"민영","category":"노외","address":"부산광역시 해운대구 재송2로 35-21 (재송동)","lat":35.1928620857,"lng":129.1315780837,"totalSpaces":14,"isFree":false,"operatingDays":"평일+토요일+공휴일","weekdayOpen":"10:00","weekdayClose":"22:00","weekendOpen":"10:00","weekendClose":"22:00","holidayOpen":"10:00","holidayClose":"22:00","feeInfo":"유료","phone":"051-749-4887","updatedAt":"2025-11-21","sido":"부산광역시","sigungu":"해운대구","dong":""},{"name":"반여동주차장","type":"민영","category":"노외","address":"부산광역시 해운대구 선수촌로 215 (반여동)","lat":35.2114628689,"lng":129.1258383337,"totalSpaces":14,"isFree":false,"operatingDays":"평일+토요일+공휴일","weekdayOpen":"10:00","weekdayClose":"22:00","weekendOpen":"10:00","weekendClose":"22:00","holidayOpen":"10:00","holidayClose":"22:00","feeInfo":"유료","phone":"051-749-4887","updatedAt":"2025-11-21","sido":"부산광역시","sigungu":"해운대구","dong":""},{"name":"개미집전용주차장","type":"민영","category":"노외","address":"부산광역시 해운대구 송정동422-15","lat":35.1784728013,"lng":129.197128407,"totalSpaces":14,"isFree":false,"operatingDays":"평일+토요일+공휴일","weekdayOpen":"10:00","weekdayClose":"22:00","weekendOpen":"10:00","weekendClose":"22:00","holidayOpen":"10:00","holidayClose":"22:00","feeInfo":"유료","phone":"051-749-4887","updatedAt":"2025-11-21","sido":"부산광역시","sigungu":"해운대구","dong":""},{"name":"요한파킹주차장","type":"민영","category":"노외","address":"부산광역시 해운대구 반여동 1449-20","lat":35.2004074018,"lng":129.1203122912,"totalSpaces":14,"isFree":false,"operatingDays":"평일+토요일+공휴일","weekdayOpen":"10:00","weekdayClose":"22:00","weekendOpen":"10:00","weekendClose":"22:00","holidayOpen":"10:00","holidayClose":"22:00","feeInfo":"유료","phone":"051-749-4887","updatedAt":"2025-11-21","sido":"부산광역시","sigungu":"해운대구","dong":"반여동"},{"name":"행운주차장","type":"민영","category":"노외","address":"부산광역시 해운대구 반여로185번길 87 (반여동)","lat":35.2086427279,"lng":129.1241095994,"totalSpaces":13,"isFree":false,"operatingDays":"평일+토요일+공휴일","weekdayOpen":"10:00","weekdayClose":"22:00","weekendOpen":"10:00","weekendClose":"22:00","holidayOpen":"10:00","holidayClose":"22:00","feeInfo":"기본 60분 2,000원 / 추가 10분당 2,000원","phone":"051-749-4887","updatedAt":"2025-11-21","sido":"부산광역시","sigungu":"해운대구","dong":""},{"name":"신신주차장","type":"민영","category":"노외","address":"부산광역시 해운대구 송정동 137-6","lat":35.18375523,"lng":129.2002387,"totalSpaces":13,"isFree":false,"operatingDays":"평일+토요일+공휴일","weekdayOpen":"10:00","weekdayClose":"22:00","weekendOpen":"10:00","weekendClose":"22:00","holidayOpen":"10:00","holidayClose":"22:00","feeInfo":"유료","phone":"051-749-4887","updatedAt":"2025-11-21","sido":"부산광역시","sigungu":"해운대구","dong":"송정동"},{"name":"중동주차장","type":"민영","category":"노외","address":"부산광역시 해운대구 중동 1326-6","lat":35.1682177154,"lng":129.1702956404,"totalSpaces":13,"isFree":false,"operatingDays":"평일+토요일+공휴일","weekdayOpen":"10:00","weekdayClose":"22:00","weekendOpen":"10:00","weekendClose":"22:00","holidayOpen":"10:00","holidayClose":"22:00","feeInfo":"유료","phone":"051-749-4887","updatedAt":"2025-11-21","sido":"부산광역시","sigungu":"해운대구","dong":"중동"},{"name":"한양주차장","type":"민영","category":"노외","address":"부산광역시 해운대구 재송1로60번길 15 (재송동)","lat":35.1868818658,"lng":129.1241931863,"totalSpaces":13,"isFree":false,"operatingDays":"평일+토요일+공휴일","weekdayOpen":"10:00","weekdayClose":"22:00","weekendOpen":"10:00","weekendClose":"22:00","holidayOpen":"10:00","holidayClose":"22:00","feeInfo":"유료","phone":"051-749-4887","updatedAt":"2025-11-21","sido":"부산광역시","sigungu":"해운대구","dong":""},{"name":"해동주차장","type":"민영","category":"노외","address":"부산광역시 해운대구 재반로 91 (재송동)","lat":35.1868743948,"lng":129.1252503856,"totalSpaces":13,"isFree":false,"operatingDays":"평일+토요일+공휴일","weekdayOpen":"10:00","weekdayClose":"22:00","weekendOpen":"10:00","weekendClose":"22:00","holidayOpen":"10:00","holidayClose":"22:00","feeInfo":"유료","phone":"051-749-4887","updatedAt":"2025-11-21","sido":"부산광역시","sigungu":"해운대구","dong":""},{"name":"신리주차장","type":"민영","category":"노외","address":"부산광역시 해운대구 반송동788-15","lat":35.2309017134,"lng":129.1530402669,"totalSpaces":13,"isFree":false,"operatingDays":"평일+토요일+공휴일","weekdayOpen":"10:00","weekdayClose":"22:00","weekendOpen":"10:00","weekendClose":"22:00","holidayOpen":"10:00","holidayClose":"22:00","feeInfo":"기본 60분 1,000원","phone":"051-749-4887","updatedAt":"2025-11-21","sido":"부산광역시","sigungu":"해운대구","dong":""},{"name":"신촌주차장","type":"민영","category":"노외","address":"부산광역시 해운대구 반여로155번길 6 (반여동)","lat":35.2052557129,"lng":129.1255352881,"totalSpaces":13,"isFree":false,"operatingDays":"평일+토요일+공휴일","weekdayOpen":"10:00","weekdayClose":"22:00","weekendOpen":"10:00","weekendClose":"22:00","holidayOpen":"10:00","holidayClose":"22:00","feeInfo":"유료","phone":"051-749-4887","updatedAt":"2025-11-21","sido":"부산광역시","sigungu":"해운대구","dong":""},{"name":"경화주차장","type":"민영","category":"노외","address":"부산광역시 해운대구 반여로167번길 68 (반여동)","lat":35.2078090141,"lng":129.1237641984,"totalSpaces":13,"isFree":false,"operatingDays":"평일+토요일+공휴일","weekdayOpen":"10:00","weekdayClose":"22:00","weekendOpen":"10:00","weekendClose":"22:00","holidayOpen":"10:00","holidayClose":"22:00","feeInfo":"유료","phone":"051-749-4887","updatedAt":"2025-11-21","sido":"부산광역시","sigungu":"해운대구","dong":""},{"name":"프로미카윈드주차장","type":"민영","category":"노외","address":"부산광역시 해운대구 반여동1244-4,5","lat":35.2052565781,"lng":129.1248747408,"totalSpaces":12,"isFree":false,"operatingDays":"평일+토요일+공휴일","weekdayOpen":"10:00","weekdayClose":"22:00","weekendOpen":"10:00","weekendClose":"22:00","holidayOpen":"10:00","holidayClose":"22:00","feeInfo":"유료","phone":"051-749-4887","updatedAt":"2025-11-21","sido":"부산광역시","sigungu":"해운대구","dong":""},{"name":"에이원원룸주차장","type":"민영","category":"노외","address":"부산광역시 해운대구 아랫반송로5번길 52 (반송동)","lat":35.2267197816,"lng":129.1477774883,"totalSpaces":12,"isFree":false,"operatingDays":"평일+토요일+공휴일","weekdayOpen":"10:00","weekdayClose":"22:00","weekendOpen":"10:00","weekendClose":"22:00","holidayOpen":"10:00","holidayClose":"22:00","feeInfo":"유료","phone":"051-749-4887","updatedAt":"2025-11-21","sido":"부산광역시","sigungu":"해운대구","dong":""},{"name":"우양주차장","type":"민영","category":"노외","address":"부산광역시 해운대구 반송로 833 (반송동)","lat":35.2278706525,"lng":129.1464757917,"totalSpaces":12,"isFree":false,"operatingDays":"평일+토요일+공휴일","weekdayOpen":"10:00","weekdayClose":"22:00","weekendOpen":"10:00","weekendClose":"22:00","holidayOpen":"10:00","holidayClose":"22:00","feeInfo":"유료","phone":"051-749-4887","updatedAt":"2025-11-21","sido":"부산광역시","sigungu":"해운대구","dong":""},{"name":"민수주차장","type":"민영","category":"노외","address":"부산광역시 해운대구 반여로167번길 10 (반여동)","lat":35.2062672738,"lng":129.126303049,"totalSpaces":12,"isFree":false,"operatingDays":"평일+토요일+공휴일","weekdayOpen":"10:00","weekdayClose":"22:00","weekendOpen":"10:00","weekendClose":"22:00","holidayOpen":"10:00","holidayClose":"22:00","feeInfo":"유료","phone":"051-749-4887","updatedAt":"2025-11-21","sido":"부산광역시","sigungu":"해운대구","dong":""},{"name":"반여주차장","type":"민영","category":"노외","address":"부산광역시 해운대구 반여동1010-9","lat":35.2057526146,"lng":129.1249737162,"totalSpaces":12,"isFree":false,"operatingDays":"평일+토요일+공휴일","weekdayOpen":"10:00","weekdayClose":"22:00","weekendOpen":"10:00","weekendClose":"22:00","holidayOpen":"10:00","holidayClose":"22:00","feeInfo":"기본 30분 1,000원 / 추가 10분당 100원","phone":"051-749-4887","updatedAt":"2025-11-21","sido":"부산광역시","sigungu":"해운대구","dong":""},{"name":"누리주차장","type":"민영","category":"노외","address":"부산광역시 해운대구 우동 641-14","lat":35.1616341624,"lng":129.1563270286,"totalSpaces":12,"isFree":false,"operatingDays":"평일+토요일+공휴일","weekdayOpen":"10:00","weekdayClose":"22:00","weekendOpen":"10:00","weekendClose":"22:00","holidayOpen":"10:00","holidayClose":"22:00","feeInfo":"기본 30분 1,500원","phone":"051-749-4887","updatedAt":"2025-11-21","sido":"부산광역시","sigungu":"해운대구","dong":"우동"},{"name":"대교주차장","type":"민영","category":"노외","address":"부산광역시 해운대구 재송1로20번길 64 (재송동)","lat":35.1849657558,"lng":129.1217113419,"totalSpaces":12,"isFree":false,"operatingDays":"평일+토요일+공휴일","weekdayOpen":"10:00","weekdayClose":"22:00","weekendOpen":"10:00","weekendClose":"22:00","holidayOpen":"10:00","holidayClose":"22:00","feeInfo":"유료","phone":"051-749-4887","updatedAt":"2025-11-21","sido":"부산광역시","sigungu":"해운대구","dong":""},{"name":"대성주차장","type":"민영","category":"노외","address":"부산광역시 해운대구 반송순환로 150","lat":35.2240961549,"lng":129.1528971985,"totalSpaces":12,"isFree":false,"operatingDays":"평일+토요일+공휴일","weekdayOpen":"10:00","weekdayClose":"22:00","weekendOpen":"10:00","weekendClose":"22:00","holidayOpen":"10:00","holidayClose":"22:00","feeInfo":"유료","phone":"051-749-4887","updatedAt":"2025-11-21","sido":"부산광역시","sigungu":"해운대구","dong":""},{"name":"해수주차장","type":"민영","category":"노외","address":"부산광역시 해운대구 해운대로1105번길 32-19","lat":35.1857346705,"lng":129.1990227111,"totalSpaces":11,"isFree":false,"operatingDays":"평일+토요일+공휴일","weekdayOpen":"10:00","weekdayClose":"22:00","weekendOpen":"10:00","weekendClose":"22:00","holidayOpen":"10:00","holidayClose":"22:00","feeInfo":"유료","phone":"051-749-4887","updatedAt":"2025-11-21","sido":"부산광역시","sigungu":"해운대구","dong":""},{"name":"삼성주차장","type":"민영","category":"노외","address":"부산광역시 해운대구 반여동1202-6","lat":35.2030328867,"lng":129.1192470731,"totalSpaces":11,"isFree":false,"operatingDays":"평일+토요일+공휴일","weekdayOpen":"10:00","weekdayClose":"22:00","weekendOpen":"10:00","weekendClose":"22:00","holidayOpen":"10:00","holidayClose":"22:00","feeInfo":"유료","phone":"051-749-4887","updatedAt":"2025-11-21","sido":"부산광역시","sigungu":"해운대구","dong":""},{"name":"고래사어묵주차장","type":"민영","category":"노외","address":"부산광역시 해운대구 구남로12번길 20 (우동)","lat":35.1623057734,"lng":129.1585551599,"totalSpaces":11,"isFree":false,"operatingDays":"평일+토요일+공휴일","weekdayOpen":"10:00","weekdayClose":"22:00","weekendOpen":"10:00","weekendClose":"22:00","holidayOpen":"10:00","holidayClose":"22:00","feeInfo":"유료","phone":"051-749-4887","updatedAt":"2025-11-21","sido":"부산광역시","sigungu":"해운대구","dong":""},{"name":"달맞이주차장","type":"민영","category":"노외","address":"부산광역시 해운대구 중동944-8","lat":35.1607244675,"lng":129.1710000601,"totalSpaces":11,"isFree":false,"operatingDays":"평일+토요일+공휴일","weekdayOpen":"10:00","weekdayClose":"22:00","weekendOpen":"10:00","weekendClose":"22:00","holidayOpen":"10:00","holidayClose":"22:00","feeInfo":"유료","phone":"051-749-4887","updatedAt":"2025-11-21","sido":"부산광역시","sigungu":"해운대구","dong":""},{"name":"향토주차장","type":"민영","category":"노외","address":"부산광역시 해운대구 우동 441-3,9,10","lat":35.1673571028,"lng":129.1596098186,"totalSpaces":10,"isFree":false,"operatingDays":"평일+토요일+공휴일","weekdayOpen":"10:00","weekdayClose":"22:00","weekendOpen":"10:00","weekendClose":"22:00","holidayOpen":"10:00","holidayClose":"22:00","feeInfo":"유료","phone":"051-749-4887","updatedAt":"2025-11-21","sido":"부산광역시","sigungu":"해운대구","dong":"우동"},{"name":"장산주차장","type":"민영","category":"노외","address":"부산광역시 해운대구 좌동1463-2","lat":35.1715789221,"lng":129.17591174,"totalSpaces":10,"isFree":false,"operatingDays":"평일+토요일+공휴일","weekdayOpen":"10:00","weekdayClose":"22:00","weekendOpen":"10:00","weekendClose":"22:00","holidayOpen":"10:00","holidayClose":"22:00","feeInfo":"유료","phone":"051-749-4887","updatedAt":"2025-11-21","sido":"부산광역시","sigungu":"해운대구","dong":""},{"name":"장터주차장","type":"민영","category":"노외","address":"부산광역시 해운대구 재송동1124-7","lat":35.186845345,"lng":129.1259517471,"totalSpaces":10,"isFree":false,"operatingDays":"평일+토요일+공휴일","weekdayOpen":"10:00","weekdayClose":"22:00","weekendOpen":"10:00","weekendClose":"22:00","holidayOpen":"10:00","holidayClose":"22:00","feeInfo":"유료","phone":"051-749-4887","updatedAt":"2025-11-21","sido":"부산광역시","sigungu":"해운대구","dong":""},{"name":"제타호텔부설주차장","type":"민영","category":"노외","address":"부산광역시 해운대구 송정중앙로33번길 10-1 (송정동)","lat":35.1825252222,"lng":129.2044966332,"totalSpaces":10,"isFree":false,"operatingDays":"평일+토요일+공휴일","weekdayOpen":"10:00","weekdayClose":"22:00","weekendOpen":"10:00","weekendClose":"22:00","holidayOpen":"10:00","holidayClose":"22:00","feeInfo":"유료","phone":"051-749-4887","updatedAt":"2025-11-21","sido":"부산광역시","sigungu":"해운대구","dong":""},{"name":"왕자주차장","type":"민영","category":"노외","address":"부산광역시 해운대구 선수촌로21번길 7","lat":35.1959668213,"lng":129.1180908396,"totalSpaces":10,"isFree":false,"operatingDays":"평일+토요일+공휴일","weekdayOpen":"10:00","weekdayClose":"22:00","weekendOpen":"10:00","weekendClose":"22:00","holidayOpen":"10:00","holidayClose":"22:00","feeInfo":"유료","phone":"051-749-4887","updatedAt":"2025-11-21","sido":"부산광역시","sigungu":"해운대구","dong":"반여동"},{"name":"롯데주차장","type":"민영","category":"노외","address":"부산광역시 해운대구 송정동85-16","lat":35.1948005631,"lng":129.20652009,"totalSpaces":10,"isFree":false,"operatingDays":"평일+토요일+공휴일","weekdayOpen":"10:00","weekdayClose":"22:00","weekendOpen":"10:00","weekendClose":"22:00","holidayOpen":"10:00","holidayClose":"22:00","feeInfo":"유료","phone":"051-749-4887","updatedAt":"2025-11-21","sido":"부산광역시","sigungu":"해운대구","dong":""},{"name":"흥안인더스트리","type":"민영","category":"노외","address":"부산광역시 해운대구 해운대해변로265번길 7 (우동)","lat":35.1602191602,"lng":129.1606127713,"totalSpaces":9,"isFree":false,"operatingDays":"평일+토요일+공휴일","weekdayOpen":"10:00","weekdayClose":"22:00","weekendOpen":"10:00","weekendClose":"22:00","holidayOpen":"10:00","holidayClose":"22:00","feeInfo":"기본 60분 4,000원 / 추가 30분당 2,000원","phone":"051-749-4887","updatedAt":"2025-11-21","sido":"부산광역시","sigungu":"해운대구","dong":""},{"name":"동남주차장","type":"민영","category":"노외","address":"부산광역시 해운대구 해운대해변로237번길 9 (우동)","lat":35.1596431262,"lng":129.1575360551,"totalSpaces":9,"isFree":false,"operatingDays":"평일+토요일+공휴일","weekdayOpen":"10:00","weekdayClose":"22:00","weekendOpen":"10:00","weekendClose":"22:00","holidayOpen":"10:00","holidayClose":"22:00","feeInfo":"유료","phone":"051-749-4887","updatedAt":"2025-11-21","sido":"부산광역시","sigungu":"해운대구","dong":"우동"},{"name":"부일주차장","type":"민영","category":"노외","address":"부산광역시 해운대구 우동151-4,150-2","lat":35.1669161452,"lng":129.159947663,"totalSpaces":9,"isFree":false,"operatingDays":"평일+토요일+공휴일","weekdayOpen":"10:00","weekdayClose":"22:00","weekendOpen":"10:00","weekendClose":"22:00","holidayOpen":"10:00","holidayClose":"22:00","feeInfo":"기본 60분 2,000원 / 추가 30분당 1,000원","phone":"051-749-4887","updatedAt":"2025-11-21","sido":"부산광역시","sigungu":"해운대구","dong":""},{"name":"태양주차장","type":"민영","category":"노외","address":"부산광역시 해운대구 재송동 939-9","lat":35.1902350631,"lng":129.1174634042,"totalSpaces":8,"isFree":false,"operatingDays":"평일+토요일+공휴일","weekdayOpen":"10:00","weekdayClose":"22:00","weekendOpen":"10:00","weekendClose":"22:00","holidayOpen":"10:00","holidayClose":"22:00","feeInfo":"유료","phone":"051-749-4887","updatedAt":"2025-11-21","sido":"부산광역시","sigungu":"해운대구","dong":"재송동"},{"name":"해수주차장","type":"민영","category":"노외","address":"부산광역시 해운대구 송정동288-7,16,17","lat":35.1816665767,"lng":129.2057896606,"totalSpaces":8,"isFree":false,"operatingDays":"평일+토요일+공휴일","weekdayOpen":"10:00","weekdayClose":"22:00","weekendOpen":"10:00","weekendClose":"22:00","holidayOpen":"10:00","holidayClose":"22:00","feeInfo":"유료","phone":"051-749-4887","updatedAt":"2025-11-21","sido":"부산광역시","sigungu":"해운대구","dong":""},{"name":"삼원주차장","type":"민영","category":"노외","address":"부산광역시 해운대구 반여동939-1","lat":35.2077232913,"lng":129.1243483005,"totalSpaces":8,"isFree":false,"operatingDays":"평일+토요일+공휴일","weekdayOpen":"10:00","weekdayClose":"22:00","weekendOpen":"10:00","weekendClose":"22:00","holidayOpen":"10:00","holidayClose":"22:00","feeInfo":"유료","phone":"051-749-4887","updatedAt":"2025-11-21","sido":"부산광역시","sigungu":"해운대구","dong":""},{"name":"세중주차장","type":"민영","category":"노외","address":"부산광역시 해운대구 송정광어골로 87 (송정동)","lat":35.17372164,"lng":129.1966722,"totalSpaces":8,"isFree":false,"operatingDays":"평일+토요일+공휴일","weekdayOpen":"10:00","weekdayClose":"22:00","weekendOpen":"10:00","weekendClose":"22:00","holidayOpen":"10:00","holidayClose":"22:00","feeInfo":"유료","phone":"051-749-4887","updatedAt":"2025-11-21","sido":"부산광역시","sigungu":"해운대구","dong":""},{"name":"문명주차장","type":"민영","category":"노외","address":"부산광역시 해운대구 송정동306-8,306-9","lat":35.1808672096,"lng":129.1979560334,"totalSpaces":8,"isFree":false,"operatingDays":"평일+토요일+공휴일","weekdayOpen":"10:00","weekdayClose":"22:00","weekendOpen":"10:00","weekendClose":"22:00","holidayOpen":"10:00","holidayClose":"22:00","feeInfo":"유료","phone":"051-749-4887","updatedAt":"2025-11-21","sido":"부산광역시","sigungu":"해운대구","dong":""},{"name":"미소주차장","type":"민영","category":"노외","address":"부산광역시 해운대구 우동652-2","lat":35.1595261968,"lng":129.155049002,"totalSpaces":8,"isFree":false,"operatingDays":"평일+토요일+공휴일","weekdayOpen":"10:00","weekdayClose":"22:00","weekendOpen":"10:00","weekendClose":"22:00","holidayOpen":"10:00","holidayClose":"22:00","feeInfo":"유료","phone":"051-749-4887","updatedAt":"2025-11-21","sido":"부산광역시","sigungu":"해운대구","dong":""},{"name":"미포주차장","type":"민영","category":"노외","address":"부산광역시 해운대구 중동1035-2","lat":35.1594108569,"lng":129.1705394303,"totalSpaces":8,"isFree":false,"operatingDays":"평일+토요일+공휴일","weekdayOpen":"10:00","weekdayClose":"22:00","weekendOpen":"10:00","weekendClose":"22:00","holidayOpen":"10:00","holidayClose":"22:00","feeInfo":"유료","phone":"051-749-4887","updatedAt":"2025-11-21","sido":"부산광역시","sigungu":"해운대구","dong":""},{"name":"해송주차장","type":"민영","category":"노외","address":"부산광역시 해운대구 송정1로7번길 28-1 (송정동, 해림파크빌라)","lat":35.18130674,"lng":129.198221,"totalSpaces":7,"isFree":false,"operatingDays":"평일+토요일+공휴일","weekdayOpen":"10:00","weekdayClose":"22:00","weekendOpen":"10:00","weekendClose":"22:00","holidayOpen":"10:00","holidayClose":"22:00","feeInfo":"유료","phone":"051-749-4887","updatedAt":"2025-11-21","sido":"부산광역시","sigungu":"해운대구","dong":""},{"name":"은화요양병원주차장","type":"민영","category":"노외","address":"부산광역시 해운대구 반송로828번길 7 (반송동)","lat":35.2275115846,"lng":129.1472559519,"totalSpaces":7,"isFree":false,"operatingDays":"평일+토요일+공휴일","weekdayOpen":"10:00","weekdayClose":"22:00","weekendOpen":"10:00","weekendClose":"22:00","holidayOpen":"10:00","holidayClose":"22:00","feeInfo":"유료","phone":"051-749-4887","updatedAt":"2025-11-21","sido":"부산광역시","sigungu":"해운대구","dong":""},{"name":"장산주차장","type":"민영","category":"노외","address":"부산광역시 해운대구 반여동1603-19","lat":35.200372452,"lng":129.13135446,"totalSpaces":7,"isFree":false,"operatingDays":"평일+토요일+공휴일","weekdayOpen":"10:00","weekdayClose":"22:00","weekendOpen":"10:00","weekendClose":"22:00","holidayOpen":"10:00","holidayClose":"22:00","feeInfo":"기본 30분 1,000원","phone":"051-749-4887","updatedAt":"2025-11-21","sido":"부산광역시","sigungu":"해운대구","dong":""},{"name":"조방주차장","type":"민영","category":"노외","address":"부산광역시 해운대구 좌동로75번길 47 (좌동)","lat":35.1732131,"lng":129.172426,"totalSpaces":7,"isFree":false,"operatingDays":"평일+토요일+공휴일","weekdayOpen":"10:00","weekdayClose":"22:00","weekendOpen":"10:00","weekendClose":"22:00","holidayOpen":"10:00","holidayClose":"22:00","feeInfo":"유료","phone":"051-749-4887","updatedAt":"2025-11-21","sido":"부산광역시","sigungu":"해운대구","dong":""},{"name":"진영주차장","type":"민영","category":"노외","address":"부산광역시 해운대구 아랫반송로90번길 11-17 (반송동)","lat":35.2198566919,"lng":129.1530277615,"totalSpaces":7,"isFree":false,"operatingDays":"평일+토요일+공휴일","weekdayOpen":"10:00","weekdayClose":"22:00","weekendOpen":"10:00","weekendClose":"22:00","holidayOpen":"10:00","holidayClose":"22:00","feeInfo":"유료","phone":"051-749-4887","updatedAt":"2025-11-21","sido":"부산광역시","sigungu":"해운대구","dong":""},{"name":"알리주차장","type":"민영","category":"노외","address":"부산광역시 해운대구 송정동292","lat":35.1815812675,"lng":129.203631587,"totalSpaces":7,"isFree":false,"operatingDays":"평일+토요일+공휴일","weekdayOpen":"10:00","weekdayClose":"22:00","weekendOpen":"10:00","weekendClose":"22:00","holidayOpen":"10:00","holidayClose":"22:00","feeInfo":"유료","phone":"051-749-4887","updatedAt":"2025-11-21","sido":"부산광역시","sigungu":"해운대구","dong":""},{"name":"선경주차장","type":"민영","category":"노외","address":"부산광역시 해운대구 재반로125번길 57 (재송동)","lat":35.1892285115,"lng":129.1236041112,"totalSpaces":7,"isFree":false,"operatingDays":"평일+토요일+공휴일","weekdayOpen":"10:00","weekdayClose":"22:00","weekendOpen":"10:00","weekendClose":"22:00","holidayOpen":"10:00","holidayClose":"22:00","feeInfo":"유료","phone":"051-749-4887","updatedAt":"2025-11-21","sido":"부산광역시","sigungu":"해운대구","dong":""},{"name":"선수촌주차장","type":"민영","category":"노외","address":"부산광역시 해운대구 반여동1445-1,2","lat":35.2007621824,"lng":129.1200819639,"totalSpaces":7,"isFree":false,"operatingDays":"평일+토요일+공휴일","weekdayOpen":"10:00","weekdayClose":"22:00","weekendOpen":"10:00","weekendClose":"22:00","holidayOpen":"10:00","holidayClose":"22:00","feeInfo":"기본 60분 1,500원","phone":"051-749-4887","updatedAt":"2025-11-21","sido":"부산광역시","sigungu":"해운대구","dong":""},{"name":"대영주차장","type":"민영","category":"노외","address":"부산광역시 해운대구 재송동1071-26","lat":35.1862433444,"lng":129.1214590221,"totalSpaces":7,"isFree":false,"operatingDays":"평일+토요일+공휴일","weekdayOpen":"10:00","weekdayClose":"22:00","weekendOpen":"10:00","weekendClose":"22:00","holidayOpen":"10:00","holidayClose":"22:00","feeInfo":"유료","phone":"051-749-4887","updatedAt":"2025-11-21","sido":"부산광역시","sigungu":"해운대구","dong":""},{"name":"반송주차장","type":"민영","category":"노외","address":"부산광역시 해운대구 반송동744-206","lat":35.2239625936,"lng":129.1468390458,"totalSpaces":7,"isFree":false,"operatingDays":"평일+토요일+공휴일","weekdayOpen":"10:00","weekdayClose":"22:00","weekendOpen":"10:00","weekendClose":"22:00","holidayOpen":"10:00","holidayClose":"22:00","feeInfo":"유료","phone":"051-749-4887","updatedAt":"2025-11-21","sido":"부산광역시","sigungu":"해운대구","dong":""},{"name":"주차장","type":"민영","category":"노외","address":"부산광역시 해운대구 중동1480-4","lat":35.1605804909,"lng":129.1838890953,"totalSpaces":6,"isFree":false,"operatingDays":"평일+토요일+공휴일","weekdayOpen":"10:00","weekdayClose":"22:00","weekendOpen":"10:00","weekendClose":"22:00","holidayOpen":"10:00","holidayClose":"22:00","feeInfo":"유료","phone":"051-749-4887","updatedAt":"2025-11-21","sido":"부산광역시","sigungu":"해운대구","dong":""},{"name":"양지주차장","type":"민영","category":"노외","address":"부산광역시 해운대구 반송동250-2343","lat":35.2196731813,"lng":129.1527162881,"totalSpaces":6,"isFree":false,"operatingDays":"평일+토요일+공휴일","weekdayOpen":"10:00","weekdayClose":"22:00","weekendOpen":"10:00","weekendClose":"22:00","holidayOpen":"10:00","holidayClose":"22:00","feeInfo":"유료","phone":"051-749-4887","updatedAt":"2025-11-21","sido":"부산광역시","sigungu":"해운대구","dong":""},{"name":"송민주차장","type":"민영","category":"노외","address":"부산광역시 해운대구 반송동250-1004,1005","lat":35.2223189308,"lng":129.1496924034,"totalSpaces":6,"isFree":false,"operatingDays":"평일+토요일+공휴일","weekdayOpen":"10:00","weekdayClose":"22:00","weekendOpen":"10:00","weekendClose":"22:00","holidayOpen":"10:00","holidayClose":"22:00","feeInfo":"유료","phone":"051-749-4887","updatedAt":"2025-11-21","sido":"부산광역시","sigungu":"해운대구","dong":""},{"name":"1박2일주차장","type":"민영","category":"노외","address":"부산광역시 해운대구 해운대로 591 (우동)","lat":35.16223403,"lng":129.1557888,"totalSpaces":6,"isFree":false,"operatingDays":"평일+토요일+공휴일","weekdayOpen":"10:00","weekdayClose":"22:00","weekendOpen":"10:00","weekendClose":"22:00","holidayOpen":"10:00","holidayClose":"22:00","feeInfo":"기본 60분 2,000원 / 추가 30분당 1,000원","phone":"051-749-4887","updatedAt":"2025-11-21","sido":"부산광역시","sigungu":"해운대구","dong":""},{"name":"센텀병원주차장","type":"민영","category":"노외","address":"부산광역시 해운대구 반여동 1206-36","lat":35.2025314886,"lng":129.1197364414,"totalSpaces":5,"isFree":false,"operatingDays":"평일+토요일+공휴일","weekdayOpen":"10:00","weekdayClose":"22:00","weekendOpen":"10:00","weekendClose":"22:00","holidayOpen":"10:00","holidayClose":"22:00","feeInfo":"유료","phone":"051-749-4887","updatedAt":"2025-11-21","sido":"부산광역시","sigungu":"해운대구","dong":"반여동"},{"name":"알천애프앤비","type":"민영","category":"노외","address":"부산광역시 해운대구 재반로64번길 19 (재송동)","lat":35.1850658846,"lng":129.1269231933,"totalSpaces":5,"isFree":false,"operatingDays":"평일+토요일+공휴일","weekdayOpen":"10:00","weekdayClose":"22:00","weekendOpen":"10:00","weekendClose":"22:00","holidayOpen":"10:00","holidayClose":"22:00","feeInfo":"유료","phone":"051-749-4887","updatedAt":"2025-11-21","sido":"부산광역시","sigungu":"해운대구","dong":""},{"name":"여인천하주차장","type":"민영","category":"노외","address":"부산광역시 해운대구 우동426-5","lat":35.1674711936,"lng":129.1596998279,"totalSpaces":5,"isFree":false,"operatingDays":"평일+토요일+공휴일","weekdayOpen":"10:00","weekdayClose":"22:00","weekendOpen":"10:00","weekendClose":"22:00","holidayOpen":"10:00","holidayClose":"22:00","feeInfo":"유료","phone":"051-749-4887","updatedAt":"2025-11-21","sido":"부산광역시","sigungu":"해운대구","dong":""},{"name":"우일주차장","type":"민영","category":"노외","address":"부산광역시 해운대구 우동2로30번길 3 (우동)","lat":35.1673747789,"lng":129.159788656,"totalSpaces":5,"isFree":false,"operatingDays":"평일+토요일+공휴일","weekdayOpen":"10:00","weekdayClose":"22:00","weekendOpen":"10:00","weekendClose":"22:00","holidayOpen":"10:00","holidayClose":"22:00","feeInfo":"유료","phone":"051-749-4887","updatedAt":"2025-11-21","sido":"부산광역시","sigungu":"해운대구","dong":""},{"name":"원도주차장","type":"민영","category":"노외","address":"부산광역시 해운대구 송정동306-10","lat":35.1810716702,"lng":129.1980511312,"totalSpaces":5,"isFree":false,"operatingDays":"평일+토요일+공휴일","weekdayOpen":"10:00","weekdayClose":"22:00","weekendOpen":"10:00","weekendClose":"22:00","holidayOpen":"10:00","holidayClose":"22:00","feeInfo":"유료","phone":"051-749-4887","updatedAt":"2025-11-21","sido":"부산광역시","sigungu":"해운대구","dong":""},{"name":"빅스주차장","type":"민영","category":"노외","address":"부산광역시 해운대구 재송동1119-25","lat":35.1862324593,"lng":129.1263634253,"totalSpaces":5,"isFree":false,"operatingDays":"평일+토요일+공휴일","weekdayOpen":"10:00","weekdayClose":"22:00","weekendOpen":"10:00","weekendClose":"22:00","holidayOpen":"10:00","holidayClose":"22:00","feeInfo":"유료","phone":"051-749-4887","updatedAt":"2025-11-21","sido":"부산광역시","sigungu":"해운대구","dong":""},{"name":"상하이주차장","type":"민영","category":"노외","address":"부산광역시 해운대구 재송동1106-4","lat":35.1841733551,"lng":129.1233022108,"totalSpaces":5,"isFree":false,"operatingDays":"평일+토요일+공휴일","weekdayOpen":"10:00","weekdayClose":"22:00","weekendOpen":"10:00","weekendClose":"22:00","holidayOpen":"10:00","holidayClose":"22:00","feeInfo":"유료","phone":"051-749-4887","updatedAt":"2025-11-21","sido":"부산광역시","sigungu":"해운대구","dong":""},{"name":"두리주차장","type":"민영","category":"노외","address":"부산광역시 해운대구 해운대해변로209번나길 31 (우동)","lat":35.16027127,"lng":129.1553825,"totalSpaces":5,"isFree":false,"operatingDays":"평일+토요일+공휴일","weekdayOpen":"10:00","weekdayClose":"22:00","weekendOpen":"10:00","weekendClose":"22:00","holidayOpen":"10:00","holidayClose":"22:00","feeInfo":"유료","phone":"051-749-4887","updatedAt":"2025-11-21","sido":"부산광역시","sigungu":"해운대구","dong":""},{"name":"W주차장","type":"민영","category":"노외","address":"부산광역시 해운대구 송정동 136-7","lat":35.1837616419,"lng":129.1999432086,"totalSpaces":4,"isFree":false,"operatingDays":"평일+토요일+공휴일","weekdayOpen":"10:00","weekdayClose":"22:00","weekendOpen":"10:00","weekendClose":"22:00","holidayOpen":"10:00","holidayClose":"22:00","feeInfo":"유료","phone":"051-749-4887","updatedAt":"2025-11-21","sido":"부산광역시","sigungu":"해운대구","dong":"송정동"},{"name":"부산익스프레스주차장","type":"민영","category":"노외","address":"부산광역시 해운대구 재송동478","lat":35.183759045,"lng":129.1259803424,"totalSpaces":4,"isFree":false,"operatingDays":"평일+토요일+공휴일","weekdayOpen":"10:00","weekdayClose":"22:00","weekendOpen":"10:00","weekendClose":"22:00","holidayOpen":"10:00","holidayClose":"22:00","feeInfo":"유료","phone":"051-749-4887","updatedAt":"2025-11-21","sido":"부산광역시","sigungu":"해운대구","dong":""},{"name":"서목주차장","type":"민영","category":"노외","address":"부산광역시 해운대구 중동 1012-3, 1015-14외","lat":35.1578214566,"lng":129.172928568,"totalSpaces":4,"isFree":false,"operatingDays":"평일+토요일+공휴일","weekdayOpen":"10:00","weekdayClose":"22:00","weekendOpen":"10:00","weekendClose":"22:00","holidayOpen":"10:00","holidayClose":"22:00","feeInfo":"유료","phone":"051-749-4887","updatedAt":"2025-11-21","sido":"부산광역시","sigungu":"해운대구","dong":"중동"},{"name":"반송주차장","type":"민영","category":"노외","address":"부산광역시 해운대구 아랫반송로70번길 63-8 (반송동)","lat":35.2205968085,"lng":129.1499353351,"totalSpaces":4,"isFree":false,"operatingDays":"평일+토요일+공휴일","weekdayOpen":"10:00","weekdayClose":"22:00","weekendOpen":"10:00","weekendClose":"22:00","holidayOpen":"10:00","holidayClose":"22:00","feeInfo":"유료","phone":"051-749-4887","updatedAt":"2025-11-21","sido":"부산광역시","sigungu":"해운대구","dong":""},{"name":"코리아주차장","type":"민영","category":"노외","address":"부산광역시 해운대구 중동204-4","lat":35.1704757475,"lng":129.1721731234,"totalSpaces":3,"isFree":false,"operatingDays":"평일+토요일+공휴일","weekdayOpen":"10:00","weekdayClose":"22:00","weekendOpen":"10:00","weekendClose":"22:00","holidayOpen":"10:00","holidayClose":"22:00","feeInfo":"유료","phone":"051-749-4887","updatedAt":"2025-11-21","sido":"부산광역시","sigungu":"해운대구","dong":""},{"name":"포트주차장","type":"민영","category":"노외","address":"부산광역시 해운대구 송정구덕포길 170-32 (송정동)","lat":35.1681925185,"lng":129.1966096498,"totalSpaces":3,"isFree":false,"operatingDays":"평일+토요일+공휴일","weekdayOpen":"10:00","weekdayClose":"22:00","weekendOpen":"10:00","weekendClose":"22:00","holidayOpen":"10:00","holidayClose":"22:00","feeInfo":"유료","phone":"051-749-4887","updatedAt":"2025-11-21","sido":"부산광역시","sigungu":"해운대구","dong":""},{"name":"유로주차장","type":"민영","category":"노외","address":"부산광역시 해운대구 우동2로30번가길 11 (우동)","lat":35.1677801637,"lng":129.161215042,"totalSpaces":3,"isFree":false,"operatingDays":"평일+토요일+공휴일","weekdayOpen":"10:00","weekdayClose":"22:00","weekendOpen":"10:00","weekendClose":"22:00","holidayOpen":"10:00","holidayClose":"22:00","feeInfo":"유료","phone":"051-749-4887","updatedAt":"2025-11-21","sido":"부산광역시","sigungu":"해운대구","dong":""},{"name":"반여주차장","type":"민영","category":"노외","address":"부산광역시 해운대구 반여로185번길6 (반여동)","lat":35.2071989848,"lng":129.1279838777,"totalSpaces":3,"isFree":false,"operatingDays":"평일+토요일+공휴일","weekdayOpen":"10:00","weekdayClose":"22:00","weekendOpen":"10:00","weekendClose":"22:00","holidayOpen":"10:00","holidayClose":"22:00","feeInfo":"유료","phone":"051-749-4887","updatedAt":"2025-11-21","sido":"부산광역시","sigungu":"해운대구","dong":""},{"name":"5994주차장","type":"민영","category":"노외","address":"부산광역시 해운대구 재반로242번길 7-46 (반여동)","lat":35.19930983,"lng":129.1319426,"totalSpaces":3,"isFree":false,"operatingDays":"평일+토요일+공휴일","weekdayOpen":"10:00","weekdayClose":"22:00","weekendOpen":"10:00","weekendClose":"22:00","holidayOpen":"10:00","holidayClose":"22:00","feeInfo":"유료","phone":"051-749-4887","updatedAt":"2025-11-21","sido":"부산광역시","sigungu":"해운대구","dong":"반여동"},{"name":"강남주차장","type":"민영","category":"노외","address":"부산광역시 해운대구 반송동250-1751","lat":35.2215640836,"lng":129.1520749483,"totalSpaces":3,"isFree":false,"operatingDays":"평일+토요일+공휴일","weekdayOpen":"10:00","weekdayClose":"22:00","weekendOpen":"10:00","weekendClose":"22:00","holidayOpen":"10:00","holidayClose":"22:00","feeInfo":"유료","phone":"051-749-4887","updatedAt":"2025-11-21","sido":"부산광역시","sigungu":"해운대구","dong":""},{"name":"조이박주차장","type":"민영","category":"노외","address":"부산광역시 해운대구 재송동521-1","lat":35.1806387406,"lng":129.126069472,"totalSpaces":2,"isFree":false,"operatingDays":"평일+토요일+공휴일","weekdayOpen":"10:00","weekdayClose":"22:00","weekendOpen":"10:00","weekendClose":"22:00","holidayOpen":"10:00","holidayClose":"22:00","feeInfo":"유료","phone":"051-749-4887","updatedAt":"2025-11-21","sido":"부산광역시","sigungu":"해운대구","dong":""}]}