{"sido":"대전광역시","sigungu":"유성구","totalCount":237,"validCount":237,"items":[{"name":"유성IC만남의광장","type":"공영","category":"노외","address":"대전광역시 유성구 월드컵대로 31, (장대동)","lat":36.36341989,"lng":127.3281519,"totalSpaces":215,"isFree":true,"operatingDays":"평일+토요일+공휴일","weekdayOpen":"00:00","weekdayClose":"23:59","weekendOpen":"00:00","weekendClose":"23:59","holidayOpen":"00:00","holidayClose":"23:59","feeInfo":"무료","phone":"042-120","updatedAt":"2022-12-15","sido":"대전광역시","sigungu":"유성구","dong":"장대동"},{"name":"유성IC만남의광장","type":"공영","category":"노외","address":"대전광역시 유성구 장대동 240-43","lat":36.36341989,"lng":127.3281519,"totalSpaces":215,"isFree":true,"operatingDays":"평일+토요일+공휴일","weekdayOpen":"00:00","weekdayClose":"23:59","weekendOpen":"00:00","weekendClose":"23:59","holidayOpen":"00:00","holidayClose":"23:59","feeInfo":"무료","phone":"042-611-2956","updatedAt":"2026-01-13","sido":"대전광역시","sigungu":"유성구","dong":"장대동"},{"name":"봉명동 카페거리","type":"공영","category":"노상","address":"대전광역시 유성구 봉명동 648","lat":36.42318294,"lng":127.3936824,"totalSpaces":182,"isFree":true,"operatingDays":"평일+토요일+공휴일","weekdayOpen":"00:00","weekdayClose":"23:59","weekendOpen":"00:00","weekendClose":"23:59","holidayOpen":"00:00","holidayClose":"23:59","feeInfo":"무료","phone":"042-120","updatedAt":"2022-12-15","sido":"대전광역시","sigungu":"유성구","dong":"봉명동"},{"name":"수통골 공영주차장","type":"공영","category":"노외","address":"대전광역시 유성구 수통골로 37, (계산동)","lat":36.34532238,"lng":127.2905214,"totalSpaces":177,"isFree":true,"operatingDays":"평일+토요일+공휴일","weekdayOpen":"00:00","weekdayClose":"23:59","weekendOpen":"00:00","weekendClose":"23:59","holidayOpen":"00:00","holidayClose":"23:59","feeInfo":"무료","phone":"042-120","updatedAt":"2022-12-15","sido":"대전광역시","sigungu":"유성구","dong":"계산동"},{"name":"수통골 공영주차장","type":"공영","category":"노외","address":"대전광역시 유성구 계산동354","lat":36.3453679,"lng":127.2905214,"totalSpaces":177,"isFree":true,"operatingDays":"평일+토요일+공휴일","weekdayOpen":"00:00","weekdayClose":"23:59","weekendOpen":"00:00","weekendClose":"23:59","holidayOpen":"00:00","holidayClose":"23:59","feeInfo":"무료","phone":"042-611-2956","updatedAt":"2026-01-13","sido":"대전광역시","sigungu":"유성구","dong":""},{"name":"죽동공영","type":"공영","category":"노외","address":"대전광역시 유성구 죽동 598","lat":36.38230621,"lng":127.3229484,"totalSpaces":156,"isFree":true,"operatingDays":"평일+토요일+공휴일","weekdayOpen":"00:00","weekdayClose":"23:59","weekendOpen":"00:00","weekendClose":"23:59","holidayOpen":"00:00","holidayClose":"23:59","feeInfo":"무료","phone":"042-120","updatedAt":"2022-12-15","sido":"대전광역시","sigungu":"유성구","dong":"죽동"},{"name":"죽동공영(2급소방시설물)","type":"공영","category":"노외","address":"대전광역시 유성구 죽동 598","lat":36.3823091,"lng":127.3229444,"totalSpaces":156,"isFree":true,"operatingDays":"평일+토요일+공휴일","weekdayOpen":"00:00","weekdayClose":"23:59","weekendOpen":"00:00","weekendClose":"23:59","holidayOpen":"00:00","holidayClose":"23:59","feeInfo":"무료","phone":"042-611-2956","updatedAt":"2026-01-13","sido":"대전광역시","sigungu":"유성구","dong":"죽동"},{"name":"장대동 공영","type":"공영","category":"노외","address":"대전광역시 유성구 유성대로729번길 40, (장대동)","lat":36.36000008,"lng":127.331852,"totalSpaces":144,"isFree":true,"operatingDays":"평일+토요일+공휴일","weekdayOpen":"00:00","weekdayClose":"23:59","weekendOpen":"00:00","weekendClose":"23:59","holidayOpen":"00:00","holidayClose":"23:59","feeInfo":"무료","phone":"042-120","updatedAt":"2022-12-15","sido":"대전광역시","sigungu":"유성구","dong":"장대동"},{"name":"장대동공영(3급소방시설물)","type":"공영","category":"노외","address":"대전광역시 유성구 장대동 263-2","lat":36.36000008,"lng":127.331852,"totalSpaces":138,"isFree":true,"operatingDays":"평일+토요일+공휴일","weekdayOpen":"00:00","weekdayClose":"23:59","weekendOpen":"00:00","weekendClose":"23:59","holidayOpen":"00:00","holidayClose":"23:59","feeInfo":"무료","phone":"042-611-2956","updatedAt":"2026-01-13","sido":"대전광역시","sigungu":"유성구","dong":"장대동"},{"name":"궁동 457-1일원","type":"공영","category":"노상","address":"대전광역시 유성구 문화원로37번길 36, (궁동)","lat":36.36189089,"lng":127.3410834,"totalSpaces":122,"isFree":true,"operatingDays":"평일+토요일+공휴일","weekdayOpen":"00:00","weekdayClose":"23:59","weekendOpen":"00:00","weekendClose":"23:59","holidayOpen":"00:00","holidayClose":"23:59","feeInfo":"무료","phone":"042-120","updatedAt":"2022-12-15","sido":"대전광역시","sigungu":"유성구","dong":"궁동"},{"name":"죽동 임시공영(5)","type":"공영","category":"노외","address":"대전광역시 유성구 죽동 731-1","lat":36.37516341,"lng":127.3389452,"totalSpaces":112,"isFree":true,"operatingDays":"평일+토요일+공휴일","weekdayOpen":"00:00","weekdayClose":"23:59","weekendOpen":"00:00","weekendClose":"23:59","holidayOpen":"00:00","holidayClose":"23:59","feeInfo":"무료","phone":"042-611-2956","updatedAt":"2026-01-13","sido":"대전광역시","sigungu":"유성구","dong":"죽동"},{"name":"동원수산 앞","type":"공영","category":"노상","address":"대전광역시 유성구 노은동 594","lat":36.36762703,"lng":127.3182829,"totalSpaces":92,"isFree":true,"operatingDays":"평일+토요일+공휴일","weekdayOpen":"00:00","weekdayClose":"23:59","weekendOpen":"00:00","weekendClose":"23:59","holidayOpen":"00:00","holidayClose":"23:59","feeInfo":"무료","phone":"042-120","updatedAt":"2022-12-15","sido":"대전광역시","sigungu":"유성구","dong":"노은동"},{"name":"캠핑카 전용 임시공영","type":"공영","category":"노외","address":"대전광역시 유성구 계산동 715-1","lat":36.3419668,"lng":127.2990086,"totalSpaces":80,"isFree":true,"operatingDays":"평일+토요일+공휴일","weekdayOpen":"00:00","weekdayClose":"23:59","weekendOpen":"00:00","weekendClose":"23:59","holidayOpen":"00:00","holidayClose":"23:59","feeInfo":"무료","phone":"042-611-2956","updatedAt":"2026-01-13","sido":"대전광역시","sigungu":"유성구","dong":"계산동"},{"name":"신성동 제2공영","type":"공영","category":"노외","address":"대전광역시 유성구 신성동 211-2","lat":36.38851994,"lng":127.3488624,"totalSpaces":80,"isFree":true,"operatingDays":"평일+토요일+공휴일","weekdayOpen":"00:00","weekdayClose":"23:59","weekendOpen":"00:00","weekendClose":"23:59","holidayOpen":"00:00","holidayClose":"23:59","feeInfo":"무료","phone":"042-611-2956","updatedAt":"2026-01-13","sido":"대전광역시","sigungu":"유성구","dong":"신성동"},{"name":"권인순 김치찌개 앞","type":"공영","category":"노상","address":"대전광역시 유성구 노은서로76번길 77, (노은동)","lat":36.36747445,"lng":127.3172113,"totalSpaces":78,"isFree":true,"operatingDays":"평일+토요일+공휴일","weekdayOpen":"00:00","weekdayClose":"23:59","weekendOpen":"00:00","weekendClose":"23:59","holidayOpen":"00:00","holidayClose":"23:59","feeInfo":"무료","phone":"042-120","updatedAt":"2022-12-15","sido":"대전광역시","sigungu":"유성구","dong":"노은동"},{"name":"신성동 제2공영","type":"공영","category":"노외","address":"대전광역시 유성구 신성동 211-2","lat":36.38851994,"lng":127.3488631,"totalSpaces":70,"isFree":true,"operatingDays":"평일+토요일+공휴일","weekdayOpen":"00:00","weekdayClose":"23:59","weekendOpen":"00:00","weekendClose":"23:59","holidayOpen":"00:00","holidayClose":"23:59","feeInfo":"무료","phone":"042-120","updatedAt":"2022-12-15","sido":"대전광역시","sigungu":"유성구","dong":"신성동"},{"name":"농촌공사 주변","type":"공영","category":"노상","address":"대전광역시 유성구 한밭대로313번길 21, (장대동)","lat":36.36615237,"lng":127.3359327,"totalSpaces":70,"isFree":true,"operatingDays":"평일+토요일+공휴일","weekdayOpen":"00:00","weekdayClose":"23:59","weekendOpen":"00:00","weekendClose":"23:59","holidayOpen":"00:00","holidayClose":"23:59","feeInfo":"무료","phone":"042-120","updatedAt":"2022-12-15","sido":"대전광역시","sigungu":"유성구","dong":"장대동"},{"name":"주막공원~숯골길","type":"공영","category":"노상","address":"대전광역시 유성구 신성동 466","lat":36.39070075,"lng":127.3480303,"totalSpaces":65,"isFree":true,"operatingDays":"평일+토요일+공휴일","weekdayOpen":"00:00","weekdayClose":"23:59","weekendOpen":"00:00","weekendClose":"23:59","holidayOpen":"00:00","holidayClose":"23:59","feeInfo":"무료","phone":"042-120","updatedAt":"2022-12-15","sido":"대전광역시","sigungu":"유성구","dong":"신성동"},{"name":"신성동애경기술원전면","type":"공영","category":"노상","address":"대전광역시 유성구 신성남로 120, (신성동)","lat":36.39195956,"lng":127.3523248,"totalSpaces":64,"isFree":true,"operatingDays":"평일+토요일+공휴일","weekdayOpen":"00:00","weekdayClose":"23:59","weekendOpen":"00:00","weekendClose":"23:59","holidayOpen":"00:00","holidayClose":"23:59","feeInfo":"무료","phone":"042-120","updatedAt":"2022-12-15","sido":"대전광역시","sigungu":"유성구","dong":"신성동"},{"name":"학하지구 공영","type":"공영","category":"노외","address":"대전광역시 유성구 덕명동 588","lat":36.35012088,"lng":127.2982723,"totalSpaces":62,"isFree":true,"operatingDays":"평일+토요일+공휴일","weekdayOpen":"00:00","weekdayClose":"23:59","weekendOpen":"00:00","weekendClose":"23:59","holidayOpen":"00:00","holidayClose":"23:59","feeInfo":"무료","phone":"042-120","updatedAt":"2022-12-15","sido":"대전광역시","sigungu":"유성구","dong":"덕명동"},{"name":"전민동주민센터공영","type":"공영","category":"노외","address":"대전광역시 유성구 전민동 300-4","lat":36.3998249,"lng":127.3996819,"totalSpaces":62,"isFree":true,"operatingDays":"평일+토요일+공휴일","weekdayOpen":"00:00","weekdayClose":"23:59","weekendOpen":"00:00","weekendClose":"23:59","holidayOpen":"00:00","holidayClose":"23:59","feeInfo":"무료","phone":"042-611-2956","updatedAt":"2026-01-13","sido":"대전광역시","sigungu":"유성구","dong":"전민동"},{"name":"학하지구 공영(1)","type":"공영","category":"노외","address":"대전광역시 유성구 덕명동 588","lat":36.35012088,"lng":127.2982723,"totalSpaces":62,"isFree":true,"operatingDays":"평일+토요일+공휴일","weekdayOpen":"00:00","weekdayClose":"23:59","weekendOpen":"00:00","weekendClose":"23:59","holidayOpen":"00:00","holidayClose":"23:59","feeInfo":"무료","phone":"042-611-2956","updatedAt":"2026-01-13","sido":"대전광역시","sigungu":"유성구","dong":"덕명동"},{"name":"월드컵패밀리타운 주변","type":"공영","category":"노상","address":"대전광역시 유성구 유성대로783번길 38, (장대동, 월드컵패밀리타운)","lat":36.364521,"lng":127.3359131,"totalSpaces":61,"isFree":true,"operatingDays":"평일+토요일+공휴일","weekdayOpen":"00:00","weekdayClose":"23:59","weekendOpen":"00:00","weekendClose":"23:59","holidayOpen":"00:00","holidayClose":"23:59","feeInfo":"무료","phone":"042-120","updatedAt":"2022-12-15","sido":"대전광역시","sigungu":"유성구","dong":"장대동"},{"name":"전민동주민센터공영","type":"공영","category":"노외","address":"대전광역시 유성구 전민동 300-4","lat":36.39984221,"lng":127.3996829,"totalSpaces":60,"isFree":true,"operatingDays":"평일+토요일+공휴일","weekdayOpen":"00:00","weekdayClose":"23:59","weekendOpen":"00:00","weekendClose":"23:59","holidayOpen":"00:00","holidayClose":"23:59","feeInfo":"무료","phone":"042-120","updatedAt":"2022-12-15","sido":"대전광역시","sigungu":"유성구","dong":"전민동"},{"name":"대정동 임시공영","type":"공영","category":"노외","address":"대전광역시 유성구 대정동 312-3","lat":36.3140827,"lng":127.320929,"totalSpaces":60,"isFree":true,"operatingDays":"평일+토요일+공휴일","weekdayOpen":"00:00","weekdayClose":"23:59","weekendOpen":"00:00","weekendClose":"23:59","holidayOpen":"00:00","holidayClose":"23:59","feeInfo":"무료","phone":"042-611-2956","updatedAt":"2026-01-13","sido":"대전광역시","sigungu":"유성구","dong":"대정동"},{"name":"계룡스파텔 정문앞","type":"공영","category":"노상","address":"대전광역시 유성구 온천로 81, (봉명동)","lat":36.35513271,"lng":127.3478811,"totalSpaces":58,"isFree":true,"operatingDays":"평일+토요일+공휴일","weekdayOpen":"00:00","weekdayClose":"23:59","weekendOpen":"00:00","weekendClose":"23:59","holidayOpen":"00:00","holidayClose":"23:59","feeInfo":"무료","phone":"042-120","updatedAt":"2022-12-15","sido":"대전광역시","sigungu":"유성구","dong":"봉명동"},{"name":"학사마을 주변","type":"공영","category":"노상","address":"대전광역시 유성구 유성대로822번길 16, (장대동)","lat":36.3646569,"lng":127.3393001,"totalSpaces":55,"isFree":true,"operatingDays":"평일+토요일+공휴일","weekdayOpen":"00:00","weekdayClose":"23:59","weekendOpen":"00:00","weekendClose":"23:59","holidayOpen":"00:00","holidayClose":"23:59","feeInfo":"무료","phone":"042-120","updatedAt":"2022-12-15","sido":"대전광역시","sigungu":"유성구","dong":"장대동"},{"name":"장대동 제2공영","type":"공영","category":"노외","address":"대전광역시 유성구 장대동 199-2","lat":36.35730963,"lng":127.3330109,"totalSpaces":54,"isFree":true,"operatingDays":"평일+토요일+공휴일","weekdayOpen":"00:00","weekdayClose":"23:59","weekendOpen":"00:00","weekendClose":"23:59","holidayOpen":"00:00","holidayClose":"23:59","feeInfo":"무료","phone":"042-611-2956","updatedAt":"2026-01-13","sido":"대전광역시","sigungu":"유성구","dong":"장대동"},{"name":"덕명지구 공영(5)","type":"공영","category":"노외","address":"대전광역시 유성구 덕명동 545","lat":36.3560107,"lng":127.3102809,"totalSpaces":54,"isFree":true,"operatingDays":"평일+토요일+공휴일","weekdayOpen":"00:00","weekdayClose":"23:59","weekendOpen":"00:00","weekendClose":"23:59","holidayOpen":"00:00","holidayClose":"23:59","feeInfo":"무료","phone":"042-611-2956","updatedAt":"2026-01-13","sido":"대전광역시","sigungu":"유성구","dong":"덕명동"},{"name":"덕명지구 공영(5)","type":"공영","category":"노외","address":"대전광역시 유성구 덕명동 545","lat":36.35604197,"lng":127.3102913,"totalSpaces":53,"isFree":true,"operatingDays":"평일+토요일+공휴일","weekdayOpen":"00:00","weekdayClose":"23:59","weekendOpen":"00:00","weekendClose":"23:59","holidayOpen":"00:00","holidayClose":"23:59","feeInfo":"무료","phone":"042-120","updatedAt":"2022-12-15","sido":"대전광역시","sigungu":"유성구","dong":"덕명동"},{"name":"카운티스 앞","type":"공영","category":"노상","address":"대전광역시 유성구 노은동 572","lat":36.3704034,"lng":127.317291,"totalSpaces":53,"isFree":true,"operatingDays":"평일+토요일+공휴일","weekdayOpen":"00:00","weekdayClose":"23:59","weekendOpen":"00:00","weekendClose":"23:59","holidayOpen":"00:00","holidayClose":"23:59","feeInfo":"무료","phone":"042-120","updatedAt":"2022-12-15","sido":"대전광역시","sigungu":"유성구","dong":"노은동"},{"name":"유림공원주차장","type":"공영","category":"노상","address":"대전광역시 유성구 봉명동 496-1","lat":36.36038048,"lng":127.3551748,"totalSpaces":50,"isFree":true,"operatingDays":"평일+토요일+공휴일","weekdayOpen":"00:00","weekdayClose":"23:59","weekendOpen":"00:00","weekendClose":"23:59","holidayOpen":"00:00","holidayClose":"23:59","feeInfo":"무료","phone":"042-120","updatedAt":"2022-12-15","sido":"대전광역시","sigungu":"유성구","dong":"봉명동"},{"name":"관평동2공영","type":"공영","category":"노외","address":"대전광역시 유성구 관평동 734","lat":36.42895681,"lng":127.3925882,"totalSpaces":50,"isFree":true,"operatingDays":"평일+토요일+공휴일","weekdayOpen":"00:00","weekdayClose":"23:59","weekendOpen":"00:00","weekendClose":"23:59","holidayOpen":"00:00","holidayClose":"23:59","feeInfo":"무료","phone":"042-120","updatedAt":"2022-12-15","sido":"대전광역시","sigungu":"유성구","dong":"관평동"},{"name":"봉산동공영","type":"공영","category":"노외","address":"대전광역시 유성구 봉산동 299","lat":36.44088156,"lng":127.385204,"totalSpaces":50,"isFree":true,"operatingDays":"평일+토요일+공휴일","weekdayOpen":"00:00","weekdayClose":"23:59","weekendOpen":"00:00","weekendClose":"23:59","holidayOpen":"00:00","holidayClose":"23:59","feeInfo":"무료","phone":"042-120","updatedAt":"2022-12-15","sido":"대전광역시","sigungu":"유성구","dong":"봉산동"},{"name":"관평동5공영","type":"공영","category":"노외","address":"대전광역시 유성구 관평동 1052","lat":36.4239816,"lng":127.391496,"totalSpaces":50,"isFree":true,"operatingDays":"평일+토요일+공휴일","weekdayOpen":"00:00","weekdayClose":"23:59","weekendOpen":"00:00","weekendClose":"23:59","holidayOpen":"00:00","holidayClose":"23:59","feeInfo":"무료","phone":"042-611-2956","updatedAt":"2026-01-13","sido":"대전광역시","sigungu":"유성구","dong":"관평동"},{"name":"신성동 첨단주유소~신성삼거리","type":"공영","category":"노상","address":"대전광역시 유성구 가정로 43, (신성동, 한울아파트)","lat":36.3872837,"lng":127.3468011,"totalSpaces":49,"isFree":true,"operatingDays":"평일+토요일+공휴일","weekdayOpen":"00:00","weekdayClose":"23:59","weekendOpen":"00:00","weekendClose":"23:59","holidayOpen":"00:00","holidayClose":"23:59","feeInfo":"무료","phone":"042-120","updatedAt":"2022-12-15","sido":"대전광역시","sigungu":"유성구","dong":"신성동"},{"name":"쌤소나이트 주변","type":"공영","category":"노상","address":"대전광역시 유성구 장대동 306-7","lat":36.36500152,"lng":127.3378369,"totalSpaces":49,"isFree":true,"operatingDays":"평일+토요일+공휴일","weekdayOpen":"00:00","weekdayClose":"23:59","weekendOpen":"00:00","weekendClose":"23:59","holidayOpen":"00:00","holidayClose":"23:59","feeInfo":"무료","phone":"042-611-2956","updatedAt":"2026-01-13","sido":"대전광역시","sigungu":"유성구","dong":"장대동"},{"name":"유림공원주차장","type":"공영","category":"노상","address":"대전광역시 유성구 봉명동 496-1","lat":36.36038081,"lng":127.3551748,"totalSpaces":49,"isFree":true,"operatingDays":"평일+토요일+공휴일","weekdayOpen":"00:00","weekdayClose":"23:59","weekendOpen":"00:00","weekendClose":"23:59","holidayOpen":"00:00","holidayClose":"23:59","feeInfo":"무료","phone":"042-611-2956","updatedAt":"2026-01-13","sido":"대전광역시","sigungu":"유성구","dong":"봉명동"},{"name":"봉산동공영","type":"공영","category":"노외","address":"대전광역시 유성구 봉산동 299","lat":36.4408925,"lng":127.3852,"totalSpaces":49,"isFree":true,"operatingDays":"평일+토요일+공휴일","weekdayOpen":"00:00","weekdayClose":"23:59","weekendOpen":"00:00","weekendClose":"23:59","holidayOpen":"00:00","holidayClose":"23:59","feeInfo":"무료","phone":"042-611-2956","updatedAt":"2026-01-13","sido":"대전광역시","sigungu":"유성구","dong":"봉산동"},{"name":"관평동1공영","type":"공영","category":"노외","address":"대전광역시 유성구 관평동 1175","lat":36.42320569,"lng":127.3936928,"totalSpaces":48,"isFree":true,"operatingDays":"평일+토요일+공휴일","weekdayOpen":"00:00","weekdayClose":"23:59","weekendOpen":"00:00","weekendClose":"23:59","holidayOpen":"00:00","holidayClose":"23:59","feeInfo":"무료","phone":"042-120","updatedAt":"2022-12-15","sido":"대전광역시","sigungu":"유성구","dong":"관평동"},{"name":"학하지구 공영(7)","type":"공영","category":"노외","address":"대전광역시 유성구 학하동 747-1","lat":36.33899487,"lng":127.3105585,"totalSpaces":46,"isFree":true,"operatingDays":"평일+토요일+공휴일","weekdayOpen":"00:00","weekdayClose":"23:59","weekendOpen":"00:00","weekendClose":"23:59","holidayOpen":"00:00","holidayClose":"23:59","feeInfo":"무료","phone":"042-120","updatedAt":"2022-12-15","sido":"대전광역시","sigungu":"유성구","dong":"학하동"},{"name":"학하지구 공영(2)","type":"공영","category":"노외","address":"대전광역시 유성구 복용동 604-1","lat":36.3422138,"lng":127.3147208,"totalSpaces":46,"isFree":true,"operatingDays":"평일+토요일+공휴일","weekdayOpen":"00:00","weekdayClose":"23:59","weekendOpen":"00:00","weekendClose":"23:59","holidayOpen":"00:00","holidayClose":"23:59","feeInfo":"무료","phone":"042-120","updatedAt":"2022-12-15","sido":"대전광역시","sigungu":"유성구","dong":"복용동"},{"name":"반석동공영주변","type":"공영","category":"노상","address":"대전광역시 유성구 반석동 641","lat":36.39130229,"lng":127.3144842,"totalSpaces":46,"isFree":true,"operatingDays":"평일+토요일+공휴일","weekdayOpen":"00:00","weekdayClose":"23:59","weekendOpen":"00:00","weekendClose":"23:59","holidayOpen":"00:00","holidayClose":"23:59","feeInfo":"무료","phone":"042-120","updatedAt":"2022-12-15","sido":"대전광역시","sigungu":"유성구","dong":"반석동"},{"name":"반석동공영주변","type":"공영","category":"노상","address":"대전광역시 유성구 반석동 641","lat":36.3913002,"lng":127.3144727,"totalSpaces":46,"isFree":true,"operatingDays":"평일+토요일+공휴일","weekdayOpen":"00:00","weekdayClose":"23:59","weekendOpen":"00:00","weekendClose":"23:59","holidayOpen":"00:00","holidayClose":"23:59","feeInfo":"무료","phone":"042-611-2956","updatedAt":"2026-01-13","sido":"대전광역시","sigungu":"유성구","dong":"반석동"},{"name":"학하지구 공영(7)","type":"공영","category":"노외","address":"대전광역시 유성구 학하동 747-1","lat":36.33899487,"lng":127.3105423,"totalSpaces":46,"isFree":true,"operatingDays":"평일+토요일+공휴일","weekdayOpen":"00:00","weekdayClose":"23:59","weekendOpen":"00:00","weekendClose":"23:59","holidayOpen":"00:00","holidayClose":"23:59","feeInfo":"무료","phone":"042-611-2956","updatedAt":"2026-01-13","sido":"대전광역시","sigungu":"유성구","dong":"학하동"},{"name":"학하지구 공영(2)","type":"공영","category":"노외","address":"대전광역시 유성구 복용동 604-1","lat":36.3422201,"lng":127.3147026,"totalSpaces":46,"isFree":true,"operatingDays":"평일+토요일+공휴일","weekdayOpen":"00:00","weekdayClose":"23:59","weekendOpen":"00:00","weekendClose":"23:59","holidayOpen":"00:00","holidayClose":"23:59","feeInfo":"무료","phone":"042-611-2956","updatedAt":"2026-01-13","sido":"대전광역시","sigungu":"유성구","dong":"복용동"},{"name":"학하지구 공영(8)","type":"공영","category":"노외","address":"대전광역시 유성구 학하동 778-2","lat":36.33723947,"lng":127.3121272,"totalSpaces":45,"isFree":true,"operatingDays":"평일+토요일+공휴일","weekdayOpen":"00:00","weekdayClose":"23:59","weekendOpen":"00:00","weekendClose":"23:59","holidayOpen":"00:00","holidayClose":"23:59","feeInfo":"무료","phone":"042-120","updatedAt":"2022-12-15","sido":"대전광역시","sigungu":"유성구","dong":"학하동"},{"name":"학하지구 공영(8)","type":"공영","category":"노외","address":"대전광역시 유성구 학하동 778-2","lat":36.3372305,"lng":127.3121397,"totalSpaces":45,"isFree":true,"operatingDays":"평일+토요일+공휴일","weekdayOpen":"00:00","weekdayClose":"23:59","weekendOpen":"00:00","weekendClose":"23:59","holidayOpen":"00:00","holidayClose":"23:59","feeInfo":"무료","phone":"042-611-2956","updatedAt":"2026-01-13","sido":"대전광역시","sigungu":"유성구","dong":"학하동"},{"name":"장대동공영주차장주변","type":"공영","category":"노상","address":"대전광역시 유성구 유성대로729번길 40, (장대동)","lat":36.36000119,"lng":127.331851,"totalSpaces":44,"isFree":true,"operatingDays":"평일+토요일+공휴일","weekdayOpen":"00:00","weekdayClose":"23:59","weekendOpen":"00:00","weekendClose":"23:59","holidayOpen":"00:00","holidayClose":"23:59","feeInfo":"무료","phone":"042-120","updatedAt":"2022-12-15","sido":"대전광역시","sigungu":"유성구","dong":"장대동"},{"name":"관평동5공영","type":"공영","category":"노외","address":"대전광역시 유성구 관평동 1052","lat":36.42395378,"lng":127.391496,"totalSpaces":44,"isFree":true,"operatingDays":"평일+토요일+공휴일","weekdayOpen":"00:00","weekdayClose":"23:59","weekendOpen":"00:00","weekendClose":"23:59","holidayOpen":"00:00","holidayClose":"23:59","feeInfo":"무료","phone":"042-120","updatedAt":"2022-12-15","sido":"대전광역시","sigungu":"유성구","dong":"관평동"},{"name":"장대동공영주차장주변","type":"공영","category":"노상","address":"대전광역시 유성구 장대동 263-4","lat":36.36000008,"lng":127.331852,"totalSpaces":44,"isFree":true,"operatingDays":"평일+토요일+공휴일","weekdayOpen":"00:00","weekdayClose":"23:59","weekendOpen":"00:00","weekendClose":"23:59","holidayOpen":"00:00","holidayClose":"23:59","feeInfo":"무료","phone":"042-611-2956","updatedAt":"2026-01-13","sido":"대전광역시","sigungu":"유성구","dong":"장대동"},{"name":"대순진리회 앞","type":"공영","category":"노상","address":"대전광역시 유성구 노은동 515-1","lat":36.3675286,"lng":127.3132218,"totalSpaces":44,"isFree":true,"operatingDays":"평일+토요일+공휴일","weekdayOpen":"00:00","weekdayClose":"23:59","weekendOpen":"00:00","weekendClose":"23:59","holidayOpen":"00:00","holidayClose":"23:59","feeInfo":"무료","phone":"042-611-2956","updatedAt":"2026-01-13","sido":"대전광역시","sigungu":"유성구","dong":"노은동"},{"name":"유성경찰서~죽동 622","type":"공영","category":"노상","address":"대전광역시 유성구 북유성대로 112, (죽동)","lat":36.37878283,"lng":127.325416,"totalSpaces":43,"isFree":true,"operatingDays":"평일+토요일+공휴일","weekdayOpen":"00:00","weekdayClose":"23:59","weekendOpen":"00:00","weekendClose":"23:59","holidayOpen":"00:00","holidayClose":"23:59","feeInfo":"무료","phone":"042-120","updatedAt":"2022-12-15","sido":"대전광역시","sigungu":"유성구","dong":"죽동"},{"name":"노은1동주민센터 주변","type":"공영","category":"노상","address":"대전광역시 유성구 노은동 546","lat":36.3682653,"lng":127.3184197,"totalSpaces":43,"isFree":true,"operatingDays":"평일+토요일+공휴일","weekdayOpen":"00:00","weekdayClose":"23:59","weekendOpen":"00:00","weekendClose":"23:59","holidayOpen":"00:00","holidayClose":"23:59","feeInfo":"무료","phone":"042-611-2956","updatedAt":"2026-01-13","sido":"대전광역시","sigungu":"유성구","dong":"노은동"},{"name":"관평동2공영","type":"공영","category":"노외","address":"대전광역시 유성구 관평동 734","lat":36.428953,"lng":127.3925878,"totalSpaces":43,"isFree":true,"operatingDays":"평일+토요일+공휴일","weekdayOpen":"00:00","weekdayClose":"23:59","weekendOpen":"00:00","weekendClose":"23:59","holidayOpen":"00:00","holidayClose":"23:59","feeInfo":"무료","phone":"042-611-2956","updatedAt":"2026-01-13","sido":"대전광역시","sigungu":"유성구","dong":"관평동"},{"name":"신성동 제1공영","type":"공영","category":"노외","address":"대전광역시 유성구 신성동 137-2","lat":36.39026092,"lng":127.3496679,"totalSpaces":42,"isFree":true,"operatingDays":"평일+토요일+공휴일","weekdayOpen":"00:00","weekdayClose":"23:59","weekendOpen":"00:00","weekendClose":"23:59","holidayOpen":"00:00","holidayClose":"23:59","feeInfo":"무료","phone":"042-120","updatedAt":"2022-12-15","sido":"대전광역시","sigungu":"유성구","dong":"신성동"},{"name":"신성동 주민센터앞 임시공영","type":"공영","category":"노외","address":"대전광역시 유성구 하기동 4-1","lat":36.3883816,"lng":127.3468934,"totalSpaces":42,"isFree":true,"operatingDays":"평일+토요일+공휴일","weekdayOpen":"00:00","weekdayClose":"23:59","weekendOpen":"00:00","weekendClose":"23:59","holidayOpen":"00:00","holidayClose":"23:59","feeInfo":"무료","phone":"042-611-2956","updatedAt":"2026-01-13","sido":"대전광역시","sigungu":"유성구","dong":"하기동"},{"name":"관평동1공영","type":"공영","category":"노외","address":"대전광역시 유성구 관평동 1175","lat":36.42320569,"lng":127.393681,"totalSpaces":42,"isFree":true,"operatingDays":"평일+토요일+공휴일","weekdayOpen":"00:00","weekdayClose":"23:59","weekendOpen":"00:00","weekendClose":"23:59","holidayOpen":"00:00","holidayClose":"23:59","feeInfo":"무료","phone":"042-611-2956","updatedAt":"2026-01-13","sido":"대전광역시","sigungu":"유성구","dong":"관평동"},{"name":"신성동 제1공영","type":"공영","category":"노외","address":"대전광역시 유성구 신성동 137-2","lat":36.3902351,"lng":127.3496393,"totalSpaces":42,"isFree":true,"operatingDays":"평일+토요일+공휴일","weekdayOpen":"00:00","weekdayClose":"23:59","weekendOpen":"00:00","weekendClose":"23:59","holidayOpen":"00:00","holidayClose":"23:59","feeInfo":"무료","phone":"042-611-2956","updatedAt":"2026-01-13","sido":"대전광역시","sigungu":"유성구","dong":"신성동"},{"name":"구즉청소년문화의집 공영","type":"공영","category":"노외","address":"대전광역시 유성구 봉산동 801-6","lat":36.4416645,"lng":127.3846027,"totalSpaces":42,"isFree":true,"operatingDays":"평일+토요일+공휴일","weekdayOpen":"00:00","weekdayClose":"23:59","weekendOpen":"00:00","weekendClose":"23:59","holidayOpen":"00:00","holidayClose":"23:59","feeInfo":"무료","phone":"042-611-2956","updatedAt":"2026-01-13","sido":"대전광역시","sigungu":"유성구","dong":"봉산동"},{"name":"궁동하교 주변","type":"공영","category":"노상","address":"대전광역시 유성구 궁동 464","lat":36.35973518,"lng":127.3400299,"totalSpaces":41,"isFree":true,"operatingDays":"평일+토요일+공휴일","weekdayOpen":"00:00","weekdayClose":"23:59","weekendOpen":"00:00","weekendClose":"23:59","holidayOpen":"00:00","holidayClose":"23:59","feeInfo":"무료","phone":"042-611-2956","updatedAt":"2026-01-13","sido":"대전광역시","sigungu":"유성구","dong":"궁동"},{"name":"궁동 457-1일원","type":"공영","category":"노상","address":"대전광역시 유성구 궁동 457-1","lat":36.3622237,"lng":127.3412478,"totalSpaces":41,"isFree":true,"operatingDays":"평일+토요일+공휴일","weekdayOpen":"00:00","weekdayClose":"23:59","weekendOpen":"00:00","weekendClose":"23:59","holidayOpen":"00:00","holidayClose":"23:59","feeInfo":"무료","phone":"042-611-2956","updatedAt":"2026-01-13","sido":"대전광역시","sigungu":"유성구","dong":"궁동"},{"name":"학하지구 공영(4)","type":"공영","category":"노외","address":"대전광역시 유성구 학하동 721-1","lat":36.34043256,"lng":127.3062871,"totalSpaces":40,"isFree":true,"operatingDays":"평일+토요일+공휴일","weekdayOpen":"00:00","weekdayClose":"23:59","weekendOpen":"00:00","weekendClose":"23:59","holidayOpen":"00:00","holidayClose":"23:59","feeInfo":"무료","phone":"042-120","updatedAt":"2022-12-15","sido":"대전광역시","sigungu":"유성구","dong":"학하동"},{"name":"관평동4공영","type":"공영","category":"노외","address":"대전광역시 유성구 관평동 932","lat":36.42507815,"lng":127.3900603,"totalSpaces":40,"isFree":true,"operatingDays":"평일+토요일+공휴일","weekdayOpen":"00:00","weekdayClose":"23:59","weekendOpen":"00:00","weekendClose":"23:59","holidayOpen":"00:00","holidayClose":"23:59","feeInfo":"무료","phone":"042-120","updatedAt":"2022-12-15","sido":"대전광역시","sigungu":"유성구","dong":"관평동"},{"name":"카운티스 앞","type":"공영","category":"노상","address":"대전광역시 유성구 노은동 572","lat":36.37047418,"lng":127.317291,"totalSpaces":40,"isFree":true,"operatingDays":"평일+토요일+공휴일","weekdayOpen":"00:00","weekdayClose":"23:59","weekendOpen":"00:00","weekendClose":"23:59","holidayOpen":"00:00","holidayClose":"23:59","feeInfo":"무료","phone":"042-611-2956","updatedAt":"2026-01-13","sido":"대전광역시","sigungu":"유성구","dong":"노은동"},{"name":"학하지구 공영(4)","type":"공영","category":"노외","address":"대전광역시 유성구 학하동 721-1","lat":36.34043256,"lng":127.3062635,"totalSpaces":40,"isFree":true,"operatingDays":"평일+토요일+공휴일","weekdayOpen":"00:00","weekdayClose":"23:59","weekendOpen":"00:00","weekendClose":"23:59","holidayOpen":"00:00","holidayClose":"23:59","feeInfo":"무료","phone":"042-611-2956","updatedAt":"2026-01-13","sido":"대전광역시","sigungu":"유성구","dong":"학하동"},{"name":"학하지구 공영(11)","type":"공영","category":"노외","address":"대전광역시 유성구 학하동 721-12","lat":36.33958785,"lng":127.3080724,"totalSpaces":39,"isFree":true,"operatingDays":"평일+토요일+공휴일","weekdayOpen":"00:00","weekdayClose":"23:59","weekendOpen":"00:00","weekendClose":"23:59","holidayOpen":"00:00","holidayClose":"23:59","feeInfo":"무료","phone":"042-120","updatedAt":"2022-12-15","sido":"대전광역시","sigungu":"유성구","dong":"학하동"},{"name":"죽동장애인복지관~북대전세무서","type":"공영","category":"노상","address":"대전광역시 유성구 북유성대로 166, (죽동)","lat":36.38140838,"lng":127.3233637,"totalSpaces":39,"isFree":true,"operatingDays":"평일+토요일+공휴일","weekdayOpen":"00:00","weekdayClose":"23:59","weekendOpen":"00:00","weekendClose":"23:59","holidayOpen":"00:00","holidayClose":"23:59","feeInfo":"무료","phone":"042-120","updatedAt":"2022-12-15","sido":"대전광역시","sigungu":"유성구","dong":"죽동"},{"name":"죽동장애인복지관~북대전세무서","type":"공영","category":"노상","address":"대전광역시 유성구 죽동 630","lat":36.38242152,"lng":127.3233578,"totalSpaces":39,"isFree":true,"operatingDays":"평일+토요일+공휴일","weekdayOpen":"00:00","weekdayClose":"23:59","weekendOpen":"00:00","weekendClose":"23:59","holidayOpen":"00:00","holidayClose":"23:59","feeInfo":"무료","phone":"042-611-2956","updatedAt":"2026-01-13","sido":"대전광역시","sigungu":"유성구","dong":"죽동"},{"name":"유성온천관리소 앞","type":"공영","category":"노상","address":"대전광역시 유성구 봉명동 537-12","lat":36.3569229,"lng":127.3441822,"totalSpaces":39,"isFree":true,"operatingDays":"평일+토요일+공휴일","weekdayOpen":"00:00","weekdayClose":"23:59","weekendOpen":"00:00","weekendClose":"23:59","holidayOpen":"00:00","holidayClose":"23:59","feeInfo":"무료","phone":"042-611-2956","updatedAt":"2026-01-13","sido":"대전광역시","sigungu":"유성구","dong":"봉명동"},{"name":"학하지구 공영(11)","type":"공영","category":"노외","address":"대전광역시 유성구 학하동 721-12","lat":36.33958785,"lng":127.3080973,"totalSpaces":39,"isFree":true,"operatingDays":"평일+토요일+공휴일","weekdayOpen":"00:00","weekdayClose":"23:59","weekendOpen":"00:00","weekendClose":"23:59","holidayOpen":"00:00","holidayClose":"23:59","feeInfo":"무료","phone":"042-611-2956","updatedAt":"2026-01-13","sido":"대전광역시","sigungu":"유성구","dong":"학하동"},{"name":"노브랜드 앞","type":"공영","category":"노상","address":"대전광역시 유성구 노은동 534-1","lat":36.3675066,"lng":127.320621,"totalSpaces":38,"isFree":true,"operatingDays":"평일+토요일+공휴일","weekdayOpen":"00:00","weekdayClose":"23:59","weekendOpen":"00:00","weekendClose":"23:59","holidayOpen":"00:00","holidayClose":"23:59","feeInfo":"무료","phone":"042-611-2956","updatedAt":"2026-01-13","sido":"대전광역시","sigungu":"유성구","dong":"노은동"},{"name":"권인순 김치찌개 앞","type":"공영","category":"노상","address":"대전광역시 유성구 노은동 517-3","lat":36.3674782,"lng":127.3172113,"totalSpaces":38,"isFree":true,"operatingDays":"평일+토요일+공휴일","weekdayOpen":"00:00","weekdayClose":"23:59","weekendOpen":"00:00","weekendClose":"23:59","holidayOpen":"00:00","holidayClose":"23:59","feeInfo":"무료","phone":"042-611-2956","updatedAt":"2026-01-13","sido":"대전광역시","sigungu":"유성구","dong":"노은동"},{"name":"수통골 임시공영","type":"공영","category":"노외","address":"대전광역시 유성구 계산동712-6","lat":36.3436395,"lng":127.2983809,"totalSpaces":38,"isFree":true,"operatingDays":"평일+토요일+공휴일","weekdayOpen":"00:00","weekdayClose":"23:59","weekendOpen":"00:00","weekendClose":"23:59","holidayOpen":"00:00","holidayClose":"23:59","feeInfo":"무료","phone":"042-611-2956","updatedAt":"2026-01-13","sido":"대전광역시","sigungu":"유성구","dong":""},{"name":"신성동애경기술원 앞","type":"공영","category":"노상","address":"대전광역시 유성구 신성동 217-2","lat":36.39195956,"lng":127.3523248,"totalSpaces":37,"isFree":true,"operatingDays":"평일+토요일+공휴일","weekdayOpen":"00:00","weekdayClose":"23:59","weekendOpen":"00:00","weekendClose":"23:59","holidayOpen":"00:00","holidayClose":"23:59","feeInfo":"무료","phone":"042-611-2956","updatedAt":"2026-01-13","sido":"대전광역시","sigungu":"유성구","dong":"신성동"},{"name":"성원상떼빌 주변","type":"공영","category":"노상","address":"대전광역시 유성구 온천서로 36-19, (장대동, 성원상떼빌)","lat":36.35834383,"lng":127.3401439,"totalSpaces":36,"isFree":true,"operatingDays":"평일+토요일+공휴일","weekdayOpen":"00:00","weekdayClose":"23:59","weekendOpen":"00:00","weekendClose":"23:59","holidayOpen":"00:00","holidayClose":"23:59","feeInfo":"무료","phone":"042-120","updatedAt":"2022-12-15","sido":"대전광역시","sigungu":"유성구","dong":"장대동"},{"name":"장현근린공원 주변","type":"공영","category":"노상","address":"대전광역시 유성구 궁동 477","lat":36.36132686,"lng":127.3430567,"totalSpaces":36,"isFree":true,"operatingDays":"평일+토요일+공휴일","weekdayOpen":"00:00","weekdayClose":"23:59","weekendOpen":"00:00","weekendClose":"23:59","holidayOpen":"00:00","holidayClose":"23:59","feeInfo":"무료","phone":"042-611-2956","updatedAt":"2026-01-13","sido":"대전광역시","sigungu":"유성구","dong":"궁동"},{"name":"더그린아파트 앞","type":"공영","category":"노상","address":"대전광역시 유성구 봉명동 666-1","lat":36.35849989,"lng":127.3513964,"totalSpaces":36,"isFree":true,"operatingDays":"평일+토요일+공휴일","weekdayOpen":"00:00","weekdayClose":"23:59","weekendOpen":"00:00","weekendClose":"23:59","holidayOpen":"00:00","holidayClose":"23:59","feeInfo":"무료","phone":"042-611-2956","updatedAt":"2026-01-13","sido":"대전광역시","sigungu":"유성구","dong":"봉명동"},{"name":"유성지구대 앞","type":"공영","category":"노상","address":"대전광역시 유성구 봉명동 676-1","lat":36.3581027,"lng":127.3507089,"totalSpaces":36,"isFree":true,"operatingDays":"평일+토요일+공휴일","weekdayOpen":"00:00","weekdayClose":"23:59","weekendOpen":"00:00","weekendClose":"23:59","holidayOpen":"00:00","holidayClose":"23:59","feeInfo":"무료","phone":"042-611-2956","updatedAt":"2026-01-13","sido":"대전광역시","sigungu":"유성구","dong":"봉명동"},{"name":"반석마을 2단지 207동 옆라인","type":"공영","category":"노상","address":"대전광역시 유성구 지족동 1001","lat":36.38752952,"lng":127.3165942,"totalSpaces":35,"isFree":true,"operatingDays":"평일+토요일+공휴일","weekdayOpen":"00:00","weekdayClose":"23:59","weekendOpen":"00:00","weekendClose":"23:59","holidayOpen":"00:00","holidayClose":"23:59","feeInfo":"무료","phone":"042-120","updatedAt":"2022-12-15","sido":"대전광역시","sigungu":"유성구","dong":"지족동"},{"name":"월드컵패밀리타운 주변","type":"공영","category":"노상","address":"대전광역시 유성구 장대동 323-2","lat":36.36452526,"lng":127.335908,"totalSpaces":35,"isFree":true,"operatingDays":"평일+토요일+공휴일","weekdayOpen":"00:00","weekdayClose":"23:59","weekendOpen":"00:00","weekendClose":"23:59","holidayOpen":"00:00","holidayClose":"23:59","feeInfo":"무료","phone":"042-611-2956","updatedAt":"2026-01-13","sido":"대전광역시","sigungu":"유성구","dong":"장대동"},{"name":"반석마을 2단지 207동 옆라인","type":"공영","category":"노상","address":"대전광역시 유성구 지족동 1001","lat":36.38752952,"lng":127.3165942,"totalSpaces":35,"isFree":true,"operatingDays":"평일+토요일+공휴일","weekdayOpen":"00:00","weekdayClose":"23:59","weekendOpen":"00:00","weekendClose":"23:59","holidayOpen":"00:00","holidayClose":"23:59","feeInfo":"무료","phone":"042-611-2956","updatedAt":"2026-01-13","sido":"대전광역시","sigungu":"유성구","dong":"지족동"},{"name":"대우이수드림월드아파트 옆","type":"공영","category":"노상","address":"대전광역시 유성구 장대동 343","lat":36.36283808,"lng":127.3377415,"totalSpaces":34,"isFree":true,"operatingDays":"평일+토요일+공휴일","weekdayOpen":"00:00","weekdayClose":"23:59","weekendOpen":"00:00","weekendClose":"23:59","holidayOpen":"00:00","holidayClose":"23:59","feeInfo":"무료","phone":"042-120","updatedAt":"2022-12-15","sido":"대전광역시","sigungu":"유성구","dong":"장대동"},{"name":"학하지구 공영(3)","type":"공영","category":"노외","address":"대전광역시 유성구 학하동 714-9","lat":36.34183023,"lng":127.3071825,"totalSpaces":34,"isFree":true,"operatingDays":"평일+토요일+공휴일","weekdayOpen":"00:00","weekdayClose":"23:59","weekendOpen":"00:00","weekendClose":"23:59","holidayOpen":"00:00","holidayClose":"23:59","feeInfo":"무료","phone":"042-120","updatedAt":"2022-12-15","sido":"대전광역시","sigungu":"유성구","dong":"학하동"},{"name":"학하지구 공영(6)","type":"공영","category":"노외","address":"대전광역시 유성구 계산동 758-7","lat":36.33739008,"lng":127.2998974,"totalSpaces":34,"isFree":true,"operatingDays":"평일+토요일+공휴일","weekdayOpen":"00:00","weekdayClose":"23:59","weekendOpen":"00:00","weekendClose":"23:59","holidayOpen":"00:00","holidayClose":"23:59","feeInfo":"무료","phone":"042-120","updatedAt":"2022-12-15","sido":"대전광역시","sigungu":"유성구","dong":"계산동"},{"name":"학하지구 공영(10)","type":"공영","category":"노외","address":"대전광역시 유성구 학하동 716-6","lat":36.34109074,"lng":127.3090391,"totalSpaces":34,"isFree":true,"operatingDays":"평일+토요일+공휴일","weekdayOpen":"00:00","weekdayClose":"23:59","weekendOpen":"00:00","weekendClose":"23:59","holidayOpen":"00:00","holidayClose":"23:59","feeInfo":"무료","phone":"042-120","updatedAt":"2022-12-15","sido":"대전광역시","sigungu":"유성구","dong":"학하동"},{"name":"주막어린이공원 주변","type":"공영","category":"노상","address":"대전광역시 유성구 신성동 141-4","lat":36.3897754,"lng":127.3479711,"totalSpaces":34,"isFree":true,"operatingDays":"평일+토요일+공휴일","weekdayOpen":"00:00","weekdayClose":"23:59","weekendOpen":"00:00","weekendClose":"23:59","holidayOpen":"00:00","holidayClose":"23:59","feeInfo":"무료","phone":"042-611-2956","updatedAt":"2026-01-13","sido":"대전광역시","sigungu":"유성구","dong":"신성동"},{"name":"대우이수드림월드아파트 옆","type":"공영","category":"노상","address":"대전광역시 유성구 장대동 343","lat":36.36283808,"lng":127.3377654,"totalSpaces":34,"isFree":true,"operatingDays":"평일+토요일+공휴일","weekdayOpen":"00:00","weekdayClose":"23:59","weekendOpen":"00:00","weekendClose":"23:59","holidayOpen":"00:00","holidayClose":"23:59","feeInfo":"무료","phone":"042-611-2956","updatedAt":"2026-01-13","sido":"대전광역시","sigungu":"유성구","dong":"장대동"},{"name":"학하지구 공영(6)","type":"공영","category":"노외","address":"대전광역시 유성구 계산동 758-7","lat":36.3373578,"lng":127.2998974,"totalSpaces":34,"isFree":true,"operatingDays":"평일+토요일+공휴일","weekdayOpen":"00:00","weekdayClose":"23:59","weekendOpen":"00:00","weekendClose":"23:59","holidayOpen":"00:00","holidayClose":"23:59","feeInfo":"무료","phone":"042-611-2956","updatedAt":"2026-01-13","sido":"대전광역시","sigungu":"유성구","dong":"계산동"},{"name":"학하지구 공영(10)","type":"공영","category":"노외","address":"대전광역시 유성구 학하동 716-6","lat":36.341097,"lng":127.3090423,"totalSpaces":34,"isFree":true,"operatingDays":"평일+토요일+공휴일","weekdayOpen":"00:00","weekdayClose":"23:59","weekendOpen":"00:00","weekendClose":"23:59","holidayOpen":"00:00","holidayClose":"23:59","feeInfo":"무료","phone":"042-611-2956","updatedAt":"2026-01-13","sido":"대전광역시","sigungu":"유성구","dong":"학하동"},{"name":"관평동4공영","type":"공영","category":"노외","address":"대전광역시 유성구 관평동 932","lat":36.4250738,"lng":127.3900643,"totalSpaces":34,"isFree":true,"operatingDays":"평일+토요일+공휴일","weekdayOpen":"00:00","weekdayClose":"23:59","weekendOpen":"00:00","weekendClose":"23:59","holidayOpen":"00:00","holidayClose":"23:59","feeInfo":"무료","phone":"042-611-2956","updatedAt":"2026-01-13","sido":"대전광역시","sigungu":"유성구","dong":"관평동"},{"name":"학하지구 공영(3)","type":"공영","category":"노외","address":"대전광역시 유성구 학하동 714-9","lat":36.3418614,"lng":127.3071825,"totalSpaces":34,"isFree":true,"operatingDays":"평일+토요일+공휴일","weekdayOpen":"00:00","weekdayClose":"23:59","weekendOpen":"00:00","weekendClose":"23:59","holidayOpen":"00:00","holidayClose":"23:59","feeInfo":"무료","phone":"042-611-2956","updatedAt":"2026-01-13","sido":"대전광역시","sigungu":"유성구","dong":"학하동"},{"name":"장대동 364일원","type":"공영","category":"노상","address":"대전광역시 유성구 장대동 364","lat":36.35934914,"lng":127.3394779,"totalSpaces":33,"isFree":true,"operatingDays":"평일+토요일+공휴일","weekdayOpen":"00:00","weekdayClose":"23:59","weekendOpen":"00:00","weekendClose":"23:59","holidayOpen":"00:00","holidayClose":"23:59","feeInfo":"무료","phone":"042-611-2956","updatedAt":"2026-01-13","sido":"대전광역시","sigungu":"유성구","dong":"장대동"},{"name":"장대동 364일원","type":"공영","category":"노상","address":"대전광역시 유성구 장대동 364","lat":36.35935053,"lng":127.3394779,"totalSpaces":33,"isFree":true,"operatingDays":"평일+토요일+공휴일","weekdayOpen":"00:00","weekdayClose":"23:59","weekendOpen":"00:00","weekendClose":"23:59","holidayOpen":"00:00","holidayClose":"23:59","feeInfo":"무료","phone":"042-120","updatedAt":"2022-12-15","sido":"대전광역시","sigungu":"유성구","dong":"장대동"},{"name":"요한이네할인매장 맞은편~유진아이티 맞은편","type":"공영","category":"노상","address":"대전광역시 유성구 노은서로 6, (노은동)","lat":36.36349014,"lng":127.3171231,"totalSpaces":33,"isFree":true,"operatingDays":"평일+토요일+공휴일","weekdayOpen":"00:00","weekdayClose":"23:59","weekendOpen":"00:00","weekendClose":"23:59","holidayOpen":"00:00","holidayClose":"23:59","feeInfo":"무료","phone":"042-120","updatedAt":"2022-12-15","sido":"대전광역시","sigungu":"유성구","dong":"노은동"},{"name":"길산골프연습장 앞","type":"공영","category":"노상","address":"대전광역시 유성구 원내동 761","lat":36.30237065,"lng":127.3306057,"totalSpaces":33,"isFree":true,"operatingDays":"평일+토요일+공휴일","weekdayOpen":"00:00","weekdayClose":"23:59","weekendOpen":"00:00","weekendClose":"23:59","holidayOpen":"00:00","holidayClose":"23:59","feeInfo":"무료","phone":"042-120","updatedAt":"2022-12-15","sido":"대전광역시","sigungu":"유성구","dong":"원내동"},{"name":"길산골프연습장앞","type":"공영","category":"노상","address":"대전광역시 유성구 원내동 761","lat":36.30237065,"lng":127.3306057,"totalSpaces":33,"isFree":true,"operatingDays":"평일+토요일+공휴일","weekdayOpen":"00:00","weekdayClose":"23:59","weekendOpen":"00:00","weekendClose":"23:59","holidayOpen":"00:00","holidayClose":"23:59","feeInfo":"무료","phone":"042-611-2956","updatedAt":"2026-01-13","sido":"대전광역시","sigungu":"유성구","dong":"원내동"},{"name":"유성동물병원 주변","type":"공영","category":"노상","address":"대전광역시 유성구 장대동 317-13","lat":36.36459497,"lng":127.3388907,"totalSpaces":33,"isFree":true,"operatingDays":"평일+토요일+공휴일","weekdayOpen":"00:00","weekdayClose":"23:59","weekendOpen":"00:00","weekendClose":"23:59","holidayOpen":"00:00","holidayClose":"23:59","feeInfo":"무료","phone":"042-611-2956","updatedAt":"2026-01-13","sido":"대전광역시","sigungu":"유성구","dong":"장대동"},{"name":"유성경찰서 인근","type":"공영","category":"노상","address":"대전광역시 유성구 죽동 648","lat":36.37958143,"lng":127.3266296,"totalSpaces":32,"isFree":true,"operatingDays":"평일+토요일+공휴일","weekdayOpen":"00:00","weekdayClose":"23:59","weekendOpen":"00:00","weekendClose":"23:59","holidayOpen":"00:00","holidayClose":"23:59","feeInfo":"무료","phone":"042-120","updatedAt":"2022-12-15","sido":"대전광역시","sigungu":"유성구","dong":"죽동"},{"name":"관평동3공영","type":"공영","category":"노외","address":"대전광역시 유성구 관평동 788","lat":36.42687339,"lng":127.3917728,"totalSpaces":32,"isFree":true,"operatingDays":"평일+토요일+공휴일","weekdayOpen":"00:00","weekdayClose":"23:59","weekendOpen":"00:00","weekendClose":"23:59","holidayOpen":"00:00","holidayClose":"23:59","feeInfo":"무료","phone":"042-120","updatedAt":"2022-12-15","sido":"대전광역시","sigungu":"유성구","dong":"관평동"},{"name":"관평동3공영","type":"공영","category":"노외","address":"대전광역시 유성구 관평동 788","lat":36.426867,"lng":127.3917788,"totalSpaces":31,"isFree":true,"operatingDays":"평일+토요일+공휴일","weekdayOpen":"00:00","weekdayClose":"23:59","weekendOpen":"00:00","weekendClose":"23:59","holidayOpen":"00:00","holidayClose":"23:59","feeInfo":"무료","phone":"042-611-2956","updatedAt":"2026-01-13","sido":"대전광역시","sigungu":"유성구","dong":"관평동"},{"name":"학하지구 공영(5)","type":"공영","category":"노외","address":"대전광역시 유성구 덕명동 595","lat":36.34761016,"lng":127.2970655,"totalSpaces":30,"isFree":true,"operatingDays":"평일+토요일+공휴일","weekdayOpen":"00:00","weekdayClose":"23:59","weekendOpen":"00:00","weekendClose":"23:59","holidayOpen":"00:00","holidayClose":"23:59","feeInfo":"무료","phone":"042-120","updatedAt":"2022-12-15","sido":"대전광역시","sigungu":"유성구","dong":"덕명동"},{"name":"반석동공영","type":"공영","category":"노외","address":"대전광역시 유성구 반석동 641","lat":36.39132854,"lng":127.3144699,"totalSpaces":30,"isFree":true,"operatingDays":"평일+토요일+공휴일","weekdayOpen":"00:00","weekdayClose":"23:59","weekendOpen":"00:00","weekendClose":"23:59","holidayOpen":"00:00","holidayClose":"23:59","feeInfo":"무료","phone":"042-120","updatedAt":"2022-12-15","sido":"대전광역시","sigungu":"유성구","dong":"반석동"},{"name":"계룡스파텔 정문앞","type":"공영","category":"노상","address":"대전광역시 유성구 봉명동 539-1","lat":36.3551305,"lng":127.3478811,"totalSpaces":30,"isFree":true,"operatingDays":"평일+토요일+공휴일","weekdayOpen":"00:00","weekdayClose":"23:59","weekendOpen":"00:00","weekendClose":"23:59","holidayOpen":"00:00","holidayClose":"23:59","feeInfo":"무료","phone":"042-611-2956","updatedAt":"2026-01-13","sido":"대전광역시","sigungu":"유성구","dong":"봉명동"},{"name":"한빛아파트 울타리옆","type":"공영","category":"노상","address":"대전광역시 유성구 어은동 312","lat":36.36263148,"lng":127.3549929,"totalSpaces":30,"isFree":true,"operatingDays":"평일+토요일+공휴일","weekdayOpen":"00:00","weekdayClose":"23:59","weekendOpen":"00:00","weekendClose":"23:59","holidayOpen":"00:00","holidayClose":"23:59","feeInfo":"무료","phone":"042-611-2956","updatedAt":"2026-01-13","sido":"대전광역시","sigungu":"유성구","dong":"어은동"},{"name":"반석동 제1공영","type":"공영","category":"노외","address":"대전광역시 유성구 반석동 641","lat":36.3913002,"lng":127.3144727,"totalSpaces":30,"isFree":true,"operatingDays":"평일+토요일+공휴일","weekdayOpen":"00:00","weekdayClose":"23:59","weekendOpen":"00:00","weekendClose":"23:59","holidayOpen":"00:00","holidayClose":"23:59","feeInfo":"무료","phone":"042-611-2956","updatedAt":"2026-01-13","sido":"대전광역시","sigungu":"유성구","dong":"반석동"},{"name":"학하지구 공영(5)","type":"공영","category":"노외","address":"대전광역시 유성구 덕명동 595","lat":36.3476967,"lng":127.2970655,"totalSpaces":30,"isFree":true,"operatingDays":"평일+토요일+공휴일","weekdayOpen":"00:00","weekdayClose":"23:59","weekendOpen":"00:00","weekendClose":"23:59","holidayOpen":"00:00","holidayClose":"23:59","feeInfo":"무료","phone":"042-611-2956","updatedAt":"2026-01-13","sido":"대전광역시","sigungu":"유성구","dong":"덕명동"},{"name":"덕명지구 공영(1)","type":"공영","category":"노외","address":"대전광역시 유성구 덕명동 513","lat":36.35929674,"lng":127.3014826,"totalSpaces":30,"isFree":true,"operatingDays":"평일+토요일+공휴일","weekdayOpen":"00:00","weekdayClose":"23:59","weekendOpen":"00:00","weekendClose":"23:59","holidayOpen":"00:00","holidayClose":"23:59","feeInfo":"무료","phone":"042-611-2956","updatedAt":"2026-01-13","sido":"대전광역시","sigungu":"유성구","dong":"덕명동"},{"name":"덕명지구 공영(4)","type":"공영","category":"노외","address":"대전광역시 유성구 덕명동 544","lat":36.356777,"lng":127.3103299,"totalSpaces":30,"isFree":true,"operatingDays":"평일+토요일+공휴일","weekdayOpen":"00:00","weekdayClose":"23:59","weekendOpen":"00:00","weekendClose":"23:59","holidayOpen":"00:00","holidayClose":"23:59","feeInfo":"무료","phone":"042-611-2956","updatedAt":"2026-01-13","sido":"대전광역시","sigungu":"유성구","dong":"덕명동"},{"name":"덕명지구 공영(4)","type":"공영","category":"노외","address":"대전광역시 유성구 덕명동 544","lat":36.35677363,"lng":127.3103269,"totalSpaces":29,"isFree":true,"operatingDays":"평일+토요일+공휴일","weekdayOpen":"00:00","weekdayClose":"23:59","weekendOpen":"00:00","weekendClose":"23:59","holidayOpen":"00:00","holidayClose":"23:59","feeInfo":"무료","phone":"042-120","updatedAt":"2022-12-15","sido":"대전광역시","sigungu":"유성구","dong":"덕명동"},{"name":"반석동 임시공영","type":"공영","category":"노외","address":"대전광역시 유성구 반석동 620-1","lat":36.3920003,"lng":127.3108438,"totalSpaces":29,"isFree":true,"operatingDays":"평일+토요일+공휴일","weekdayOpen":"00:00","weekdayClose":"23:59","weekendOpen":"00:00","weekendClose":"23:59","holidayOpen":"00:00","holidayClose":"23:59","feeInfo":"무료","phone":"042-611-2956","updatedAt":"2026-01-13","sido":"대전광역시","sigungu":"유성구","dong":"반석동"},{"name":"온천공원 앞","type":"공영","category":"노상","address":"대전광역시 유성구 봉명동 574","lat":36.3552095,"lng":127.3452875,"totalSpaces":29,"isFree":true,"operatingDays":"평일+토요일+공휴일","weekdayOpen":"00:00","weekdayClose":"23:59","weekendOpen":"00:00","weekendClose":"23:59","holidayOpen":"00:00","holidayClose":"23:59","feeInfo":"무료","phone":"042-611-2956","updatedAt":"2026-01-13","sido":"대전광역시","sigungu":"유성구","dong":"봉명동"},{"name":"한국가스기술공사 일원","type":"공영","category":"노상","address":"대전광역시 유성구 봉산동 1019","lat":36.43621163,"lng":127.3887164,"totalSpaces":29,"isFree":true,"operatingDays":"평일+토요일+공휴일","weekdayOpen":"00:00","weekdayClose":"23:59","weekendOpen":"00:00","weekendClose":"23:59","holidayOpen":"00:00","holidayClose":"23:59","feeInfo":"무료","phone":"042-611-2956","updatedAt":"2026-01-13","sido":"대전광역시","sigungu":"유성구","dong":"봉산동"},{"name":"전민동 제2공영","type":"공영","category":"노외","address":"대전광역시 유성구 전민동 346-3","lat":36.39869299,"lng":127.4011231,"totalSpaces":28,"isFree":true,"operatingDays":"평일+토요일+공휴일","weekdayOpen":"00:00","weekdayClose":"23:59","weekendOpen":"00:00","weekendClose":"23:59","holidayOpen":"00:00","holidayClose":"23:59","feeInfo":"무료","phone":"042-120","updatedAt":"2022-12-15","sido":"대전광역시","sigungu":"유성구","dong":"전민동"},{"name":"봉명동 임시공영","type":"공영","category":"노외","address":"대전광역시 유성구 봉명동 554-15","lat":36.3527368,"lng":127.3402332,"totalSpaces":28,"isFree":true,"operatingDays":"평일+토요일+공휴일","weekdayOpen":"00:00","weekdayClose":"23:59","weekendOpen":"00:00","weekendClose":"23:59","holidayOpen":"00:00","holidayClose":"23:59","feeInfo":"무료","phone":"042-611-2956","updatedAt":"2026-01-13","sido":"대전광역시","sigungu":"유성구","dong":"봉명동"},{"name":"높은뜻감리교회 주변","type":"공영","category":"노상","address":"대전광역시 유성구 자운동 22-53","lat":36.3924062,"lng":127.3494874,"totalSpaces":28,"isFree":true,"operatingDays":"평일+토요일+공휴일","weekdayOpen":"00:00","weekdayClose":"23:59","weekendOpen":"00:00","weekendClose":"23:59","holidayOpen":"00:00","holidayClose":"23:59","feeInfo":"무료","phone":"042-611-2956","updatedAt":"2026-01-13","sido":"대전광역시","sigungu":"유성구","dong":"자운동"},{"name":"전민동 제2공영","type":"공영","category":"노외","address":"대전광역시 유성구 전민동 346-3","lat":36.3986785,"lng":127.4011177,"totalSpaces":28,"isFree":true,"operatingDays":"평일+토요일+공휴일","weekdayOpen":"00:00","weekdayClose":"23:59","weekendOpen":"00:00","weekendClose":"23:59","holidayOpen":"00:00","holidayClose":"23:59","feeInfo":"무료","phone":"042-611-2956","updatedAt":"2026-01-13","sido":"대전광역시","sigungu":"유성구","dong":"전민동"},{"name":"유성구청 뒤","type":"공영","category":"노상","address":"대전광역시 유성구 대학로 211, (어은동)","lat":36.36258889,"lng":127.3567446,"totalSpaces":27,"isFree":true,"operatingDays":"평일+토요일+공휴일","weekdayOpen":"00:00","weekdayClose":"23:59","weekendOpen":"00:00","weekendClose":"23:59","holidayOpen":"00:00","holidayClose":"23:59","feeInfo":"무료","phone":"042-120","updatedAt":"2022-12-15","sido":"대전광역시","sigungu":"유성구","dong":"어은동"},{"name":"도룡동 우성(아)앞","type":"공영","category":"노상","address":"대전광역시 유성구 도룡동 401-3","lat":36.38834118,"lng":127.3817089,"totalSpaces":27,"isFree":true,"operatingDays":"평일+토요일+공휴일","weekdayOpen":"00:00","weekdayClose":"23:59","weekendOpen":"00:00","weekendClose":"23:59","holidayOpen":"00:00","holidayClose":"23:59","feeInfo":"무료","phone":"042-120","updatedAt":"2022-12-15","sido":"대전광역시","sigungu":"유성구","dong":"도룡동"},{"name":"용산동공영","type":"공영","category":"노외","address":"대전광역시 유성구 용산동 624","lat":36.42202516,"lng":127.3963662,"totalSpaces":27,"isFree":true,"operatingDays":"평일+토요일+공휴일","weekdayOpen":"00:00","weekdayClose":"23:59","weekendOpen":"00:00","weekendClose":"23:59","holidayOpen":"00:00","holidayClose":"23:59","feeInfo":"무료","phone":"042-120","updatedAt":"2022-12-15","sido":"대전광역시","sigungu":"유성구","dong":"용산동"},{"name":"유성구청 뒤","type":"공영","category":"노상","address":"대전광역시 유성구 어은동 109","lat":36.36259133,"lng":127.3567411,"totalSpaces":27,"isFree":true,"operatingDays":"평일+토요일+공휴일","weekdayOpen":"00:00","weekdayClose":"23:59","weekendOpen":"00:00","weekendClose":"23:59","holidayOpen":"00:00","holidayClose":"23:59","feeInfo":"무료","phone":"042-611-2956","updatedAt":"2026-01-13","sido":"대전광역시","sigungu":"유성구","dong":"어은동"},{"name":"도룡동 우성(아)앞","type":"공영","category":"노상","address":"대전광역시 유성구 도룡동 401-3","lat":36.38834118,"lng":127.3817089,"totalSpaces":27,"isFree":true,"operatingDays":"평일+토요일+공휴일","weekdayOpen":"00:00","weekdayClose":"23:59","weekendOpen":"00:00","weekendClose":"23:59","holidayOpen":"00:00","holidayClose":"23:59","feeInfo":"무료","phone":"042-611-2956","updatedAt":"2026-01-13","sido":"대전광역시","sigungu":"유성구","dong":"도룡동"},{"name":"용산동공영","type":"공영","category":"노외","address":"대전광역시 유성구 용산동 624","lat":36.4220236,"lng":127.3963664,"totalSpaces":27,"isFree":true,"operatingDays":"평일+토요일+공휴일","weekdayOpen":"00:00","weekdayClose":"23:59","weekendOpen":"00:00","weekendClose":"23:59","holidayOpen":"00:00","holidayClose":"23:59","feeInfo":"무료","phone":"042-611-2956","updatedAt":"2026-01-13","sido":"대전광역시","sigungu":"유성구","dong":"용산동"},{"name":"봉산동공영(2)","type":"공영","category":"노외","address":"대전광역시 유성구 봉산동 292","lat":36.4408214,"lng":127.383639,"totalSpaces":27,"isFree":true,"operatingDays":"평일+토요일+공휴일","weekdayOpen":"00:00","weekdayClose":"23:59","weekendOpen":"00:00","weekendClose":"23:59","holidayOpen":"00:00","holidayClose":"23:59","feeInfo":"무료","phone":"042-611-2956","updatedAt":"2026-01-13","sido":"대전광역시","sigungu":"유성구","dong":"봉산동"},{"name":"송강청솔@~송강@","type":"공영","category":"노상","address":"대전광역시 유성구 와룡로136번길 15, (봉산동, 하늘바람휴먼시아)","lat":36.43825732,"lng":127.3824562,"totalSpaces":26,"isFree":true,"operatingDays":"평일+토요일+공휴일","weekdayOpen":"00:00","weekdayClose":"23:59","weekendOpen":"00:00","weekendClose":"23:59","holidayOpen":"00:00","holidayClose":"23:59","feeInfo":"무료","phone":"042-120","updatedAt":"2022-12-15","sido":"대전광역시","sigungu":"유성구","dong":"봉산동"},{"name":"수통골 임시공영(2)","type":"공영","category":"노외","address":"대전광역시 유성구 계산동 717-1","lat":36.3429474,"lng":127.2986999,"totalSpaces":26,"isFree":true,"operatingDays":"평일+토요일+공휴일","weekdayOpen":"00:00","weekdayClose":"23:59","weekendOpen":"00:00","weekendClose":"23:59","holidayOpen":"00:00","holidayClose":"23:59","feeInfo":"무료","phone":"042-611-2956","updatedAt":"2026-01-13","sido":"대전광역시","sigungu":"유성구","dong":"계산동"},{"name":"꼭두배어린이공원 주변","type":"공영","category":"노상","address":"대전광역시 유성구 장대동 323-1","lat":36.36468289,"lng":127.3348401,"totalSpaces":26,"isFree":true,"operatingDays":"평일+토요일+공휴일","weekdayOpen":"00:00","weekdayClose":"23:59","weekendOpen":"00:00","weekendClose":"23:59","holidayOpen":"00:00","holidayClose":"23:59","feeInfo":"무료","phone":"042-611-2956","updatedAt":"2026-01-13","sido":"대전광역시","sigungu":"유성구","dong":"장대동"},{"name":"건축환경연구센터 앞","type":"공영","category":"노상","address":"대전광역시 유성구 신성동 217-3","lat":36.3904978,"lng":127.3548444,"totalSpaces":26,"isFree":true,"operatingDays":"평일+토요일+공휴일","weekdayOpen":"00:00","weekdayClose":"23:59","weekendOpen":"00:00","weekendClose":"23:59","holidayOpen":"00:00","holidayClose":"23:59","feeInfo":"무료","phone":"042-611-2956","updatedAt":"2026-01-13","sido":"대전광역시","sigungu":"유성구","dong":"신성동"},{"name":"장명교~경원장, 파라곤모텔앞","type":"공영","category":"노상","address":"대전광역시 유성구 계룡로87번길 72, (봉명동)","lat":36.35713713,"lng":127.3419591,"totalSpaces":25,"isFree":true,"operatingDays":"평일+토요일+공휴일","weekdayOpen":"00:00","weekdayClose":"23:59","weekendOpen":"00:00","weekendClose":"23:59","holidayOpen":"00:00","holidayClose":"23:59","feeInfo":"무료","phone":"042-120","updatedAt":"2022-12-15","sido":"대전광역시","sigungu":"유성구","dong":"봉명동"},{"name":"도덕봉가든일원","type":"공영","category":"노상","address":"대전광역시 유성구 덕명동 171-96","lat":36.34554828,"lng":127.2969966,"totalSpaces":25,"isFree":true,"operatingDays":"평일+토요일+공휴일","weekdayOpen":"00:00","weekdayClose":"23:59","weekendOpen":"00:00","weekendClose":"23:59","holidayOpen":"00:00","holidayClose":"23:59","feeInfo":"무료","phone":"042-120","updatedAt":"2022-12-15","sido":"대전광역시","sigungu":"유성구","dong":"덕명동"},{"name":"장명교~경원장,파라곤모텔앞","type":"공영","category":"노상","address":"대전광역시 유성구 봉명동 603","lat":36.35802488,"lng":127.3416014,"totalSpaces":25,"isFree":true,"operatingDays":"평일+토요일+공휴일","weekdayOpen":"00:00","weekdayClose":"23:59","weekendOpen":"00:00","weekendClose":"23:59","holidayOpen":"00:00","holidayClose":"23:59","feeInfo":"무료","phone":"042-611-2956","updatedAt":"2026-01-13","sido":"대전광역시","sigungu":"유성구","dong":"봉명동"},{"name":"도덕봉가든일원","type":"공영","category":"노상","address":"대전광역시 유성구 덕명동171-96","lat":36.34554828,"lng":127.2969966,"totalSpaces":25,"isFree":true,"operatingDays":"평일+토요일+공휴일","weekdayOpen":"00:00","weekdayClose":"23:59","weekendOpen":"00:00","weekendClose":"23:59","holidayOpen":"00:00","holidayClose":"23:59","feeInfo":"무료","phone":"042-611-2956","updatedAt":"2026-01-13","sido":"대전광역시","sigungu":"유성구","dong":""},{"name":"유성장로교회앞","type":"공영","category":"노상","address":"대전광역시 유성구 계룡로16번길 43, (구암동)","lat":36.3545368,"lng":127.3313405,"totalSpaces":24,"isFree":true,"operatingDays":"평일+토요일+공휴일","weekdayOpen":"00:00","weekdayClose":"23:59","weekendOpen":"00:00","weekendClose":"23:59","holidayOpen":"00:00","holidayClose":"23:59","feeInfo":"무료","phone":"042-120","updatedAt":"2022-12-15","sido":"대전광역시","sigungu":"유성구","dong":"구암동"},{"name":"교촌동 임시공영","type":"공영","category":"노외","address":"대전광역시 유성구 교촌동 624-17","lat":36.3035259,"lng":127.3171902,"totalSpaces":24,"isFree":true,"operatingDays":"평일+토요일+공휴일","weekdayOpen":"00:00","weekdayClose":"23:59","weekendOpen":"00:00","weekendClose":"23:59","holidayOpen":"00:00","holidayClose":"23:59","feeInfo":"무료","phone":"042-611-2956","updatedAt":"2026-01-13","sido":"대전광역시","sigungu":"유성구","dong":"교촌동"},{"name":"유성장로교회앞","type":"공영","category":"노상","address":"대전광역시 유성구 구암동 80-3","lat":36.35455651,"lng":127.3307877,"totalSpaces":24,"isFree":true,"operatingDays":"평일+토요일+공휴일","weekdayOpen":"00:00","weekdayClose":"23:59","weekendOpen":"00:00","weekendClose":"23:59","holidayOpen":"00:00","holidayClose":"23:59","feeInfo":"무료","phone":"042-611-2956","updatedAt":"2026-01-13","sido":"대전광역시","sigungu":"유성구","dong":"구암동"},{"name":"성원상떼빌 주변","type":"공영","category":"노상","address":"대전광역시 유성구 장대동 376-2","lat":36.3583181,"lng":127.3401462,"totalSpaces":23,"isFree":true,"operatingDays":"평일+토요일+공휴일","weekdayOpen":"00:00","weekdayClose":"23:59","weekendOpen":"00:00","weekendClose":"23:59","holidayOpen":"00:00","holidayClose":"23:59","feeInfo":"무료","phone":"042-611-2956","updatedAt":"2026-01-13","sido":"대전광역시","sigungu":"유성구","dong":"장대동"},{"name":"유성구청~어은공원","type":"공영","category":"노상","address":"대전광역시 유성구 대학로 211, (어은동)","lat":36.36259133,"lng":127.3567411,"totalSpaces":23,"isFree":true,"operatingDays":"평일+토요일+공휴일","weekdayOpen":"00:00","weekdayClose":"23:59","weekendOpen":"00:00","weekendClose":"23:59","holidayOpen":"00:00","holidayClose":"23:59","feeInfo":"무료","phone":"042-120","updatedAt":"2022-12-15","sido":"대전광역시","sigungu":"유성구","dong":"어은동"},{"name":"교촌동공영","type":"공영","category":"노외","address":"대전광역시 유성구 교촌동 636-1","lat":36.30262606,"lng":127.3148186,"totalSpaces":23,"isFree":true,"operatingDays":"평일+토요일+공휴일","weekdayOpen":"00:00","weekdayClose":"23:59","weekendOpen":"00:00","weekendClose":"23:59","holidayOpen":"00:00","holidayClose":"23:59","feeInfo":"무료","phone":"042-120","updatedAt":"2022-12-15","sido":"대전광역시","sigungu":"유성구","dong":"교촌동"},{"name":"온천북교 일원","type":"공영","category":"노상","address":"대전광역시 유성구 궁동 501","lat":36.3600455,"lng":127.346986,"totalSpaces":23,"isFree":true,"operatingDays":"평일+토요일+공휴일","weekdayOpen":"00:00","weekdayClose":"23:59","weekendOpen":"00:00","weekendClose":"23:59","holidayOpen":"00:00","holidayClose":"23:59","feeInfo":"무료","phone":"042-611-2956","updatedAt":"2026-01-13","sido":"대전광역시","sigungu":"유성구","dong":"궁동"},{"name":"교촌동공영","type":"공영","category":"노외","address":"대전광역시 유성구 교촌동 636-1","lat":36.3026381,"lng":127.3148263,"totalSpaces":23,"isFree":true,"operatingDays":"평일+토요일+공휴일","weekdayOpen":"00:00","weekdayClose":"23:59","weekendOpen":"00:00","weekendClose":"23:59","holidayOpen":"00:00","holidayClose":"23:59","feeInfo":"무료","phone":"042-611-2956","updatedAt":"2026-01-13","sido":"대전광역시","sigungu":"유성구","dong":"교촌동"},{"name":"학하지구 공영(9)","type":"공영","category":"노외","address":"대전광역시 유성구 학하동 731-1","lat":36.33874342,"lng":127.3067665,"totalSpaces":22,"isFree":true,"operatingDays":"평일+토요일+공휴일","weekdayOpen":"00:00","weekdayClose":"23:59","weekendOpen":"00:00","weekendClose":"23:59","holidayOpen":"00:00","holidayClose":"23:59","feeInfo":"무료","phone":"042-120","updatedAt":"2022-12-15","sido":"대전광역시","sigungu":"유성구","dong":"학하동"},{"name":"학하지구 공영(13)","type":"공영","category":"노외","address":"대전광역시 유성구 복용동 585-1","lat":36.3433264,"lng":127.3121106,"totalSpaces":22,"isFree":true,"operatingDays":"평일+토요일+공휴일","weekdayOpen":"00:00","weekdayClose":"23:59","weekendOpen":"00:00","weekendClose":"23:59","holidayOpen":"00:00","holidayClose":"23:59","feeInfo":"무료","phone":"042-120","updatedAt":"2022-12-15","sido":"대전광역시","sigungu":"유성구","dong":"복용동"},{"name":"메가시티주변","type":"공영","category":"노상","address":"대전광역시 유성구 왕가봉로24번길 15, (노은동)","lat":36.36586013,"lng":127.3165493,"totalSpaces":22,"isFree":true,"operatingDays":"평일+토요일+공휴일","weekdayOpen":"00:00","weekdayClose":"23:59","weekendOpen":"00:00","weekendClose":"23:59","holidayOpen":"00:00","holidayClose":"23:59","feeInfo":"무료","phone":"042-120","updatedAt":"2022-12-15","sido":"대전광역시","sigungu":"유성구","dong":"노은동"},{"name":"신성동 한울(아)옆","type":"공영","category":"노상","address":"대전광역시 유성구 신성동 160-1","lat":36.3872837,"lng":127.3468011,"totalSpaces":22,"isFree":true,"operatingDays":"평일+토요일+공휴일","weekdayOpen":"00:00","weekdayClose":"23:59","weekendOpen":"00:00","weekendClose":"23:59","holidayOpen":"00:00","holidayClose":"23:59","feeInfo":"무료","phone":"042-611-2956","updatedAt":"2026-01-13","sido":"대전광역시","sigungu":"유성구","dong":"신성동"},{"name":"유성경찰서 인근","type":"공영","category":"노상","address":"대전광역시 유성구 죽동 648","lat":36.37958143,"lng":127.3266296,"totalSpaces":22,"isFree":true,"operatingDays":"평일+토요일+공휴일","weekdayOpen":"00:00","weekdayClose":"23:59","weekendOpen":"00:00","weekendClose":"23:59","holidayOpen":"00:00","holidayClose":"23:59","feeInfo":"무료","phone":"042-611-2956","updatedAt":"2026-01-13","sido":"대전광역시","sigungu":"유성구","dong":"죽동"},{"name":"에이스타운3차 앞","type":"공영","category":"노상","address":"대전광역시 유성구 봉명동 623-3","lat":36.3582798,"lng":127.3467874,"totalSpaces":22,"isFree":true,"operatingDays":"평일+토요일+공휴일","weekdayOpen":"00:00","weekdayClose":"23:59","weekendOpen":"00:00","weekendClose":"23:59","holidayOpen":"00:00","holidayClose":"23:59","feeInfo":"무료","phone":"042-611-2956","updatedAt":"2026-01-13","sido":"대전광역시","sigungu":"유성구","dong":"봉명동"},{"name":"학하지구 공영(9)","type":"공영","category":"노외","address":"대전광역시 유성구 학하동 731-1","lat":36.3387587,"lng":127.3067793,"totalSpaces":22,"isFree":true,"operatingDays":"평일+토요일+공휴일","weekdayOpen":"00:00","weekdayClose":"23:59","weekendOpen":"00:00","weekendClose":"23:59","holidayOpen":"00:00","holidayClose":"23:59","feeInfo":"무료","phone":"042-611-2956","updatedAt":"2026-01-13","sido":"대전광역시","sigungu":"유성구","dong":"학하동"},{"name":"학하지구 공영(13)","type":"공영","category":"노외","address":"대전광역시 유성구 복용동 585-1","lat":36.3433137,"lng":127.3121085,"totalSpaces":22,"isFree":true,"operatingDays":"평일+토요일+공휴일","weekdayOpen":"00:00","weekdayClose":"23:59","weekendOpen":"00:00","weekendClose":"23:59","holidayOpen":"00:00","holidayClose":"23:59","feeInfo":"무료","phone":"042-611-2956","updatedAt":"2026-01-13","sido":"대전광역시","sigungu":"유성구","dong":"복용동"},{"name":"학하지구 공영(14)","type":"공영","category":"노외","address":"대전광역시 유성구 복용동 569-1","lat":36.34379106,"lng":127.3101568,"totalSpaces":21,"isFree":true,"operatingDays":"평일+토요일+공휴일","weekdayOpen":"00:00","weekdayClose":"23:59","weekendOpen":"00:00","weekendClose":"23:59","holidayOpen":"00:00","holidayClose":"23:59","feeInfo":"무료","phone":"042-120","updatedAt":"2022-12-15","sido":"대전광역시","sigungu":"유성구","dong":"복용동"},{"name":"덕명지구 공영(6)","type":"공영","category":"노외","address":"대전광역시 유성구 덕명동 530","lat":36.35783461,"lng":127.3067967,"totalSpaces":21,"isFree":true,"operatingDays":"평일+토요일+공휴일","weekdayOpen":"00:00","weekdayClose":"23:59","weekendOpen":"00:00","weekendClose":"23:59","holidayOpen":"00:00","holidayClose":"23:59","feeInfo":"무료","phone":"042-120","updatedAt":"2022-12-15","sido":"대전광역시","sigungu":"유성구","dong":"덕명동"},{"name":"진잠우체국 옆","type":"공영","category":"노상","address":"대전광역시 유성구 원내로39번길 17, (원내동)","lat":36.30059598,"lng":127.3199535,"totalSpaces":21,"isFree":true,"operatingDays":"평일+토요일+공휴일","weekdayOpen":"00:00","weekdayClose":"23:59","weekendOpen":"00:00","weekendClose":"23:59","holidayOpen":"00:00","holidayClose":"23:59","feeInfo":"무료","phone":"042-120","updatedAt":"2022-12-15","sido":"대전광역시","sigungu":"유성구","dong":"원내동"},{"name":"진잠우체국옆","type":"공영","category":"노상","address":"대전광역시 유성구 원내동 92-14","lat":36.3010368,"lng":127.3200734,"totalSpaces":21,"isFree":true,"operatingDays":"평일+토요일+공휴일","weekdayOpen":"00:00","weekdayClose":"23:59","weekendOpen":"00:00","weekendClose":"23:59","holidayOpen":"00:00","holidayClose":"23:59","feeInfo":"무료","phone":"042-611-2956","updatedAt":"2026-01-13","sido":"대전광역시","sigungu":"유성구","dong":"원내동"},{"name":"학하지구 공영(14)","type":"공영","category":"노외","address":"대전광역시 유성구 복용동 569-1","lat":36.34379106,"lng":127.3101546,"totalSpaces":21,"isFree":true,"operatingDays":"평일+토요일+공휴일","weekdayOpen":"00:00","weekdayClose":"23:59","weekendOpen":"00:00","weekendClose":"23:59","holidayOpen":"00:00","holidayClose":"23:59","feeInfo":"무료","phone":"042-611-2956","updatedAt":"2026-01-13","sido":"대전광역시","sigungu":"유성구","dong":"복용동"},{"name":"학하지구 공영(12)","type":"공영","category":"노외","address":"대전광역시 유성구 계산동 717-3","lat":36.34268868,"lng":127.2989817,"totalSpaces":20,"isFree":true,"operatingDays":"평일+토요일+공휴일","weekdayOpen":"00:00","weekdayClose":"23:59","weekendOpen":"00:00","weekendClose":"23:59","holidayOpen":"00:00","holidayClose":"23:59","feeInfo":"무료","phone":"042-120","updatedAt":"2022-12-15","sido":"대전광역시","sigungu":"유성구","dong":"계산동"},{"name":"지족동 임시공영(2)","type":"공영","category":"노외","address":"대전광역시 유성구 지족동 1023-1","lat":36.3866794,"lng":127.3071121,"totalSpaces":20,"isFree":true,"operatingDays":"평일+토요일+공휴일","weekdayOpen":"00:00","weekdayClose":"23:59","weekendOpen":"00:00","weekendClose":"23:59","holidayOpen":"00:00","holidayClose":"23:59","feeInfo":"무료","phone":"042-611-2956","updatedAt":"2026-01-13","sido":"대전광역시","sigungu":"유성구","dong":"지족동"},{"name":"문지동 임시공영","type":"공영","category":"노외","address":"대전광역시 유성구 문지동 640-2","lat":36.3955845,"lng":127.4077966,"totalSpaces":20,"isFree":true,"operatingDays":"평일+토요일+공휴일","weekdayOpen":"00:00","weekdayClose":"23:59","weekendOpen":"00:00","weekendClose":"23:59","holidayOpen":"00:00","holidayClose":"23:59","feeInfo":"무료","phone":"042-611-2956","updatedAt":"2026-01-13","sido":"대전광역시","sigungu":"유성구","dong":"문지동"},{"name":"유성호텔 앞","type":"공영","category":"노상","address":"대전광역시 유성구 봉명동 441-14","lat":36.3565761,"lng":127.3401812,"totalSpaces":20,"isFree":true,"operatingDays":"평일+토요일+공휴일","weekdayOpen":"00:00","weekdayClose":"23:59","weekendOpen":"00:00","weekendClose":"23:59","holidayOpen":"00:00","holidayClose":"23:59","feeInfo":"무료","phone":"042-611-2956","updatedAt":"2026-01-13","sido":"대전광역시","sigungu":"유성구","dong":"봉명동"},{"name":"덕명지구 공영(6)","type":"공영","category":"노외","address":"대전광역시 유성구 덕명동 530","lat":36.3578199,"lng":127.3067775,"totalSpaces":20,"isFree":true,"operatingDays":"평일+토요일+공휴일","weekdayOpen":"00:00","weekdayClose":"23:59","weekendOpen":"00:00","weekendClose":"23:59","holidayOpen":"00:00","holidayClose":"23:59","feeInfo":"무료","phone":"042-611-2956","updatedAt":"2026-01-13","sido":"대전광역시","sigungu":"유성구","dong":"덕명동"},{"name":"학하지구 공영(12)","type":"공영","category":"노외","address":"대전광역시 유성구 계산동 717-3","lat":36.3426787,"lng":127.29898,"totalSpaces":20,"isFree":true,"operatingDays":"평일+토요일+공휴일","weekdayOpen":"00:00","weekdayClose":"23:59","weekendOpen":"00:00","weekendClose":"23:59","holidayOpen":"00:00","holidayClose":"23:59","feeInfo":"무료","phone":"042-611-2956","updatedAt":"2026-01-13","sido":"대전광역시","sigungu":"유성구","dong":"계산동"},{"name":"덕명지구 공영(2)","type":"공영","category":"노외","address":"대전광역시 유성구 구암동 657","lat":36.36050071,"lng":127.308142,"totalSpaces":19,"isFree":true,"operatingDays":"평일+토요일+공휴일","weekdayOpen":"00:00","weekdayClose":"23:59","weekendOpen":"00:00","weekendClose":"23:59","holidayOpen":"00:00","holidayClose":"23:59","feeInfo":"무료","phone":"042-120","updatedAt":"2022-12-15","sido":"대전광역시","sigungu":"유성구","dong":"구암동"},{"name":"죽동 임시공영(3)","type":"공영","category":"노외","address":"대전광역시 유성구 죽동 732-2","lat":36.374309,"lng":127.3379252,"totalSpaces":19,"isFree":true,"operatingDays":"평일+토요일+공휴일","weekdayOpen":"00:00","weekdayClose":"23:59","weekendOpen":"00:00","weekendClose":"23:59","holidayOpen":"00:00","holidayClose":"23:59","feeInfo":"무료","phone":"042-611-2956","updatedAt":"2026-01-13","sido":"대전광역시","sigungu":"유성구","dong":"죽동"},{"name":"학사공인중개사 주변","type":"공영","category":"노상","address":"대전광역시 유성구 장대동 314-3","lat":36.364949,"lng":127.3402554,"totalSpaces":19,"isFree":true,"operatingDays":"평일+토요일+공휴일","weekdayOpen":"00:00","weekdayClose":"23:59","weekendOpen":"00:00","weekendClose":"23:59","holidayOpen":"00:00","holidayClose":"23:59","feeInfo":"무료","phone":"042-611-2956","updatedAt":"2026-01-13","sido":"대전광역시","sigungu":"유성구","dong":"장대동"},{"name":"요한이네할인매장 맞은편~유진아이티 맞은편","type":"공영","category":"노상","address":"대전광역시 유성구 노은동 561-7","lat":36.3638105,"lng":127.3172768,"totalSpaces":19,"isFree":true,"operatingDays":"평일+토요일+공휴일","weekdayOpen":"00:00","weekdayClose":"23:59","weekendOpen":"00:00","weekendClose":"23:59","holidayOpen":"00:00","holidayClose":"23:59","feeInfo":"무료","phone":"042-611-2956","updatedAt":"2026-01-13","sido":"대전광역시","sigungu":"유성구","dong":"노은동"},{"name":"덕명지구 공영(2)","type":"공영","category":"노외","address":"대전광역시 유성구 구암동 657","lat":36.36050071,"lng":127.3081466,"totalSpaces":19,"isFree":true,"operatingDays":"평일+토요일+공휴일","weekdayOpen":"00:00","weekdayClose":"23:59","weekendOpen":"00:00","weekendClose":"23:59","holidayOpen":"00:00","holidayClose":"23:59","feeInfo":"무료","phone":"042-611-2956","updatedAt":"2026-01-13","sido":"대전광역시","sigungu":"유성구","dong":"구암동"},{"name":"모나빌아파트 앞","type":"공영","category":"노상","address":"대전광역시 유성구 봉명동 656-4","lat":36.3568244,"lng":127.3476555,"totalSpaces":18,"isFree":true,"operatingDays":"평일+토요일+공휴일","weekdayOpen":"00:00","weekdayClose":"23:59","weekendOpen":"00:00","weekendClose":"23:59","holidayOpen":"00:00","holidayClose":"23:59","feeInfo":"무료","phone":"042-611-2956","updatedAt":"2026-01-13","sido":"대전광역시","sigungu":"유성구","dong":"봉명동"},{"name":"덕명지구 공영(3)","type":"공영","category":"노외","address":"대전광역시 유성구 구암동 677","lat":36.35860387,"lng":127.3093185,"totalSpaces":17,"isFree":true,"operatingDays":"평일+토요일+공휴일","weekdayOpen":"00:00","weekdayClose":"23:59","weekendOpen":"00:00","weekendClose":"23:59","holidayOpen":"00:00","holidayClose":"23:59","feeInfo":"무료","phone":"042-120","updatedAt":"2022-12-15","sido":"대전광역시","sigungu":"유성구","dong":"구암동"},{"name":"도룡동 임시공영","type":"공영","category":"노외","address":"대전광역시 유성구 도룡동 393-14","lat":36.384805,"lng":127.3775163,"totalSpaces":17,"isFree":true,"operatingDays":"평일+토요일+공휴일","weekdayOpen":"00:00","weekdayClose":"23:59","weekendOpen":"00:00","weekendClose":"23:59","holidayOpen":"00:00","holidayClose":"23:59","feeInfo":"무료","phone":"042-611-2956","updatedAt":"2026-01-13","sido":"대전광역시","sigungu":"유성구","dong":"도룡동"},{"name":"덕명지구 공영(3)","type":"공영","category":"노외","address":"대전광역시 유성구 구암동 677","lat":36.3586187,"lng":127.309322,"totalSpaces":17,"isFree":true,"operatingDays":"평일+토요일+공휴일","weekdayOpen":"00:00","weekdayClose":"23:59","weekendOpen":"00:00","weekendClose":"23:59","holidayOpen":"00:00","holidayClose":"23:59","feeInfo":"무료","phone":"042-611-2956","updatedAt":"2026-01-13","sido":"대전광역시","sigungu":"유성구","dong":"구암동"},{"name":"지족동 임시공영(1)","type":"공영","category":"노외","address":"대전광역시 유성구 지족동 1024-1","lat":36.3867266,"lng":127.3074684,"totalSpaces":16,"isFree":true,"operatingDays":"평일+토요일+공휴일","weekdayOpen":"00:00","weekdayClose":"23:59","weekendOpen":"00:00","weekendClose":"23:59","holidayOpen":"00:00","holidayClose":"23:59","feeInfo":"무료","phone":"042-611-2956","updatedAt":"2026-01-13","sido":"대전광역시","sigungu":"유성구","dong":"지족동"},{"name":"농어촌공사 주변","type":"공영","category":"노상","address":"대전광역시 유성구 장대동 24-2","lat":36.36615702,"lng":127.3359373,"totalSpaces":16,"isFree":true,"operatingDays":"평일+토요일+공휴일","weekdayOpen":"00:00","weekdayClose":"23:59","weekendOpen":"00:00","weekendClose":"23:59","holidayOpen":"00:00","holidayClose":"23:59","feeInfo":"무료","phone":"042-611-2956","updatedAt":"2026-01-13","sido":"대전광역시","sigungu":"유성구","dong":"장대동"},{"name":"원내동공영(2)","type":"공영","category":"노외","address":"대전광역시 유성구 원내동 213-3","lat":36.2995543,"lng":127.3162441,"totalSpaces":16,"isFree":true,"operatingDays":"평일+토요일+공휴일","weekdayOpen":"00:00","weekdayClose":"23:59","weekendOpen":"00:00","weekendClose":"23:59","holidayOpen":"00:00","holidayClose":"23:59","feeInfo":"무료","phone":"042-611-2956","updatedAt":"2026-01-13","sido":"대전광역시","sigungu":"유성구","dong":"원내동"},{"name":"계산동 임시공영","type":"공영","category":"노외","address":"대전광역시 유성구 계산동 805-4,5","lat":36.3415924,"lng":127.3043257,"totalSpaces":15,"isFree":true,"operatingDays":"평일+토요일+공휴일","weekdayOpen":"00:00","weekdayClose":"23:59","weekendOpen":"00:00","weekendClose":"23:59","holidayOpen":"00:00","holidayClose":"23:59","feeInfo":"무료","phone":"042-611-2956","updatedAt":"2026-01-13","sido":"대전광역시","sigungu":"유성구","dong":"계산동"},{"name":"전민동 임시공영","type":"공영","category":"노외","address":"대전광역시 유성구 전민동 337-13","lat":36.3981617,"lng":127.4022922,"totalSpaces":15,"isFree":true,"operatingDays":"평일+토요일+공휴일","weekdayOpen":"00:00","weekdayClose":"23:59","weekendOpen":"00:00","weekendClose":"23:59","holidayOpen":"00:00","holidayClose":"23:59","feeInfo":"무료","phone":"042-611-2956","updatedAt":"2026-01-13","sido":"대전광역시","sigungu":"유성구","dong":"전민동"},{"name":"불이아 앞","type":"공영","category":"노상","address":"대전광역시 유성구 봉명동 619-1","lat":36.3588295,"lng":127.345154,"totalSpaces":15,"isFree":true,"operatingDays":"평일+토요일+공휴일","weekdayOpen":"00:00","weekdayClose":"23:59","weekendOpen":"00:00","weekendClose":"23:59","holidayOpen":"00:00","holidayClose":"23:59","feeInfo":"무료","phone":"042-611-2956","updatedAt":"2026-01-13","sido":"대전광역시","sigungu":"유성구","dong":"봉명동"},{"name":"럭키하나아파트 주변","type":"공영","category":"노상","address":"대전광역시 유성구 신성남로 27, (신성동)","lat":36.38644889,"lng":127.3480569,"totalSpaces":14,"isFree":true,"operatingDays":"평일+토요일+공휴일","weekdayOpen":"00:00","weekdayClose":"23:59","weekendOpen":"00:00","weekendClose":"23:59","holidayOpen":"00:00","holidayClose":"23:59","feeInfo":"무료","phone":"042-120","updatedAt":"2022-12-15","sido":"대전광역시","sigungu":"유성구","dong":"신성동"},{"name":"어은로58번길(카이스트옆)","type":"공영","category":"노상","address":"대전광역시 유성구 어은로58번길 1","lat":36.36258889,"lng":127.3567446,"totalSpaces":14,"isFree":true,"operatingDays":"평일+토요일+공휴일","weekdayOpen":"00:00","weekdayClose":"23:59","weekendOpen":"00:00","weekendClose":"23:59","holidayOpen":"00:00","holidayClose":"23:59","feeInfo":"무료","phone":"042-120","updatedAt":"2022-12-15","sido":"대전광역시","sigungu":"유성구","dong":""},{"name":"어은로58번길(카이스트 옆)","type":"공영","category":"노상","address":"대전광역시 유성구 어은로 58","lat":36.3637743,"lng":127.3578937,"totalSpaces":14,"isFree":true,"operatingDays":"평일+토요일+공휴일","weekdayOpen":"00:00","weekdayClose":"23:59","weekendOpen":"00:00","weekendClose":"23:59","holidayOpen":"00:00","holidayClose":"23:59","feeInfo":"무료","phone":"042-611-2956","updatedAt":"2026-01-13","sido":"대전광역시","sigungu":"유성구","dong":""},{"name":"럭키하나아파트 주변","type":"공영","category":"노상","address":"대전광역시 유성구 신성동 206","lat":36.38753122,"lng":127.3481116,"totalSpaces":14,"isFree":true,"operatingDays":"평일+토요일+공휴일","weekdayOpen":"00:00","weekdayClose":"23:59","weekendOpen":"00:00","weekendClose":"23:59","holidayOpen":"00:00","holidayClose":"23:59","feeInfo":"무료","phone":"042-611-2956","updatedAt":"2026-01-13","sido":"대전광역시","sigungu":"유성구","dong":"신성동"},{"name":"숯골원냉면 주변","type":"공영","category":"노상","address":"대전광역시 유성구 신성로84번길 18-1, (신성동, 대원빌라)","lat":36.39006225,"lng":127.3500838,"totalSpaces":13,"isFree":true,"operatingDays":"평일+토요일+공휴일","weekdayOpen":"00:00","weekdayClose":"23:59","weekendOpen":"00:00","weekendClose":"23:59","holidayOpen":"00:00","holidayClose":"23:59","feeInfo":"무료","phone":"042-120","updatedAt":"2022-12-15","sido":"대전광역시","sigungu":"유성구","dong":"신성동"},{"name":"창뜰어린이공원 주변","type":"공영","category":"노상","address":"대전광역시 유성구 노은동 490","lat":36.37169981,"lng":127.3169738,"totalSpaces":13,"isFree":true,"operatingDays":"평일+토요일+공휴일","weekdayOpen":"00:00","weekdayClose":"23:59","weekendOpen":"00:00","weekendClose":"23:59","holidayOpen":"00:00","holidayClose":"23:59","feeInfo":"무료","phone":"042-611-2956","updatedAt":"2026-01-13","sido":"대전광역시","sigungu":"유성구","dong":"노은동"},{"name":"관평동 묵마을진입로 일원","type":"공영","category":"노상","address":"대전광역시 유성구 관평동 575-1","lat":36.41784794,"lng":127.3800571,"totalSpaces":13,"isFree":true,"operatingDays":"평일+토요일+공휴일","weekdayOpen":"00:00","weekdayClose":"23:59","weekendOpen":"00:00","weekendClose":"23:59","holidayOpen":"00:00","holidayClose":"23:59","feeInfo":"무료","phone":"042-611-2956","updatedAt":"2026-01-13","sido":"대전광역시","sigungu":"유성구","dong":"관평동"},{"name":"유성성당 옆","type":"공영","category":"노상","address":"대전광역시 유성구 계룡로46번길 23, (봉명동)","lat":36.35393558,"lng":127.335802,"totalSpaces":12,"isFree":true,"operatingDays":"평일+토요일+공휴일","weekdayOpen":"00:00","weekdayClose":"23:59","weekendOpen":"00:00","weekendClose":"23:59","holidayOpen":"00:00","holidayClose":"23:59","feeInfo":"무료","phone":"042-120","updatedAt":"2022-12-15","sido":"대전광역시","sigungu":"유성구","dong":"봉명동"},{"name":"상수도사업본부 유성사업소 주변","type":"공영","category":"노상","address":"대전광역시 유성구 한밭대로492번길 26-14, (봉명동)","lat":36.3587336,"lng":127.3521076,"totalSpaces":12,"isFree":true,"operatingDays":"평일+토요일+공휴일","weekdayOpen":"00:00","weekdayClose":"23:59","weekendOpen":"00:00","weekendClose":"23:59","holidayOpen":"00:00","holidayClose":"23:59","feeInfo":"무료","phone":"042-120","updatedAt":"2022-12-15","sido":"대전광역시","sigungu":"유성구","dong":"봉명동"},{"name":"세동 공영주차장","type":"공영","category":"노외","address":"대전광역시 유성구 세동 136-1","lat":36.2927832162,"lng":127.2736765,"totalSpaces":12,"isFree":true,"operatingDays":"평일+토요일+공휴일","weekdayOpen":"00:00","weekdayClose":"23:59","weekendOpen":"00:00","weekendClose":"23:59","holidayOpen":"00:00","holidayClose":"23:59","feeInfo":"무료","phone":"042-120","updatedAt":"2022-12-15","sido":"대전광역시","sigungu":"유성구","dong":"세동"},{"name":"원내동 임시공영(1)","type":"공영","category":"노외","address":"대전광역시 유성구 원내동 79-14","lat":36.3027483,"lng":127.3183216,"totalSpaces":12,"isFree":true,"operatingDays":"평일+토요일+공휴일","weekdayOpen":"00:00","weekdayClose":"23:59","weekendOpen":"00:00","weekendClose":"23:59","holidayOpen":"00:00","holidayClose":"23:59","feeInfo":"무료","phone":"042-611-2956","updatedAt":"2026-01-13","sido":"대전광역시","sigungu":"유성구","dong":"원내동"},{"name":"반석동 임시공영(2)","type":"공영","category":"노외","address":"대전광역시 유성구 반석동 651","lat":36.3902894,"lng":127.3142364,"totalSpaces":12,"isFree":true,"operatingDays":"평일+토요일+공휴일","weekdayOpen":"00:00","weekdayClose":"23:59","weekendOpen":"00:00","weekendClose":"23:59","holidayOpen":"00:00","holidayClose":"23:59","feeInfo":"무료","phone":"042-611-2956","updatedAt":"2026-01-13","sido":"대전광역시","sigungu":"유성구","dong":"반석동"},{"name":"상수도사업본부 유성사업소 주변","type":"공영","category":"노상","address":"대전광역시 유성구 봉명동 665-6","lat":36.35873074,"lng":127.3521191,"totalSpaces":12,"isFree":true,"operatingDays":"평일+토요일+공휴일","weekdayOpen":"00:00","weekdayClose":"23:59","weekendOpen":"00:00","weekendClose":"23:59","holidayOpen":"00:00","holidayClose":"23:59","feeInfo":"무료","phone":"042-611-2956","updatedAt":"2026-01-13","sido":"대전광역시","sigungu":"유성구","dong":"봉명동"},{"name":"유성성당 옆","type":"공영","category":"노상","address":"대전광역시 유성구 봉명동 568-1","lat":36.3539559,"lng":127.335802,"totalSpaces":12,"isFree":true,"operatingDays":"평일+토요일+공휴일","weekdayOpen":"00:00","weekdayClose":"23:59","weekendOpen":"00:00","weekendClose":"23:59","holidayOpen":"00:00","holidayClose":"23:59","feeInfo":"무료","phone":"042-611-2956","updatedAt":"2026-01-13","sido":"대전광역시","sigungu":"유성구","dong":"봉명동"},{"name":"벌구소공원 앞","type":"공영","category":"노상","address":"대전광역시 유성구 봉명동 646","lat":36.35766483,"lng":127.3493524,"totalSpaces":12,"isFree":true,"operatingDays":"평일+토요일+공휴일","weekdayOpen":"00:00","weekdayClose":"23:59","weekendOpen":"00:00","weekendClose":"23:59","holidayOpen":"00:00","holidayClose":"23:59","feeInfo":"무료","phone":"042-611-2956","updatedAt":"2026-01-13","sido":"대전광역시","sigungu":"유성구","dong":"봉명동"},{"name":"세동 공영주차장","type":"공영","category":"노외","address":"대전광역시 유성구 세동 136-1","lat":36.2927518,"lng":127.2736541,"totalSpaces":12,"isFree":true,"operatingDays":"평일+토요일+공휴일","weekdayOpen":"00:00","weekdayClose":"23:59","weekendOpen":"00:00","weekendClose":"23:59","holidayOpen":"00:00","holidayClose":"23:59","feeInfo":"무료","phone":"042-611-2956","updatedAt":"2026-01-13","sido":"대전광역시","sigungu":"유성구","dong":"세동"},{"name":"송정동 공영","type":"공영","category":"노외","address":"대전광역시 유성구 송정동 404-1","lat":36.286678,"lng":127.2517888,"totalSpaces":12,"isFree":true,"operatingDays":"평일+토요일+공휴일","weekdayOpen":"00:00","weekdayClose":"23:59","weekendOpen":"00:00","weekendClose":"23:59","holidayOpen":"00:00","holidayClose":"23:59","feeInfo":"무료","phone":"042-611-2956","updatedAt":"2026-01-13","sido":"대전광역시","sigungu":"유성구","dong":"송정동"},{"name":"열매마을4단지 앞","type":"공영","category":"노상","address":"대전광역시 유성구 은구비로 12, (지족동)","lat":36.37574996,"lng":127.3163137,"totalSpaces":11,"isFree":true,"operatingDays":"평일+토요일+공휴일","weekdayOpen":"00:00","weekdayClose":"23:59","weekendOpen":"00:00","weekendClose":"23:59","holidayOpen":"00:00","holidayClose":"23:59","feeInfo":"무료","phone":"042-120","updatedAt":"2022-12-15","sido":"대전광역시","sigungu":"유성구","dong":"지족동"},{"name":"열매마을4단지 앞","type":"공영","category":"노상","address":"대전광역시 유성구 지족동 884-4","lat":36.3757554,"lng":127.3163143,"totalSpaces":11,"isFree":true,"operatingDays":"평일+토요일+공휴일","weekdayOpen":"00:00","weekdayClose":"23:59","weekendOpen":"00:00","weekendClose":"23:59","holidayOpen":"00:00","holidayClose":"23:59","feeInfo":"무료","phone":"042-611-2956","updatedAt":"2026-01-13","sido":"대전광역시","sigungu":"유성구","dong":"지족동"},{"name":"반석동 제2공영","type":"공영","category":"노외","address":"대전광역시 유성구 반석동 714","lat":36.41221825,"lng":127.376797,"totalSpaces":10,"isFree":true,"operatingDays":"평일+토요일+공휴일","weekdayOpen":"00:00","weekdayClose":"23:59","weekendOpen":"00:00","weekendClose":"23:59","holidayOpen":"00:00","holidayClose":"23:59","feeInfo":"무료","phone":"042-120","updatedAt":"2022-12-15","sido":"대전광역시","sigungu":"유성구","dong":"반석동"},{"name":"대전원예농협~대신수산","type":"공영","category":"노상","address":"대전광역시 유성구 노은동로 8, (노은동)","lat":36.36300258,"lng":127.3188584,"totalSpaces":10,"isFree":true,"operatingDays":"평일+토요일+공휴일","weekdayOpen":"00:00","weekdayClose":"23:59","weekendOpen":"00:00","weekendClose":"23:59","holidayOpen":"00:00","holidayClose":"23:59","feeInfo":"무료","phone":"042-120","updatedAt":"2022-12-15","sido":"대전광역시","sigungu":"유성구","dong":"노은동"},{"name":"원신흥동 임시공영(4)","type":"공영","category":"노외","address":"대전광역시 유성구 원신흥동 548-12","lat":36.335844,"lng":127.3395429,"totalSpaces":10,"isFree":true,"operatingDays":"평일+토요일+공휴일","weekdayOpen":"00:00","weekdayClose":"23:59","weekendOpen":"00:00","weekendClose":"23:59","holidayOpen":"00:00","holidayClose":"23:59","feeInfo":"무료","phone":"042-611-2956","updatedAt":"2026-01-13","sido":"대전광역시","sigungu":"유성구","dong":"원신흥동"},{"name":"반석동 제2공영(아가랑도서관 옆)","type":"공영","category":"노외","address":"대전광역시 유성구 반석동 714","lat":36.3905776,"lng":127.3063864,"totalSpaces":10,"isFree":true,"operatingDays":"평일+토요일+공휴일","weekdayOpen":"00:00","weekdayClose":"23:59","weekendOpen":"00:00","weekendClose":"23:59","holidayOpen":"00:00","holidayClose":"23:59","feeInfo":"무료","phone":"042-611-2956","updatedAt":"2026-01-13","sido":"대전광역시","sigungu":"유성구","dong":"반석동"},{"name":"궁동교 주변","type":"공영","category":"노상","address":"대전광역시 유성구 장대동 305-1","lat":36.3661172,"lng":127.3380057,"totalSpaces":10,"isFree":true,"operatingDays":"평일+토요일+공휴일","weekdayOpen":"00:00","weekdayClose":"23:59","weekendOpen":"00:00","weekendClose":"23:59","holidayOpen":"00:00","holidayClose":"23:59","feeInfo":"무료","phone":"042-611-2956","updatedAt":"2026-01-13","sido":"대전광역시","sigungu":"유성구","dong":"장대동"},{"name":"봉산동 709-11 일원","type":"공영","category":"노상","address":"대전광역시 유성구 봉산동 709-11","lat":36.44599317,"lng":127.3833637,"totalSpaces":10,"isFree":true,"operatingDays":"평일+토요일+공휴일","weekdayOpen":"00:00","weekdayClose":"23:59","weekendOpen":"00:00","weekendClose":"23:59","holidayOpen":"00:00","holidayClose":"23:59","feeInfo":"무료","phone":"042-611-2956","updatedAt":"2026-01-13","sido":"대전광역시","sigungu":"유성구","dong":"봉산동"},{"name":"설목마을 공영","type":"공영","category":"노외","address":"대전광역시 유성구 대덕대로925번길 24, (화암동)","lat":36.41222206,"lng":127.3767955,"totalSpaces":9,"isFree":true,"operatingDays":"평일+토요일+공휴일","weekdayOpen":"00:00","weekdayClose":"23:59","weekendOpen":"00:00","weekendClose":"23:59","holidayOpen":"00:00","holidayClose":"23:59","feeInfo":"무료","phone":"042-120","updatedAt":"2022-12-15","sido":"대전광역시","sigungu":"유성구","dong":"화암동"},{"name":"청주해장국 앞","type":"공영","category":"노상","address":"대전광역시 유성구 봉명동 538-16","lat":36.3553585,"lng":127.3449268,"totalSpaces":9,"isFree":true,"operatingDays":"평일+토요일+공휴일","weekdayOpen":"00:00","weekdayClose":"23:59","weekendOpen":"00:00","weekendClose":"23:59","holidayOpen":"00:00","holidayClose":"23:59","feeInfo":"무료","phone":"042-611-2956","updatedAt":"2026-01-13","sido":"대전광역시","sigungu":"유성구","dong":"봉명동"},{"name":"설목마을 공영","type":"공영","category":"노외","address":"대전광역시 유성구 화암동 155-37","lat":36.41222206,"lng":127.3767955,"totalSpaces":9,"isFree":true,"operatingDays":"평일+토요일+공휴일","weekdayOpen":"00:00","weekdayClose":"23:59","weekendOpen":"00:00","weekendClose":"23:59","holidayOpen":"00:00","holidayClose":"23:59","feeInfo":"무료","phone":"042-611-2956","updatedAt":"2026-01-13","sido":"대전광역시","sigungu":"유성구","dong":"화암동"},{"name":"온천1동주민센터앞","type":"공영","category":"노상","address":"대전광역시 유성구 도안대로589번길 35, (봉명동)","lat":36.35311603,"lng":127.3389679,"totalSpaces":8,"isFree":true,"operatingDays":"평일+토요일+공휴일","weekdayOpen":"00:00","weekdayClose":"23:59","weekendOpen":"00:00","weekendClose":"23:59","holidayOpen":"00:00","holidayClose":"23:59","feeInfo":"무료","phone":"042-120","updatedAt":"2022-12-15","sido":"대전광역시","sigungu":"유성구","dong":"봉명동"},{"name":"유성고등학교 주변","type":"공영","category":"노상","address":"대전광역시 유성구 도안대로549번길 60, (구암동)","lat":36.34971868,"lng":127.3368407,"totalSpaces":8,"isFree":true,"operatingDays":"평일+토요일+공휴일","weekdayOpen":"00:00","weekdayClose":"23:59","weekendOpen":"00:00","weekendClose":"23:59","holidayOpen":"00:00","holidayClose":"23:59","feeInfo":"무료","phone":"042-120","updatedAt":"2022-12-15","sido":"대전광역시","sigungu":"유성구","dong":"구암동"},{"name":"원내동 중앙장로교회 앞","type":"공영","category":"노상","address":"대전광역시 유성구 진잠로102번길 75, (원내동, 이화빌라)","lat":36.30111927,"lng":127.3197162,"totalSpaces":8,"isFree":true,"operatingDays":"평일+토요일+공휴일","weekdayOpen":"00:00","weekdayClose":"23:59","weekendOpen":"00:00","weekendClose":"23:59","holidayOpen":"00:00","holidayClose":"23:59","feeInfo":"무료","phone":"042-120","updatedAt":"2022-12-15","sido":"대전광역시","sigungu":"유성구","dong":"원내동"},{"name":"수통골 공영주차장 입구 주변","type":"공영","category":"노상","address":"대전광역시 유성구 계산동 352-8","lat":36.34561624,"lng":127.2932526,"totalSpaces":8,"isFree":true,"operatingDays":"평일+토요일+공휴일","weekdayOpen":"00:00","weekdayClose":"23:59","weekendOpen":"00:00","weekendClose":"23:59","holidayOpen":"00:00","holidayClose":"23:59","feeInfo":"무료","phone":"042-120","updatedAt":"2022-12-15","sido":"대전광역시","sigungu":"유성구","dong":"계산동"},{"name":"진잠우체국 앞","type":"공영","category":"노상","address":"대전광역시 유성구 원내로39번길 25, (원내동)","lat":36.30105629,"lng":127.3200719,"totalSpaces":8,"isFree":true,"operatingDays":"평일+토요일+공휴일","weekdayOpen":"00:00","weekdayClose":"23:59","weekendOpen":"00:00","weekendClose":"23:59","holidayOpen":"00:00","holidayClose":"23:59","feeInfo":"무료","phone":"042-120","updatedAt":"2022-12-15","sido":"대전광역시","sigungu":"유성구","dong":"원내동"},{"name":"진잠우체국 앞","type":"공영","category":"노상","address":"대전광역시 유성구 원내동 93-12","lat":36.3005762,"lng":127.3199514,"totalSpaces":8,"isFree":true,"operatingDays":"평일+토요일+공휴일","weekdayOpen":"00:00","weekdayClose":"23:59","weekendOpen":"00:00","weekendClose":"23:59","holidayOpen":"00:00","holidayClose":"23:59","feeInfo":"무료","phone":"042-611-2956","updatedAt":"2026-01-13","sido":"대전광역시","sigungu":"유성구","dong":"원내동"},{"name":"유성고등학교 주변","type":"공영","category":"노상","address":"대전광역시 유성구 구암동 611-31","lat":36.3497171,"lng":127.3368411,"totalSpaces":8,"isFree":true,"operatingDays":"평일+토요일+공휴일","weekdayOpen":"00:00","weekdayClose":"23:59","weekendOpen":"00:00","weekendClose":"23:59","holidayOpen":"00:00","holidayClose":"23:59","feeInfo":"무료","phone":"042-611-2956","updatedAt":"2026-01-13","sido":"대전광역시","sigungu":"유성구","dong":"구암동"},{"name":"원내동 중앙장로교회앞","type":"공영","category":"노상","address":"대전광역시 유성구 원내동 92-3","lat":36.3009756,"lng":127.3188158,"totalSpaces":8,"isFree":true,"operatingDays":"평일+토요일+공휴일","weekdayOpen":"00:00","weekdayClose":"23:59","weekendOpen":"00:00","weekendClose":"23:59","holidayOpen":"00:00","holidayClose":"23:59","feeInfo":"무료","phone":"042-611-2956","updatedAt":"2026-01-13","sido":"대전광역시","sigungu":"유성구","dong":"원내동"},{"name":"수통골 공영주차장 입구 주변","type":"공영","category":"노상","address":"대전광역시 유성구 계산동 352-8","lat":36.3456874,"lng":127.2932526,"totalSpaces":8,"isFree":true,"operatingDays":"평일+토요일+공휴일","weekdayOpen":"00:00","weekdayClose":"23:59","weekendOpen":"00:00","weekendClose":"23:59","holidayOpen":"00:00","holidayClose":"23:59","feeInfo":"무료","phone":"042-611-2956","updatedAt":"2026-01-13","sido":"대전광역시","sigungu":"유성구","dong":"계산동"},{"name":"온천1동주민센터앞","type":"공영","category":"노상","address":"대전광역시 유성구 봉명동 451","lat":36.35311603,"lng":127.338963,"totalSpaces":8,"isFree":true,"operatingDays":"평일+토요일+공휴일","weekdayOpen":"00:00","weekdayClose":"23:59","weekendOpen":"00:00","weekendClose":"23:59","holidayOpen":"00:00","holidayClose":"23:59","feeInfo":"무료","phone":"042-611-2956","updatedAt":"2026-01-13","sido":"대전광역시","sigungu":"유성구","dong":"봉명동"},{"name":"죽동 임시공영(1)","type":"공영","category":"노외","address":"대전광역시 유성구 죽동 720-7","lat":36.37238433,"lng":127.3401145,"totalSpaces":7,"isFree":true,"operatingDays":"평일+토요일+공휴일","weekdayOpen":"00:00","weekdayClose":"23:59","weekendOpen":"00:00","weekendClose":"23:59","holidayOpen":"00:00","holidayClose":"23:59","feeInfo":"무료","phone":"042-611-2956","updatedAt":"2026-01-13","sido":"대전광역시","sigungu":"유성구","dong":"죽동"},{"name":"유성우체국 옆","type":"공영","category":"노상","address":"대전광역시 유성구 온천로 51, (봉명동)","lat":36.35565938,"lng":127.3436539,"totalSpaces":7,"isFree":true,"operatingDays":"평일+토요일+공휴일","weekdayOpen":"00:00","weekdayClose":"23:59","weekendOpen":"00:00","weekendClose":"23:59","holidayOpen":"00:00","holidayClose":"23:59","feeInfo":"무료","phone":"042-120","updatedAt":"2022-12-15","sido":"대전광역시","sigungu":"유성구","dong":"봉명동"},{"name":"유성우체국 옆","type":"공영","category":"노상","address":"대전광역시 유성구 봉명동 537-8","lat":36.35565964,"lng":127.3436539,"totalSpaces":7,"isFree":true,"operatingDays":"평일+토요일+공휴일","weekdayOpen":"00:00","weekdayClose":"23:59","weekendOpen":"00:00","weekendClose":"23:59","holidayOpen":"00:00","holidayClose":"23:59","feeInfo":"무료","phone":"042-611-2956","updatedAt":"2026-01-13","sido":"대전광역시","sigungu":"유성구","dong":"봉명동"},{"name":"장대동 임시공영","type":"공영","category":"노외","address":"대전광역시 유성구 장대동 381","lat":36.35761,"lng":127.3397379,"totalSpaces":4,"isFree":true,"operatingDays":"평일+토요일+공휴일","weekdayOpen":"00:00","weekdayClose":"23:59","weekendOpen":"00:00","weekendClose":"23:59","holidayOpen":"00:00","holidayClose":"23:59","feeInfo":"무료","phone":"042-611-2956","updatedAt":"2026-01-13","sido":"대전광역시","sigungu":"유성구","dong":"장대동"},{"name":"원내동공영","type":"공영","category":"노외","address":"대전광역시 유성구 진잠로66번길 45, (원내동)","lat":36.29832235,"lng":127.3193786,"totalSpaces":127,"isFree":false,"operatingDays":"평일+토요일+공휴일","weekdayOpen":"00:00","weekdayClose":"23:59","weekendOpen":"00:00","weekendClose":"23:59","holidayOpen":"00:00","holidayClose":"23:59","feeInfo":"기본 10분 100원 / 추가 10분당 100원","phone":"042-120","updatedAt":"2022-12-15","sido":"대전광역시","sigungu":"유성구","dong":"원내동"},{"name":"원내동공영","type":"공영","category":"노외","address":"대전광역시 유성구 원내동 341-6","lat":36.2983201,"lng":127.3193733,"totalSpaces":127,"isFree":false,"operatingDays":"평일","weekdayOpen":"08:00","weekdayClose":"22:00","weekendOpen":"00:00","weekendClose":"00:00","holidayOpen":"00:00","holidayClose":"00:00","feeInfo":"기본 60분 0원 / 추가 10분당 100원","phone":"042-611-2956","updatedAt":"2026-01-13","sido":"대전광역시","sigungu":"유성구","dong":"원내동"},{"name":"도룡동공영(上)","type":"공영","category":"노외","address":"대전광역시 유성구 도룡동 385-1","lat":36.38668292,"lng":127.3793098,"totalSpaces":96,"isFree":false,"operatingDays":"평일+토요일","weekdayOpen":"00:00","weekdayClose":"23:59","weekendOpen":"00:00","weekendClose":"23:59","holidayOpen":"00:00","holidayClose":"00:00","feeInfo":"기본 10분 150원 / 추가 10분당 150원","phone":"042-120","updatedAt":"2022-12-15","sido":"대전광역시","sigungu":"유성구","dong":"도룡동"},{"name":"도룡동공영(上)","type":"공영","category":"노외","address":"대전광역시 유성구 도룡동 385-1","lat":36.3866889,"lng":127.379307,"totalSpaces":96,"isFree":false,"operatingDays":"평일","weekdayOpen":"08:00","weekdayClose":"22:00","weekendOpen":"00:00","weekendClose":"00:00","holidayOpen":"00:00","holidayClose":"00:00","feeInfo":"기본 60분 0원 / 추가 10분당 150원","phone":"042-611-2956","updatedAt":"2026-01-13","sido":"대전광역시","sigungu":"유성구","dong":"도룡동"},{"name":"도룡동공영(下)","type":"공영","category":"노외","address":"대전광역시 유성구 도룡동 395-10","lat":36.38468494,"lng":127.3792863,"totalSpaces":90,"isFree":false,"operatingDays":"평일+토요일","weekdayOpen":"00:00","weekdayClose":"23:59","weekendOpen":"00:00","weekendClose":"23:59","holidayOpen":"00:00","holidayClose":"00:00","feeInfo":"기본 10분 150원 / 추가 10분당 150원","phone":"042-120","updatedAt":"2022-12-15","sido":"대전광역시","sigungu":"유성구","dong":"도룡동"},{"name":"도룡동공영(下)","type":"공영","category":"노외","address":"대전광역시 유성구 도룡동 395-10","lat":36.384661,"lng":127.3792897,"totalSpaces":90,"isFree":false,"operatingDays":"평일","weekdayOpen":"08:00","weekdayClose":"22:00","weekendOpen":"00:00","weekendClose":"00:00","holidayOpen":"00:00","holidayClose":"00:00","feeInfo":"기본 60분 0원 / 추가 10분당 150원","phone":"042-611-2956","updatedAt":"2026-01-13","sido":"대전광역시","sigungu":"유성구","dong":"도룡동"},{"name":"송강동(프라자옆)공영","type":"공영","category":"노외","address":"대전광역시 유성구 송강동 16-1","lat":36.43583938,"lng":127.3860005,"totalSpaces":86,"isFree":false,"operatingDays":"평일","weekdayOpen":"08:00","weekdayClose":"22:00","weekendOpen":"00:00","weekendClose":"00:00","holidayOpen":"00:00","holidayClose":"00:00","feeInfo":"기본 10분 100원 / 추가 10분당 100원","phone":"042-120","updatedAt":"2022-12-15","sido":"대전광역시","sigungu":"유성구","dong":"송강동"},{"name":"송강동(프라자옆)공영","type":"공영","category":"노외","address":"대전광역시 유성구 송강동 16-1","lat":36.4358228,"lng":127.3860096,"totalSpaces":86,"isFree":false,"operatingDays":"평일","weekdayOpen":"08:00","weekdayClose":"22:00","weekendOpen":"00:00","weekendClose":"00:00","holidayOpen":"00:00","holidayClose":"00:00","feeInfo":"기본 60분 0원 / 추가 10분당 100원","phone":"042-611-2956","updatedAt":"2026-01-13","sido":"대전광역시","sigungu":"유성구","dong":"송강동"},{"name":"송강동(GS마트앞)공영","type":"공영","category":"노외","address":"대전광역시 유성구 구즉로58번길 15-12, (송강동)","lat":36.43441777,"lng":127.3865088,"totalSpaces":53,"isFree":false,"operatingDays":"평일","weekdayOpen":"00:00","weekdayClose":"23:59","weekendOpen":"00:00","weekendClose":"00:00","holidayOpen":"00:00","holidayClose":"00:00","feeInfo":"기본 10분 100원 / 추가 10분당 100원","phone":"042-120","updatedAt":"2022-12-15","sido":"대전광역시","sigungu":"유성구","dong":"송강동"},{"name":"송강동(GS마트앞)공영","type":"공영","category":"노외","address":"대전광역시 유성구 송강동 36-2","lat":36.43441777,"lng":127.3865088,"totalSpaces":53,"isFree":false,"operatingDays":"평일","weekdayOpen":"08:00","weekdayClose":"22:00","weekendOpen":"00:00","weekendClose":"00:00","holidayOpen":"00:00","holidayClose":"00:00","feeInfo":"기본 60분 0원 / 추가 10분당 100원","phone":"042-611-2956","updatedAt":"2026-01-13","sido":"대전광역시","sigungu":"유성구","dong":"송강동"},{"name":"봉명동공영","type":"공영","category":"노외","address":"대전광역시 유성구 봉명동 554-12","lat":36.3525375,"lng":127.3399925,"totalSpaces":43,"isFree":false,"operatingDays":"평일","weekdayOpen":"08:00","weekdayClose":"22:00","weekendOpen":"00:00","weekendClose":"00:00","holidayOpen":"00:00","holidayClose":"00:00","feeInfo":"기본 60분 0원 / 추가 10분당 100원","phone":"042-611-2956","updatedAt":"2026-01-13","sido":"대전광역시","sigungu":"유성구","dong":"봉명동"},{"name":"전민동 제1공영","type":"공영","category":"노외","address":"대전광역시 유성구 전민동 332-4","lat":36.39858478,"lng":127.4034104,"totalSpaces":37,"isFree":false,"operatingDays":"평일","weekdayOpen":"08:00","weekdayClose":"22:00","weekendOpen":"00:00","weekendClose":"00:00","holidayOpen":"00:00","holidayClose":"00:00","feeInfo":"기본 10분 100원 / 추가 10분당 100원","phone":"042-120","updatedAt":"2022-12-15","sido":"대전광역시","sigungu":"유성구","dong":"전민동"},{"name":"전민동 제1공영","type":"공영","category":"노외","address":"대전광역시 유성구 전민동 332-6","lat":36.3983745,"lng":127.4034054,"totalSpaces":37,"isFree":false,"operatingDays":"평일","weekdayOpen":"08:00","weekdayClose":"22:00","weekendOpen":"00:00","weekendClose":"00:00","holidayOpen":"00:00","holidayClose":"00:00","feeInfo":"기본 60분 0원 / 추가 10분당 100원","phone":"042-611-2956","updatedAt":"2026-01-13","sido":"대전광역시","sigungu":"유성구","dong":"전민동"},{"name":"계룡스파텔 옆","type":"공영","category":"노상","address":"대전광역시 유성구 온천로 81, (봉명동)","lat":36.35513271,"lng":127.3478811,"totalSpaces":29,"isFree":false,"operatingDays":"평일","weekdayOpen":"08:00","weekdayClose":"22:00","weekendOpen":"00:00","weekendClose":"00:00","holidayOpen":"00:00","holidayClose":"00:00","feeInfo":"기본 10분 400원 / 추가 10분당 300원","phone":"042-120","updatedAt":"2022-12-15","sido":"대전광역시","sigungu":"유성구","dong":"봉명동"},{"name":"봉명동 노상 무인공영주차장(계룡스파텔 옆)","type":"공영","category":"노상","address":"대전광역시 유성구 봉명동 538-5","lat":36.35640276,"lng":127.3453749,"totalSpaces":29,"isFree":false,"operatingDays":"평일","weekdayOpen":"08:00","weekdayClose":"22:00","weekendOpen":"00:00","weekendClose":"00:00","holidayOpen":"00:00","holidayClose":"00:00","feeInfo":"기본 10분 400원 / 추가 10분당 300원","phone":"042-611-2956","updatedAt":"2026-01-13","sido":"대전광역시","sigungu":"유성구","dong":"봉명동"},{"name":"아드리아호텔 앞","type":"공영","category":"노상","address":"대전광역시 유성구 온천로 27, (봉명동)","lat":36.35601339,"lng":127.340832,"totalSpaces":26,"isFree":false,"operatingDays":"평일","weekdayOpen":"08:00","weekdayClose":"22:00","weekendOpen":"00:00","weekendClose":"00:00","holidayOpen":"00:00","holidayClose":"00:00","feeInfo":"기본 10분 400원 / 추가 10분당 300원","phone":"042-120","updatedAt":"2022-12-15","sido":"대전광역시","sigungu":"유성구","dong":"봉명동"},{"name":"봉명동 노상 무인공영주차장(아드리아호텔 앞)","type":"공영","category":"노상","address":"대전광역시 유성구 봉명동 442-2","lat":36.3560804,"lng":127.3401854,"totalSpaces":26,"isFree":false,"operatingDays":"평일","weekdayOpen":"08:00","weekdayClose":"22:00","weekendOpen":"00:00","weekendClose":"00:00","holidayOpen":"00:00","holidayClose":"00:00","feeInfo":"기본 10분 400원 / 추가 10분당 300원","phone":"042-611-2956","updatedAt":"2026-01-13","sido":"대전광역시","sigungu":"유성구","dong":"봉명동"},{"name":"유성우체국 앞","type":"공영","category":"노상","address":"대전광역시 유성구 온천로 45, (봉명동)","lat":36.35581805,"lng":127.3430064,"totalSpaces":21,"isFree":false,"operatingDays":"평일","weekdayOpen":"08:00","weekdayClose":"22:00","weekendOpen":"00:00","weekendClose":"00:00","holidayOpen":"00:00","holidayClose":"00:00","feeInfo":"기본 10분 400원 / 추가 10분당 300원","phone":"042-120","updatedAt":"2022-12-15","sido":"대전광역시","sigungu":"유성구","dong":"봉명동"},{"name":"봉명동 노상 무인공영주차장(유성우체국 앞)","type":"공영","category":"노상","address":"대전광역시 유성구 봉명동 537-8","lat":36.35565964,"lng":127.3436539,"totalSpaces":21,"isFree":false,"operatingDays":"평일","weekdayOpen":"08:00","weekdayClose":"22:00","weekendOpen":"00:00","weekendClose":"00:00","holidayOpen":"00:00","holidayClose":"00:00","feeInfo":"기본 10분 400원 / 추가 10분당 300원","phone":"042-611-2956","updatedAt":"2026-01-13","sido":"대전광역시","sigungu":"유성구","dong":"봉명동"},{"name":"유성호텔 앞","type":"공영","category":"노상","address":"대전광역시 유성구 봉명동 528","lat":36.35414684,"lng":127.3389872,"totalSpaces":20,"isFree":false,"operatingDays":"평일","weekdayOpen":"08:00","weekdayClose":"22:00","weekendOpen":"00:00","weekendClose":"00:00","holidayOpen":"00:00","holidayClose":"00:00","feeInfo":"기본 10분 400원 / 추가 10분당 300원","phone":"042-120","updatedAt":"2022-12-15","sido":"대전광역시","sigungu":"유성구","dong":"봉명동"},{"name":"청주해장국 앞","type":"공영","category":"노상","address":"대전광역시 유성구 대학로 23, (봉명동)","lat":36.35606304,"lng":127.3417545,"totalSpaces":9,"isFree":false,"operatingDays":"평일","weekdayOpen":"08:00","weekdayClose":"22:00","weekendOpen":"00:00","weekendClose":"00:00","holidayOpen":"00:00","holidayClose":"00:00","feeInfo":"기본 10분 400원 / 추가 10분당 300원","phone":"042-120","updatedAt":"2022-12-15","sido":"대전광역시","sigungu":"유성구","dong":"봉명동"}]}