{"sido":"경기도","sigungu":"가평군","totalCount":52,"validCount":52,"items":[{"name":"무료 공영주차장(8)","type":"공영","category":"노외","address":"경기도 가평군 북면 도대리 661","lat":37.927431,"lng":127.492673,"totalSpaces":96,"isFree":true,"operatingDays":"평일+토요일+공휴일","weekdayOpen":"00:00","weekdayClose":"23:59","weekendOpen":"00:00","weekendClose":"23:59","holidayOpen":"00:00","holidayClose":"23:59","feeInfo":"무료","phone":"031-580-2075","updatedAt":"2025-05-23","sido":"경기도","sigungu":"가평군","dong":"북면"},{"name":"레일바이크 공영주차장","type":"공영","category":"노외","address":"경기도 가평군 가평읍 읍내리 395-1","lat":37.82897059,"lng":127.515853614,"totalSpaces":80,"isFree":true,"operatingDays":"평일+토요일+공휴일","weekdayOpen":"00:00","weekdayClose":"23:59","weekendOpen":"00:00","weekendClose":"23:59","holidayOpen":"00:00","holidayClose":"23:59","feeInfo":"무료","phone":"031-580-2075","updatedAt":"2025-05-23","sido":"경기도","sigungu":"가평군","dong":"가평읍"},{"name":"무료 공영주차장(4)","type":"공영","category":"노외","address":"경기도 가평군 조종면 상판리 565","lat":37.9227345557,"lng":127.3939454742,"totalSpaces":66,"isFree":true,"operatingDays":"평일+토요일+공휴일","weekdayOpen":"00:00","weekdayClose":"23:59","weekendOpen":"00:00","weekendClose":"23:59","holidayOpen":"00:00","holidayClose":"23:59","feeInfo":"무료","phone":"031-580-2075","updatedAt":"2025-05-23","sido":"경기도","sigungu":"가평군","dong":"조종면"},{"name":"설악면 임시공영주차장(2)","type":"공영","category":"노외","address":"경기도 가평군 설악면 신천리 492-8","lat":37.678829,"lng":127.491629,"totalSpaces":60,"isFree":true,"operatingDays":"평일+토요일+공휴일","weekdayOpen":"00:00","weekdayClose":"23:59","weekendOpen":"00:00","weekendClose":"23:59","holidayOpen":"00:00","holidayClose":"23:59","feeInfo":"무료","phone":"031-580-2075","updatedAt":"2025-05-23","sido":"경기도","sigungu":"가평군","dong":"설악면"},{"name":"무료 공영주차장(1)","type":"공영","category":"노외","address":"경기도 가평군 가평읍 달전리 445","lat":37.813219,"lng":127.511974,"totalSpaces":54,"isFree":true,"operatingDays":"평일+토요일+공휴일","weekdayOpen":"00:00","weekdayClose":"23:59","weekendOpen":"00:00","weekendClose":"23:59","holidayOpen":"00:00","holidayClose":"23:59","feeInfo":"무료","phone":"031-580-2075","updatedAt":"2025-05-23","sido":"경기도","sigungu":"가평군","dong":"가평읍"},{"name":"적목리 공영주차장","type":"공영","category":"노외","address":"경기도 가평군 북면 적목리 산1-44","lat":38.0187209319,"lng":127.4426741282,"totalSpaces":52,"isFree":true,"operatingDays":"평일+토요일+공휴일","weekdayOpen":"00:00","weekdayClose":"23:59","weekendOpen":"00:00","weekendClose":"23:59","holidayOpen":"00:00","holidayClose":"23:59","feeInfo":"무료","phone":"031-580-2075","updatedAt":"2025-05-23","sido":"경기도","sigungu":"가평군","dong":"북면"},{"name":"무료 공영주차장(3)","type":"공영","category":"노외","address":"경기도 가평군 청평면 청평리 627-9","lat":37.733169,"lng":127.413478,"totalSpaces":51,"isFree":true,"operatingDays":"평일+토요일+공휴일","weekdayOpen":"00:00","weekdayClose":"23:59","weekendOpen":"00:00","weekendClose":"23:59","holidayOpen":"00:00","holidayClose":"23:59","feeInfo":"무료","phone":"031-580-2075","updatedAt":"2025-05-23","sido":"경기도","sigungu":"가평군","dong":"청평면"},{"name":"가평읍 임시공영주차장(3)","type":"공영","category":"노외","address":"경기도 가평군 가평읍 읍내리 616","lat":37.833645,"lng":127.509865,"totalSpaces":41,"isFree":true,"operatingDays":"평일+토요일+공휴일","weekdayOpen":"00:00","weekdayClose":"23:59","weekendOpen":"00:00","weekendClose":"23:59","holidayOpen":"00:00","holidayClose":"23:59","feeInfo":"무료","phone":"031-580-2075","updatedAt":"2025-05-23","sido":"경기도","sigungu":"가평군","dong":"가평읍"},{"name":"무료 공영주차장(6)","type":"공영","category":"노외","address":"경기도 가평군 조종면 현리 547-24","lat":37.821448,"lng":127.350356,"totalSpaces":40,"isFree":true,"operatingDays":"평일+토요일+공휴일","weekdayOpen":"00:00","weekdayClose":"23:59","weekendOpen":"00:00","weekendClose":"23:59","holidayOpen":"00:00","holidayClose":"23:59","feeInfo":"무료","phone":"031-580-2075","updatedAt":"2025-05-23","sido":"경기도","sigungu":"가평군","dong":"조종면"},{"name":"무료 공영주차장(7)","type":"공영","category":"노외","address":"경기도 가평군 조종면 현리 297-3","lat":37.820217,"lng":127.346475,"totalSpaces":39,"isFree":true,"operatingDays":"평일+토요일+공휴일","weekdayOpen":"00:00","weekdayClose":"23:59","weekendOpen":"00:00","weekendClose":"23:59","holidayOpen":"00:00","holidayClose":"23:59","feeInfo":"무료","phone":"031-580-2075","updatedAt":"2025-05-23","sido":"경기도","sigungu":"가평군","dong":"조종면"},{"name":"청평면 임시공영주차장(1)","type":"공영","category":"노외","address":"경기도 가평군 청평면 청평리 79-11","lat":37.736006,"lng":127.417864,"totalSpaces":38,"isFree":true,"operatingDays":"평일+토요일+공휴일","weekdayOpen":"00:00","weekdayClose":"23:59","weekendOpen":"00:00","weekendClose":"23:59","holidayOpen":"00:00","holidayClose":"23:59","feeInfo":"무료","phone":"031-580-2075","updatedAt":"2025-05-23","sido":"경기도","sigungu":"가평군","dong":"청평면"},{"name":"무료 공영주차장(9)","type":"공영","category":"노외","address":"경기도 가평군 북면 백둔리 371-6","lat":37.902596,"lng":127.457147,"totalSpaces":28,"isFree":true,"operatingDays":"평일+토요일+공휴일","weekdayOpen":"00:00","weekdayClose":"23:59","weekendOpen":"00:00","weekendClose":"23:59","holidayOpen":"00:00","holidayClose":"23:59","feeInfo":"무료","phone":"031-580-2075","updatedAt":"2025-05-23","sido":"경기도","sigungu":"가평군","dong":"북면"},{"name":"가평읍 임시공영주차장(1)","type":"공영","category":"노외","address":"경기도 가평군 가평읍 읍내리 495-37","lat":37.830176,"lng":127.510312,"totalSpaces":27,"isFree":true,"operatingDays":"평일+토요일+공휴일","weekdayOpen":"00:00","weekdayClose":"23:59","weekendOpen":"00:00","weekendClose":"23:59","holidayOpen":"00:00","holidayClose":"23:59","feeInfo":"무료","phone":"031-580-2075","updatedAt":"2025-05-23","sido":"경기도","sigungu":"가평군","dong":"가평읍"},{"name":"자투리주차장(2)","type":"공영","category":"노외","address":"경기도 가평군 가평읍 달전리 581","lat":37.813346,"lng":127.510194,"totalSpaces":27,"isFree":true,"operatingDays":"평일+토요일+공휴일","weekdayOpen":"00:00","weekdayClose":"23:59","weekendOpen":"00:00","weekendClose":"23:59","holidayOpen":"00:00","holidayClose":"23:59","feeInfo":"무료","phone":"031-580-2075","updatedAt":"2025-05-23","sido":"경기도","sigungu":"가평군","dong":"가평읍"},{"name":"가평읍 임시공영주차장(2)","type":"공영","category":"노외","address":"경기도 가평군 가평읍 읍내리 426-17","lat":37.831657,"lng":127.515009,"totalSpaces":24,"isFree":true,"operatingDays":"평일+토요일+공휴일","weekdayOpen":"00:00","weekdayClose":"23:59","weekendOpen":"00:00","weekendClose":"23:59","holidayOpen":"00:00","holidayClose":"23:59","feeInfo":"무료","phone":"031-580-2075","updatedAt":"2025-05-23","sido":"경기도","sigungu":"가평군","dong":"가평읍"},{"name":"가평읍 임시공영주차장(6)","type":"공영","category":"노외","address":"경기도 가평군 가평읍 읍내리 780-1","lat":37.836202,"lng":127.507147,"totalSpaces":24,"isFree":true,"operatingDays":"평일+토요일+공휴일","weekdayOpen":"00:00","weekdayClose":"23:59","weekendOpen":"00:00","weekendClose":"23:59","holidayOpen":"00:00","holidayClose":"23:59","feeInfo":"무료","phone":"031-580-2075","updatedAt":"2025-05-23","sido":"경기도","sigungu":"가평군","dong":"가평읍"},{"name":"가평읍 임시공영주차장(7)","type":"공영","category":"노외","address":"경기도 가평군 가평읍 대곡리 95-2","lat":37.818487,"lng":127.514695,"totalSpaces":24,"isFree":true,"operatingDays":"평일+토요일+공휴일","weekdayOpen":"00:00","weekdayClose":"23:59","weekendOpen":"00:00","weekendClose":"23:59","holidayOpen":"00:00","holidayClose":"23:59","feeInfo":"무료","phone":"031-580-2075","updatedAt":"2025-05-23","sido":"경기도","sigungu":"가평군","dong":"가평읍"},{"name":"청평면 임시공영주차장(3)","type":"공영","category":"노외","address":"경기도 가평군 청평면 청평리 633-8","lat":37.731831,"lng":127.411538,"totalSpaces":23,"isFree":true,"operatingDays":"평일+토요일+공휴일","weekdayOpen":"00:00","weekdayClose":"23:59","weekendOpen":"00:00","weekendClose":"23:59","holidayOpen":"00:00","holidayClose":"23:59","feeInfo":"무료","phone":"031-580-2075","updatedAt":"2025-05-23","sido":"경기도","sigungu":"가평군","dong":"청평면"},{"name":"가평읍 임시공영주차장(5)","type":"공영","category":"노외","address":"경기도 가평군 가평읍 읍내리 468-36","lat":37.82923,"lng":127.512227,"totalSpaces":20,"isFree":true,"operatingDays":"평일+토요일+공휴일","weekdayOpen":"00:00","weekdayClose":"23:59","weekendOpen":"00:00","weekendClose":"23:59","holidayOpen":"00:00","holidayClose":"23:59","feeInfo":"무료","phone":"031-580-2075","updatedAt":"2025-05-23","sido":"경기도","sigungu":"가평군","dong":"가평읍"},{"name":"청평면 임시공영주차장(2)","type":"공영","category":"노외","address":"경기도 가평군 청평면 청평리 319-10","lat":37.739169,"lng":127.422919,"totalSpaces":20,"isFree":true,"operatingDays":"평일+토요일+공휴일","weekdayOpen":"00:00","weekdayClose":"23:59","weekendOpen":"00:00","weekendClose":"23:59","holidayOpen":"00:00","holidayClose":"23:59","feeInfo":"무료","phone":"031-580-2075","updatedAt":"2025-05-23","sido":"경기도","sigungu":"가평군","dong":"청평면"},{"name":"무료 공영주차장(10)","type":"공영","category":"노외","address":"경기도 가평군 조종면 현리 413-7","lat":37.8163713382,"lng":127.3488538325,"totalSpaces":20,"isFree":true,"operatingDays":"평일+토요일+공휴일","weekdayOpen":"00:00","weekdayClose":"23:59","weekendOpen":"00:00","weekendClose":"23:59","holidayOpen":"00:00","holidayClose":"23:59","feeInfo":"무료","phone":"031-580-2075","updatedAt":"2025-05-23","sido":"경기도","sigungu":"가평군","dong":"조종면"},{"name":"도마치고개 공영주차장","type":"공영","category":"노외","address":"경기도 가평군 북면 적목리 산1-41","lat":38.0408591102,"lng":127.4508737386,"totalSpaces":18,"isFree":true,"operatingDays":"평일+토요일+공휴일","weekdayOpen":"00:00","weekdayClose":"23:59","weekendOpen":"00:00","weekendClose":"23:59","holidayOpen":"00:00","holidayClose":"23:59","feeInfo":"무료","phone":"031-580-2075","updatedAt":"2025-05-23","sido":"경기도","sigungu":"가평군","dong":"북면"},{"name":"가평읍 임시공영주차장(4)","type":"공영","category":"노외","address":"경기도 가평군 가평읍 달전리 601","lat":37.814714,"lng":127.509545,"totalSpaces":18,"isFree":true,"operatingDays":"평일+토요일+공휴일","weekdayOpen":"00:00","weekdayClose":"23:59","weekendOpen":"00:00","weekendClose":"23:59","holidayOpen":"00:00","holidayClose":"23:59","feeInfo":"무료","phone":"031-580-2075","updatedAt":"2025-05-23","sido":"경기도","sigungu":"가평군","dong":"가평읍"},{"name":"설악면 임시공영주차장(1)","type":"공영","category":"노외","address":"경기도 가평군 설악면 신천리 438-2","lat":37.678915,"lng":127.490109,"totalSpaces":18,"isFree":true,"operatingDays":"평일+토요일+공휴일","weekdayOpen":"00:00","weekdayClose":"23:59","weekendOpen":"00:00","weekendClose":"23:59","holidayOpen":"00:00","holidayClose":"23:59","feeInfo":"무료","phone":"031-580-2075","updatedAt":"2025-05-23","sido":"경기도","sigungu":"가평군","dong":"설악면"},{"name":"청평면 임시공영주차장(4)","type":"공영","category":"노외","address":"경기도 가평군 청평면 청평리 356","lat":37.738375,"lng":127.423278,"totalSpaces":18,"isFree":true,"operatingDays":"평일+토요일+공휴일","weekdayOpen":"00:00","weekdayClose":"23:59","weekendOpen":"00:00","weekendClose":"23:59","holidayOpen":"00:00","holidayClose":"23:59","feeInfo":"무료","phone":"031-580-2075","updatedAt":"2025-05-23","sido":"경기도","sigungu":"가평군","dong":"청평면"},{"name":"무료 공영주차장(5)","type":"공영","category":"노외","address":"경기도 가평군 조종면 현리 277-6","lat":37.820462,"lng":127.349654,"totalSpaces":16,"isFree":true,"operatingDays":"평일+토요일+공휴일","weekdayOpen":"00:00","weekdayClose":"23:59","weekendOpen":"00:00","weekendClose":"23:59","holidayOpen":"00:00","holidayClose":"23:59","feeInfo":"무료","phone":"031-580-2075","updatedAt":"2025-05-23","sido":"경기도","sigungu":"가평군","dong":"조종면"},{"name":"자투리주차장(1)","type":"공영","category":"노외","address":"경기도 가평군 가평읍 읍내리 664-4","lat":37.834385,"lng":127.507945,"totalSpaces":13,"isFree":true,"operatingDays":"평일+토요일+공휴일","weekdayOpen":"00:00","weekdayClose":"23:59","weekendOpen":"00:00","weekendClose":"23:59","holidayOpen":"00:00","holidayClose":"23:59","feeInfo":"무료","phone":"031-580-2075","updatedAt":"2025-05-23","sido":"경기도","sigungu":"가평군","dong":"가평읍"},{"name":"무료 공영주차장(2)","type":"공영","category":"노외","address":"경기도 가평군 청평면 청평리 403-2","lat":37.736477,"lng":127.421717,"totalSpaces":11,"isFree":true,"operatingDays":"평일+토요일+공휴일","weekdayOpen":"00:00","weekdayClose":"23:59","weekendOpen":"00:00","weekendClose":"23:59","holidayOpen":"00:00","holidayClose":"23:59","feeInfo":"무료","phone":"031-580-2075","updatedAt":"2025-05-23","sido":"경기도","sigungu":"가평군","dong":"청평면"},{"name":"자투리주차장(3)","type":"공영","category":"노외","address":"경기도 가평군 가평읍 대곡리 255-5","lat":37.825892,"lng":127.512159,"totalSpaces":11,"isFree":true,"operatingDays":"평일+토요일+공휴일","weekdayOpen":"00:00","weekdayClose":"23:59","weekendOpen":"00:00","weekendClose":"23:59","holidayOpen":"00:00","holidayClose":"23:59","feeInfo":"무료","phone":"031-580-2075","updatedAt":"2025-05-23","sido":"경기도","sigungu":"가평군","dong":"가평읍"},{"name":"청평면 임시공영주차장(5)","type":"공영","category":"노외","address":"경기도 가평군 청평면 청평리 357-20","lat":37.7375649093,"lng":127.423554,"totalSpaces":10,"isFree":true,"operatingDays":"평일+토요일+공휴일","weekdayOpen":"00:00","weekdayClose":"23:59","weekendOpen":"00:00","weekendClose":"23:59","holidayOpen":"00:00","holidayClose":"23:59","feeInfo":"무료","phone":"031-580-2075","updatedAt":"2025-05-23","sido":"경기도","sigungu":"가평군","dong":"청평면"},{"name":"자투리주차장(4)","type":"공영","category":"노외","address":"경기도 가평군 가평읍 읍내리 767-3","lat":37.837187,"lng":127.508008,"totalSpaces":5,"isFree":true,"operatingDays":"평일+토요일+공휴일","weekdayOpen":"00:00","weekdayClose":"23:59","weekendOpen":"00:00","weekendClose":"23:59","holidayOpen":"00:00","holidayClose":"23:59","feeInfo":"무료","phone":"031-580-2075","updatedAt":"2025-05-23","sido":"경기도","sigungu":"가평군","dong":"가평읍"},{"name":"자투리주차장(5)","type":"공영","category":"노외","address":"경기도 가평군 가평읍 읍내리 969-2","lat":37.839084,"lng":127.50502,"totalSpaces":3,"isFree":true,"operatingDays":"평일+토요일+공휴일","weekdayOpen":"00:00","weekdayClose":"23:59","weekendOpen":"00:00","weekendClose":"23:59","holidayOpen":"00:00","holidayClose":"23:59","feeInfo":"무료","phone":"031-580-2075","updatedAt":"2025-05-23","sido":"경기도","sigungu":"가평군","dong":"가평읍"},{"name":"자투리주차장(6)","type":"공영","category":"노외","address":"경기도 가평군 청평면 청평리 79-72","lat":37.735126,"lng":127.417841,"totalSpaces":3,"isFree":true,"operatingDays":"평일+토요일+공휴일","weekdayOpen":"00:00","weekdayClose":"23:59","weekendOpen":"00:00","weekendClose":"23:59","holidayOpen":"00:00","holidayClose":"23:59","feeInfo":"무료","phone":"031-580-2075","updatedAt":"2025-05-23","sido":"경기도","sigungu":"가평군","dong":"청평면"},{"name":"운악산 주차장","type":"공영","category":"노외","address":"경기도 가평군 조종면 운악리 452-1","lat":37.86425,"lng":127.348703,"totalSpaces":319,"isFree":false,"operatingDays":"평일+토요일+공휴일","weekdayOpen":"00:00","weekdayClose":"23:59","weekendOpen":"00:00","weekendClose":"23:59","holidayOpen":"00:00","holidayClose":"23:59","feeInfo":"기본 300분 2,000원","phone":"031-580-2075","updatedAt":"2025-05-23","sido":"경기도","sigungu":"가평군","dong":"조종면"},{"name":"청평면 공영주차장(2구역)","type":"공영","category":"노외","address":"경기도 가평군 청평면 청평리 84-2","lat":37.7341610687,"lng":127.4182030944,"totalSpaces":165,"isFree":false,"operatingDays":"평일+토요일+공휴일","weekdayOpen":"00:00","weekdayClose":"23:59","weekendOpen":"00:00","weekendClose":"23:59","holidayOpen":"00:00","holidayClose":"23:59","feeInfo":"기본 60분 0원 / 추가 30분당 500원","phone":"031-580-2075","updatedAt":"2025-05-23","sido":"경기도","sigungu":"가평군","dong":"청평면"},{"name":"설악면 공영주차장","type":"공영","category":"노외","address":"경기도 가평군 설악면 신천리 115-4","lat":37.677992,"lng":127.494179,"totalSpaces":96,"isFree":false,"operatingDays":"평일+토요일+공휴일","weekdayOpen":"00:00","weekdayClose":"23:59","weekendOpen":"00:00","weekendClose":"23:59","holidayOpen":"00:00","holidayClose":"23:59","feeInfo":"기본 60분 0원 / 추가 30분당 500원","phone":"031-580-2075","updatedAt":"2025-05-23","sido":"경기도","sigungu":"가평군","dong":"설악면"},{"name":"조종면 공영주차장","type":"공영","category":"노외","address":"경기도 가평군 조종면 현리 410-46","lat":37.817188,"lng":127.350043,"totalSpaces":77,"isFree":false,"operatingDays":"평일+토요일+공휴일","weekdayOpen":"00:00","weekdayClose":"23:59","weekendOpen":"00:00","weekendClose":"23:59","holidayOpen":"00:00","holidayClose":"23:59","feeInfo":"기본 60분 0원 / 추가 30분당 500원","phone":"031-580-2075","updatedAt":"2025-05-23","sido":"경기도","sigungu":"가평군","dong":"조종면"},{"name":"청평역 공영주차장","type":"공영","category":"노외","address":"경기도 가평군 청평면 청평리 121-3","lat":37.735197,"lng":127.424674,"totalSpaces":66,"isFree":false,"operatingDays":"평일+토요일+공휴일","weekdayOpen":"00:00","weekdayClose":"23:59","weekendOpen":"00:00","weekendClose":"23:59","holidayOpen":"00:00","holidayClose":"23:59","feeInfo":"기본 60분 0원 / 추가 30분당 500원","phone":"031-580-2075","updatedAt":"2025-05-23","sido":"경기도","sigungu":"가평군","dong":"청평면"},{"name":"청평면 공영주차장(1구역)","type":"공영","category":"노외","address":"경기도 가평군 청평면 청평리 455-13","lat":37.7368975007,"lng":127.4176567293,"totalSpaces":61,"isFree":false,"operatingDays":"평일+토요일+공휴일","weekdayOpen":"00:00","weekdayClose":"23:59","weekendOpen":"00:00","weekendClose":"23:59","holidayOpen":"00:00","holidayClose":"23:59","feeInfo":"기본 60분 0원 / 추가 30분당 500원","phone":"031-580-2075","updatedAt":"2025-05-23","sido":"경기도","sigungu":"가평군","dong":"청평면"},{"name":"상천역 공영주차장","type":"공영","category":"노외","address":"경기도 가평군 청평면 상천리 1254-5","lat":37.769568,"lng":127.452592,"totalSpaces":50,"isFree":false,"operatingDays":"평일+토요일+공휴일","weekdayOpen":"00:00","weekdayClose":"23:59","weekendOpen":"00:00","weekendClose":"23:59","holidayOpen":"00:00","holidayClose":"23:59","feeInfo":"기본 60분 0원 / 추가 30분당 500원","phone":"031-580-2075","updatedAt":"2025-05-23","sido":"경기도","sigungu":"가평군","dong":"청평면"},{"name":"어린이음악놀이터 옆 공영주차장","type":"공영","category":"노외","address":"경기도 가평군 가평읍 대곡리 236-7","lat":37.8262659353,"lng":127.5136,"totalSpaces":43,"isFree":false,"operatingDays":"평일+토요일+공휴일","weekdayOpen":"00:00","weekdayClose":"23:59","weekendOpen":"00:00","weekendClose":"23:59","holidayOpen":"00:00","holidayClose":"23:59","feeInfo":"기본 60분 0원 / 추가 30분당 500원","phone":"031-580-2075","updatedAt":"2025-05-23","sido":"경기도","sigungu":"가평군","dong":"가평읍"},{"name":"가평읍 노상주차장 1구간","type":"공영","category":"노상","address":"경기도 가평군 가평읍 석봉로 136","lat":37.827614,"lng":127.511738,"totalSpaces":30,"isFree":false,"operatingDays":"평일+토요일+공휴일","weekdayOpen":"00:00","weekdayClose":"23:59","weekendOpen":"00:00","weekendClose":"23:59","holidayOpen":"00:00","holidayClose":"23:59","feeInfo":"기본 60분 0원 / 추가 30분당 500원","phone":"031-580-2075","updatedAt":"2025-05-23","sido":"경기도","sigungu":"가평군","dong":"가평읍"},{"name":"가평읍 노상주차장 3구간","type":"공영","category":"노상","address":"경기도 가평군 가평읍 석봉로 199","lat":37.832774,"lng":127.509701,"totalSpaces":27,"isFree":false,"operatingDays":"평일+토요일+공휴일","weekdayOpen":"00:00","weekdayClose":"23:59","weekendOpen":"00:00","weekendClose":"23:59","holidayOpen":"00:00","holidayClose":"23:59","feeInfo":"기본 60분 0원 / 추가 30분당 500원","phone":"031-580-2075","updatedAt":"2025-05-23","sido":"경기도","sigungu":"가평군","dong":"가평읍"},{"name":"가평읍 노상주차장 4구간","type":"공영","category":"노상","address":"경기도 가평군 가평읍 석봉로 214","lat":37.834078,"lng":127.509718,"totalSpaces":27,"isFree":false,"operatingDays":"평일+토요일+공휴일","weekdayOpen":"00:00","weekdayClose":"23:59","weekendOpen":"00:00","weekendClose":"23:59","holidayOpen":"00:00","holidayClose":"23:59","feeInfo":"기본 60분 0원 / 추가 30분당 500원","phone":"031-580-2075","updatedAt":"2025-05-23","sido":"경기도","sigungu":"가평군","dong":"가평읍"},{"name":"가평읍 노상주차장 2구간","type":"공영","category":"노상","address":"경기도 가평군 가평읍 석봉로 158","lat":37.829129,"lng":127.511348,"totalSpaces":24,"isFree":false,"operatingDays":"평일+토요일+공휴일","weekdayOpen":"00:00","weekdayClose":"23:59","weekendOpen":"00:00","weekendClose":"23:59","holidayOpen":"00:00","holidayClose":"23:59","feeInfo":"기본 60분 0원 / 추가 30분당 500원","phone":"031-580-2075","updatedAt":"2025-05-23","sido":"경기도","sigungu":"가평군","dong":"가평읍"},{"name":"가평읍 공영주차장","type":"공영","category":"노외","address":"경기도 가평군 가평읍 읍내리 461-7","lat":37.830606,"lng":127.512024,"totalSpaces":24,"isFree":false,"operatingDays":"평일+토요일+공휴일","weekdayOpen":"00:00","weekdayClose":"23:59","weekendOpen":"00:00","weekendClose":"23:59","holidayOpen":"00:00","holidayClose":"23:59","feeInfo":"기본 60분 0원 / 추가 30분당 500원","phone":"031-580-2075","updatedAt":"2025-05-23","sido":"경기도","sigungu":"가평군","dong":"가평읍"},{"name":"가평읍 노상주차장 5구간","type":"공영","category":"노상","address":"경기도 가평군 가평읍 석봉로 234","lat":37.835727,"lng":127.509045,"totalSpaces":21,"isFree":false,"operatingDays":"평일+토요일+공휴일","weekdayOpen":"00:00","weekdayClose":"23:59","weekendOpen":"00:00","weekendClose":"23:59","holidayOpen":"00:00","holidayClose":"23:59","feeInfo":"기본 60분 0원 / 추가 30분당 500원","phone":"031-580-2075","updatedAt":"2025-05-23","sido":"경기도","sigungu":"가평군","dong":"가평읍"},{"name":"가평읍 노상주차장 6구간","type":"공영","category":"노상","address":"경기도 가평군 가평읍 가화로 76-1","lat":37.826688,"lng":127.515237,"totalSpaces":21,"isFree":false,"operatingDays":"평일+토요일+공휴일","weekdayOpen":"00:00","weekdayClose":"23:59","weekendOpen":"00:00","weekendClose":"23:59","holidayOpen":"00:00","holidayClose":"23:59","feeInfo":"기본 60분 0원 / 추가 30분당 500원","phone":"031-580-2075","updatedAt":"2025-05-23","sido":"경기도","sigungu":"가평군","dong":"가평읍"},{"name":"가평읍 노상주차장 7구간","type":"공영","category":"노상","address":"경기도 가평군 가평읍 연인길 4","lat":37.828568,"lng":127.513849,"totalSpaces":15,"isFree":false,"operatingDays":"평일+토요일+공휴일","weekdayOpen":"00:00","weekdayClose":"23:59","weekendOpen":"00:00","weekendClose":"23:59","holidayOpen":"00:00","holidayClose":"23:59","feeInfo":"기본 60분 0원 / 추가 30분당 500원","phone":"031-580-2075","updatedAt":"2025-05-23","sido":"경기도","sigungu":"가평군","dong":"가평읍"},{"name":"가평읍 임시공영주차장(8)","type":"공영","category":"노외","address":"경기도 가평군 가평읍 읍내리 488-2","lat":37.8294,"lng":127.5112661752,"totalSpaces":14,"isFree":false,"operatingDays":"평일+토요일+공휴일","weekdayOpen":"00:00","weekdayClose":"23:59","weekendOpen":"00:00","weekendClose":"23:59","holidayOpen":"00:00","holidayClose":"23:59","feeInfo":"기본 60분 0원 / 추가 30분당 500원","phone":"031-580-2075","updatedAt":"2025-05-23","sido":"경기도","sigungu":"가평군","dong":"가평읍"},{"name":"가평읍 노상주차장 8구간","type":"공영","category":"노상","address":"경기도 가평군 가평읍 보납로18번길 4","lat":37.830525,"lng":127.512494,"totalSpaces":12,"isFree":false,"operatingDays":"평일+토요일+공휴일","weekdayOpen":"00:00","weekdayClose":"23:59","weekendOpen":"00:00","weekendClose":"23:59","holidayOpen":"00:00","holidayClose":"23:59","feeInfo":"기본 60분 0원 / 추가 30분당 500원","phone":"031-580-2075","updatedAt":"2025-05-23","sido":"경기도","sigungu":"가평군","dong":"가평읍"},{"name":"가평읍 노상주차장 9구간","type":"공영","category":"노상","address":"경기도 가평군 가평읍 가화로 143","lat":37.832231,"lng":127.511921,"totalSpaces":10,"isFree":false,"operatingDays":"평일+토요일+공휴일","weekdayOpen":"00:00","weekdayClose":"23:59","weekendOpen":"00:00","weekendClose":"23:59","holidayOpen":"00:00","holidayClose":"23:59","feeInfo":"기본 60분 0원 / 추가 30분당 500원","phone":"031-580-2075","updatedAt":"2025-05-23","sido":"경기도","sigungu":"가평군","dong":"가평읍"}]}