{"sido":"경기도","sigungu":"남양주시","totalCount":165,"validCount":140,"items":[{"name":"양정 제2공영","type":"공영","category":"노외","address":"경기도 남양주시 일패동 269-1(양정동 군부대앞)","lat":37.6187825,"lng":127.1979176,"totalSpaces":150,"isFree":true,"operatingDays":"평일+토요일+공휴일","weekdayOpen":"00:00","weekdayClose":"00:00","weekendOpen":"00:00","weekendClose":"00:00","holidayOpen":"00:00","holidayClose":"00:00","feeInfo":"무료","phone":"031-560-1212","updatedAt":"2017-04-18","sido":"경기도","sigungu":"남양주시","dong":"일패동"},{"name":"물의정원제1공영","type":"공영","category":"노외","address":"경기도 남양주시 조안면 진중리 136","lat":37.55680513,"lng":127.3115613,"totalSpaces":130,"isFree":true,"operatingDays":"평일+토요일","weekdayOpen":"00:00","weekdayClose":"23:59","weekendOpen":"00:00","weekendClose":"23:59","holidayOpen":"00:00","holidayClose":"00:00","feeInfo":"무료","phone":"031-560-1212","updatedAt":"2025-08-07","sido":"경기도","sigungu":"남양주시","dong":"조안면"},{"name":"물의정원제3공영","type":"공영","category":"노외","address":"경기도 남양주시 조안면 송촌리 492-1","lat":37.56173473,"lng":127.3147544,"totalSpaces":121,"isFree":true,"operatingDays":"평일+토요일","weekdayOpen":"00:00","weekdayClose":"23:59","weekendOpen":"00:00","weekendClose":"23:59","holidayOpen":"00:00","holidayClose":"00:00","feeInfo":"무료","phone":"031-560-1212","updatedAt":"2025-08-07","sido":"경기도","sigungu":"남양주시","dong":"조안면"},{"name":"진접 제1공영","type":"공영","category":"노외","address":"경기도 남양주시 진접읍 팔야리 778-4(광릉숯불고기 옆)","lat":37.7448688,"lng":127.2084008,"totalSpaces":120,"isFree":true,"operatingDays":"평일+토요일+공휴일","weekdayOpen":"00:00","weekdayClose":"00:00","weekendOpen":"00:00","weekendClose":"00:00","holidayOpen":"00:00","holidayClose":"00:00","feeInfo":"무료","phone":"031-560-1212","updatedAt":"2017-04-18","sido":"경기도","sigungu":"남양주시","dong":"진접읍"},{"name":"진접 제2공영","type":"공영","category":"노외","address":"경기도 남양주시 진접읍 부마로6번길 11-7","lat":37.7453527,"lng":127.2016353,"totalSpaces":104,"isFree":true,"operatingDays":"평일+토요일+공휴일","weekdayOpen":"00:00","weekdayClose":"00:00","weekendOpen":"00:00","weekendClose":"00:00","holidayOpen":"00:00","holidayClose":"00:00","feeInfo":"무료","phone":"031-560-1212","updatedAt":"2017-04-18","sido":"경기도","sigungu":"남양주시","dong":"진접읍"},{"name":"별내면 노상제1","type":"공영","category":"노상","address":"경기도 남양주시 별내면 청학리 중앙길 75","lat":37.7076023,"lng":127.1193785,"totalSpaces":86,"isFree":true,"operatingDays":"평일+토요일+공휴일","weekdayOpen":"00:00","weekdayClose":"00:00","weekendOpen":"00:00","weekendClose":"00:00","holidayOpen":"00:00","holidayClose":"00:00","feeInfo":"무료","phone":"031-560-1212","updatedAt":"2017-04-18","sido":"경기도","sigungu":"남양주시","dong":"별내면"},{"name":"별내면 노상제2","type":"공영","category":"노상","address":"경기도 남양주시 별내면 청학리 중앙길 68","lat":37.7093221,"lng":127.1149946,"totalSpaces":81,"isFree":true,"operatingDays":"평일+토요일+공휴일","weekdayOpen":"00:00","weekdayClose":"00:00","weekendOpen":"00:00","weekendClose":"00:00","holidayOpen":"00:00","holidayClose":"00:00","feeInfo":"무료","phone":"031-560-1212","updatedAt":"2017-04-18","sido":"경기도","sigungu":"남양주시","dong":"별내면"},{"name":"물의정원제2공영","type":"공영","category":"노외","address":"경기도 남양주시 조안면 진중리 85-12","lat":37.55845157,"lng":127.3133999,"totalSpaces":79,"isFree":true,"operatingDays":"평일+토요일","weekdayOpen":"00:00","weekdayClose":"23:59","weekendOpen":"00:00","weekendClose":"23:59","holidayOpen":"00:00","holidayClose":"00:00","feeInfo":"무료","phone":"031-560-1212","updatedAt":"2025-08-07","sido":"경기도","sigungu":"남양주시","dong":"조안면"},{"name":"별내면 노상제2","type":"공영","category":"노상","address":"경기도 남양주시 별내면 청학리 409-6","lat":37.70927307,"lng":127.1154636,"totalSpaces":71,"isFree":true,"operatingDays":"평일+토요일","weekdayOpen":"00:00","weekdayClose":"23:59","weekendOpen":"00:00","weekendClose":"23:59","holidayOpen":"00:00","holidayClose":"00:00","feeInfo":"무료","phone":"031-560-1212","updatedAt":"2025-08-07","sido":"경기도","sigungu":"남양주시","dong":"별내면"},{"name":"호평 제1공영","type":"공영","category":"노외","address":"경기도 남양주시 호평동 350번지(천마산 입구)","lat":37.6704212,"lng":127.2519129,"totalSpaces":63,"isFree":true,"operatingDays":"평일+토요일+공휴일","weekdayOpen":"00:00","weekdayClose":"00:00","weekendOpen":"00:00","weekendClose":"00:00","holidayOpen":"00:00","holidayClose":"00:00","feeInfo":"무료","phone":"031-560-1212","updatedAt":"2017-04-18","sido":"경기도","sigungu":"남양주시","dong":"호평동"},{"name":"별내면 노상제1","type":"공영","category":"노상","address":"경기도 남양주시 별내면 청학리 409-6","lat":37.70927307,"lng":127.1154636,"totalSpaces":55,"isFree":true,"operatingDays":"평일+토요일","weekdayOpen":"00:00","weekdayClose":"23:59","weekendOpen":"00:00","weekendClose":"23:59","holidayOpen":"00:00","holidayClose":"00:00","feeInfo":"무료","phone":"031-560-1212","updatedAt":"2025-08-07","sido":"경기도","sigungu":"남양주시","dong":"별내면"},{"name":"진접 노상제1","type":"공영","category":"노상","address":"경기도 남양주시 진접읍 봉현로 19","lat":37.7155109,"lng":127.1804091,"totalSpaces":54,"isFree":true,"operatingDays":"평일+토요일+공휴일","weekdayOpen":"00:00","weekdayClose":"00:00","weekendOpen":"00:00","weekendClose":"00:00","holidayOpen":"00:00","holidayClose":"00:00","feeInfo":"무료","phone":"031-560-1212","updatedAt":"2017-04-18","sido":"경기도","sigungu":"남양주시","dong":"진접읍"},{"name":"진접 제3공영","type":"공영","category":"노외","address":"경기도 남양주시 진접읍 장현리 710-2(남광하우스토리 지하)","lat":37.7256221,"lng":127.1926616,"totalSpaces":48,"isFree":true,"operatingDays":"평일+토요일+공휴일","weekdayOpen":"00:00","weekdayClose":"00:00","weekendOpen":"00:00","weekendClose":"00:00","holidayOpen":"00:00","holidayClose":"00:00","feeInfo":"무료","phone":"031-560-1212","updatedAt":"2017-04-18","sido":"경기도","sigungu":"남양주시","dong":"진접읍"},{"name":"금곡 노상제3","type":"공영","category":"노상","address":"경기도 남양주시 금곡로19번길 14","lat":37.6349688,"lng":127.2058095,"totalSpaces":43,"isFree":true,"operatingDays":"평일+토요일+공휴일","weekdayOpen":"00:00","weekdayClose":"00:00","weekendOpen":"00:00","weekendClose":"00:00","holidayOpen":"00:00","holidayClose":"00:00","feeInfo":"무료","phone":"031-560-1212","updatedAt":"2017-04-18","sido":"경기도","sigungu":"남양주시","dong":"금곡동"},{"name":"진접 노상제3","type":"공영","category":"노상","address":"경기도 남양주시 진접읍 장현천로 19","lat":37.7183452,"lng":127.1840364,"totalSpaces":43,"isFree":true,"operatingDays":"평일+토요일+공휴일","weekdayOpen":"00:00","weekdayClose":"00:00","weekendOpen":"00:00","weekendClose":"00:00","holidayOpen":"00:00","holidayClose":"00:00","feeInfo":"무료","phone":"031-560-1212","updatedAt":"2017-04-18","sido":"경기도","sigungu":"남양주시","dong":"진접읍"},{"name":"양정 제2공영","type":"공영","category":"노외","address":"경기도 남양주시 이패동 271-1","lat":37.61750951,"lng":127.1987777,"totalSpaces":41,"isFree":true,"operatingDays":"평일+토요일","weekdayOpen":"00:00","weekdayClose":"23:59","weekendOpen":"00:00","weekendClose":"23:59","holidayOpen":"00:00","holidayClose":"00:00","feeInfo":"무료","phone":"031-560-1212","updatedAt":"2025-08-07","sido":"경기도","sigungu":"남양주시","dong":"이패동"},{"name":"별내동 노상제10","type":"공영","category":"노상","address":"경기도 남양주시 별내동 906","lat":37.65957329,"lng":127.1257788,"totalSpaces":41,"isFree":true,"operatingDays":"평일+토요일","weekdayOpen":"00:00","weekdayClose":"23:59","weekendOpen":"00:00","weekendClose":"23:59","holidayOpen":"00:00","holidayClose":"00:00","feeInfo":"무료","phone":"031-560-1212","updatedAt":"2025-08-07","sido":"경기도","sigungu":"남양주시","dong":"별내동"},{"name":"진건 제2공영","type":"공영","category":"노외","address":"경기도 남양주시 진건읍 진건오남로 38","lat":37.6544801,"lng":127.1795043,"totalSpaces":40,"isFree":true,"operatingDays":"평일+토요일+공휴일","weekdayOpen":"00:00","weekdayClose":"00:00","weekendOpen":"00:00","weekendClose":"00:00","holidayOpen":"00:00","holidayClose":"00:00","feeInfo":"무료","phone":"031-560-1212","updatedAt":"2017-04-18","sido":"경기도","sigungu":"남양주시","dong":"진건읍"},{"name":"진접 제4공영","type":"공영","category":"노외","address":"경기도 남양주시 진접읍 부평리 755(동부센트레빌 지하)","lat":37.7414387,"lng":127.199637,"totalSpaces":40,"isFree":true,"operatingDays":"평일+토요일+공휴일","weekdayOpen":"00:00","weekdayClose":"00:00","weekendOpen":"00:00","weekendClose":"00:00","holidayOpen":"00:00","holidayClose":"00:00","feeInfo":"무료","phone":"031-560-1212","updatedAt":"2017-04-18","sido":"경기도","sigungu":"남양주시","dong":"진접읍"},{"name":"와부 노상제2","type":"공영","category":"노상","address":"경기도 남양주시 와부읍 덕소리 600-36,600-39(강변삼익아파트 정문 앞)","lat":37.5863249,"lng":127.2065631,"totalSpaces":39,"isFree":true,"operatingDays":"평일+토요일+공휴일","weekdayOpen":"00:00","weekdayClose":"00:00","weekendOpen":"00:00","weekendClose":"00:00","holidayOpen":"00:00","holidayClose":"00:00","feeInfo":"무료","phone":"031-560-1212","updatedAt":"2017-04-18","sido":"경기도","sigungu":"남양주시","dong":"와부읍"},{"name":"와부 노상제2","type":"공영","category":"노상","address":"경기도 남양주시 와부읍 덕소리 600-36","lat":37.58615214,"lng":127.2067148,"totalSpaces":37,"isFree":true,"operatingDays":"평일+토요일","weekdayOpen":"00:00","weekdayClose":"23:59","weekendOpen":"00:00","weekendClose":"23:59","holidayOpen":"00:00","holidayClose":"00:00","feeInfo":"무료","phone":"031-560-1212","updatedAt":"2025-08-07","sido":"경기도","sigungu":"남양주시","dong":"와부읍"},{"name":"별내면 노상제3","type":"공영","category":"노상","address":"경기도 남양주시 별내면 청학로 113","lat":37.7073577,"lng":127.1189335,"totalSpaces":36,"isFree":true,"operatingDays":"평일+토요일+공휴일","weekdayOpen":"00:00","weekdayClose":"00:00","weekendOpen":"00:00","weekendClose":"00:00","holidayOpen":"00:00","holidayClose":"00:00","feeInfo":"무료","phone":"031-560-1212","updatedAt":"2017-04-18","sido":"경기도","sigungu":"남양주시","dong":"별내면"},{"name":"별내동 노상제5","type":"공영","category":"노상","address":"경기도 남양주시 별내동 819-3","lat":37.6673213696,"lng":127.1186655777,"totalSpaces":36,"isFree":true,"operatingDays":"평일+토요일","weekdayOpen":"00:00","weekdayClose":"23:59","weekendOpen":"00:00","weekendClose":"23:59","holidayOpen":"00:00","holidayClose":"00:00","feeInfo":"무료","phone":"031-560-1212","updatedAt":"2025-08-07","sido":"경기도","sigungu":"남양주시","dong":"별내동"},{"name":"퇴계원 노상제2","type":"공영","category":"노상","address":"경기도 남양주시 퇴계원면 도제원로 61","lat":37.6496806,"lng":127.1447455,"totalSpaces":36,"isFree":true,"operatingDays":"평일+토요일+공휴일","weekdayOpen":"00:00","weekdayClose":"00:00","weekendOpen":"00:00","weekendClose":"00:00","holidayOpen":"00:00","holidayClose":"00:00","feeInfo":"무료","phone":"031-560-1212","updatedAt":"2017-04-18","sido":"경기도","sigungu":"남양주시","dong":"퇴계원면,리"},{"name":"별내면 노상제7","type":"공영","category":"노상","address":"경기도 남양주시 별내면 청학로 92번길 44","lat":37.7129436,"lng":127.1153768,"totalSpaces":34,"isFree":true,"operatingDays":"평일+토요일+공휴일","weekdayOpen":"00:00","weekdayClose":"00:00","weekendOpen":"00:00","weekendClose":"00:00","holidayOpen":"00:00","holidayClose":"00:00","feeInfo":"무료","phone":"031-560-1212","updatedAt":"2017-04-18","sido":"경기도","sigungu":"남양주시","dong":"별내면"},{"name":"별내동 노상제2","type":"공영","category":"노상","address":"경기도 남양주시 별내동 831-8, 827-7","lat":37.6667186,"lng":127.1150181,"totalSpaces":32,"isFree":true,"operatingDays":"평일+토요일","weekdayOpen":"00:00","weekdayClose":"23:59","weekendOpen":"00:00","weekendClose":"23:59","holidayOpen":"00:00","holidayClose":"00:00","feeInfo":"무료","phone":"031-560-1212","updatedAt":"2025-08-07","sido":"경기도","sigungu":"남양주시","dong":"별내동"},{"name":"별내면 제2공영","type":"공영","category":"노외","address":"경기도 남양주시 별내면 청학리 500-16","lat":37.7076593,"lng":127.1118653,"totalSpaces":30,"isFree":true,"operatingDays":"평일+토요일","weekdayOpen":"00:00","weekdayClose":"23:59","weekendOpen":"00:00","weekendClose":"23:59","holidayOpen":"00:00","holidayClose":"00:00","feeInfo":"무료","phone":"031-560-1212","updatedAt":"2025-08-07","sido":"경기도","sigungu":"남양주시","dong":"별내면"},{"name":"평내 제1공영","type":"공영","category":"노외","address":"경기도 남양주시 평내동 588-3(평내동 사무소 옆)","lat":37.6481525,"lng":127.236291,"totalSpaces":30,"isFree":true,"operatingDays":"평일+토요일+공휴일","weekdayOpen":"00:00","weekdayClose":"00:00","weekendOpen":"00:00","weekendClose":"00:00","holidayOpen":"00:00","holidayClose":"00:00","feeInfo":"무료","phone":"031-560-1212","updatedAt":"2017-04-18","sido":"경기도","sigungu":"남양주시","dong":"평내동"},{"name":"도농 제1공영","type":"공영","category":"노외","address":"경기도 남양주시 미금로56번길 3","lat":37.6100781,"lng":127.1523838,"totalSpaces":27,"isFree":true,"operatingDays":"평일+토요일+공휴일","weekdayOpen":"00:00","weekdayClose":"00:00","weekendOpen":"00:00","weekendClose":"00:00","holidayOpen":"00:00","holidayClose":"00:00","feeInfo":"무료","phone":"031-560-1212","updatedAt":"2017-04-18","sido":"경기도","sigungu":"남양주시","dong":"도농동"},{"name":"별내 제1공영","type":"공영","category":"노외","address":"경기도 남양주시 별내면 순화궁로 931","lat":37.7052001,"lng":127.1063698,"totalSpaces":27,"isFree":true,"operatingDays":"평일+토요일+공휴일","weekdayOpen":"00:00","weekdayClose":"00:00","weekendOpen":"00:00","weekendClose":"00:00","holidayOpen":"00:00","holidayClose":"00:00","feeInfo":"무료","phone":"031-560-1212","updatedAt":"2017-04-18","sido":"경기도","sigungu":"남양주시","dong":"별내면"},{"name":"금곡 제1공영","type":"공영","category":"노외","address":"경기도 남양주시 금곡동 754-15","lat":37.63263977,"lng":127.2000004,"totalSpaces":26,"isFree":true,"operatingDays":"평일+토요일","weekdayOpen":"00:00","weekdayClose":"23:59","weekendOpen":"00:00","weekendClose":"23:59","holidayOpen":"00:00","holidayClose":"00:00","feeInfo":"무료","phone":"031-560-1212","updatedAt":"2025-08-07","sido":"경기도","sigungu":"남양주시","dong":"금곡동"},{"name":"다산 노상제3","type":"공영","category":"노상","address":"경기도 남양주시 다산동 6284-1","lat":37.6109599855,"lng":127.1715698667,"totalSpaces":26,"isFree":true,"operatingDays":"평일+토요일","weekdayOpen":"00:00","weekdayClose":"23:59","weekendOpen":"00:00","weekendClose":"23:59","holidayOpen":"00:00","holidayClose":"00:00","feeInfo":"무료","phone":"031-560-1212","updatedAt":"2025-08-07","sido":"경기도","sigungu":"남양주시","dong":"다산동"},{"name":"화도 제11공영","type":"공영","category":"노외","address":"경기도 남양주시 화도읍 창현리 325","lat":37.6370239902,"lng":127.3094520455,"totalSpaces":24,"isFree":true,"operatingDays":"평일+토요일","weekdayOpen":"00:00","weekdayClose":"23:59","weekendOpen":"00:00","weekendClose":"23:59","holidayOpen":"00:00","holidayClose":"00:00","feeInfo":"무료","phone":"031-560-1212","updatedAt":"2025-08-07","sido":"경기도","sigungu":"남양주시","dong":"화도읍"},{"name":"금곡 제1공영","type":"공영","category":"노외","address":"경기도 남양주시 경춘로 883-36","lat":37.6329885,"lng":127.1983722,"totalSpaces":24,"isFree":true,"operatingDays":"평일+토요일+공휴일","weekdayOpen":"00:00","weekdayClose":"00:00","weekendOpen":"00:00","weekendClose":"00:00","holidayOpen":"00:00","holidayClose":"00:00","feeInfo":"무료","phone":"031-560-1212","updatedAt":"2017-04-18","sido":"경기도","sigungu":"남양주시","dong":"금곡동"},{"name":"평내 노상제1","type":"공영","category":"노상","address":"경기도 남양주시 평내로 29번길","lat":37.6459506,"lng":127.2344212,"totalSpaces":19,"isFree":true,"operatingDays":"평일+토요일+공휴일","weekdayOpen":"00:00","weekdayClose":"00:00","weekendOpen":"00:00","weekendClose":"00:00","holidayOpen":"00:00","holidayClose":"00:00","feeInfo":"무료","phone":"031-560-1212","updatedAt":"2017-04-18","sido":"경기도","sigungu":"남양주시","dong":"평내동"},{"name":"별내면 노상제6","type":"공영","category":"노상","address":"경기도 남양주시 별내면 청학로 학교길","lat":37.7107312,"lng":127.1150376,"totalSpaces":19,"isFree":true,"operatingDays":"평일+토요일+공휴일","weekdayOpen":"00:00","weekdayClose":"00:00","weekendOpen":"00:00","weekendClose":"00:00","holidayOpen":"00:00","holidayClose":"00:00","feeInfo":"무료","phone":"031-560-1212","updatedAt":"2017-04-18","sido":"경기도","sigungu":"남양주시","dong":"별내면"},{"name":"화도 노상제2","type":"공영","category":"노상","address":"경기도 남양주시 화도읍 창현리 740(화도센터 건너편)","lat":37.649868,"lng":127.3039643,"totalSpaces":19,"isFree":true,"operatingDays":"평일+토요일+공휴일","weekdayOpen":"00:00","weekdayClose":"00:00","weekendOpen":"00:00","weekendClose":"00:00","holidayOpen":"00:00","holidayClose":"00:00","feeInfo":"무료","phone":"031-560-1212","updatedAt":"2017-04-18","sido":"경기도","sigungu":"남양주시","dong":"화도읍"},{"name":"진건 제1공영","type":"공영","category":"노외","address":"경기도 남양주시 진건읍 사릉로 439-2","lat":37.6576462,"lng":127.1759127,"totalSpaces":18,"isFree":true,"operatingDays":"평일+토요일+공휴일","weekdayOpen":"00:00","weekdayClose":"00:00","weekendOpen":"00:00","weekendClose":"00:00","holidayOpen":"00:00","holidayClose":"00:00","feeInfo":"무료","phone":"031-560-1212","updatedAt":"2017-04-18","sido":"경기도","sigungu":"남양주시","dong":"진건읍"},{"name":"진건 제1공영","type":"공영","category":"노외","address":"경기도 남양주시 진건읍 사능리 654-6","lat":37.6578225,"lng":127.1747744,"totalSpaces":17,"isFree":true,"operatingDays":"평일+토요일","weekdayOpen":"00:00","weekdayClose":"23:59","weekendOpen":"00:00","weekendClose":"23:59","holidayOpen":"00:00","holidayClose":"00:00","feeInfo":"무료","phone":"031-560-1212","updatedAt":"2025-08-07","sido":"경기도","sigungu":"남양주시","dong":"진건읍"},{"name":"별내면 노상제4","type":"공영","category":"노상","address":"경기도 남양주시 별내면 청학로 68번길","lat":37.710737,"lng":127.1200594,"totalSpaces":17,"isFree":true,"operatingDays":"평일+토요일+공휴일","weekdayOpen":"00:00","weekdayClose":"00:00","weekendOpen":"00:00","weekendClose":"00:00","holidayOpen":"00:00","holidayClose":"00:00","feeInfo":"무료","phone":"031-560-1212","updatedAt":"2017-04-18","sido":"경기도","sigungu":"남양주시","dong":"별내면"},{"name":"금곡 노상제3","type":"공영","category":"노상","address":"경기도 남양주시 금곡동 433-17","lat":37.63284991,"lng":127.2052937,"totalSpaces":17,"isFree":true,"operatingDays":"평일+토요일","weekdayOpen":"00:00","weekdayClose":"23:59","weekendOpen":"00:00","weekendClose":"23:59","holidayOpen":"00:00","holidayClose":"00:00","feeInfo":"무료","phone":"031-560-1212","updatedAt":"2025-08-07","sido":"경기도","sigungu":"남양주시","dong":"금곡동"},{"name":"금곡 노상제7","type":"공영","category":"노상","address":"경기도 남양주시 금곡동 433-11","lat":37.63354605,"lng":127.2053062,"totalSpaces":17,"isFree":true,"operatingDays":"평일+토요일","weekdayOpen":"00:00","weekdayClose":"23:59","weekendOpen":"00:00","weekendClose":"23:59","holidayOpen":"00:00","holidayClose":"00:00","feeInfo":"무료","phone":"031-560-1212","updatedAt":"2025-08-07","sido":"경기도","sigungu":"남양주시","dong":"금곡동"},{"name":"금곡 노상제1","type":"공영","category":"노상","address":"경기도 남양주시 금곡동 185-54,202-8(시청 후문)","lat":37.6362478,"lng":127.2160686,"totalSpaces":17,"isFree":true,"operatingDays":"평일+토요일+공휴일","weekdayOpen":"00:00","weekdayClose":"00:00","weekendOpen":"00:00","weekendClose":"00:00","holidayOpen":"00:00","holidayClose":"00:00","feeInfo":"무료","phone":"031-560-1212","updatedAt":"2017-04-18","sido":"경기도","sigungu":"남양주시","dong":"금곡동"},{"name":"별내면 노상제5","type":"공영","category":"노상","address":"경기도 남양주시 별내면 청학리 421-1","lat":37.71075933,"lng":127.1114904,"totalSpaces":16,"isFree":true,"operatingDays":"평일+토요일","weekdayOpen":"00:00","weekdayClose":"23:59","weekendOpen":"00:00","weekendClose":"23:59","holidayOpen":"00:00","holidayClose":"00:00","feeInfo":"무료","phone":"031-560-1212","updatedAt":"2025-08-07","sido":"경기도","sigungu":"남양주시","dong":"별내면"},{"name":"진접 노상제8","type":"공영","category":"노상","address":"경기도 남양주시 진접읍 내각리 323-2","lat":37.70459205,"lng":127.1662242,"totalSpaces":16,"isFree":true,"operatingDays":"평일+토요일","weekdayOpen":"00:00","weekdayClose":"23:59","weekendOpen":"00:00","weekendClose":"23:59","holidayOpen":"00:00","holidayClose":"00:00","feeInfo":"무료","phone":"031-560-1212","updatedAt":"2025-08-07","sido":"경기도","sigungu":"남양주시","dong":"진접읍"},{"name":"다산 노상제2","type":"공영","category":"노상","address":"경기도 남양주시 다산동 718","lat":37.60438545,"lng":127.1555185,"totalSpaces":16,"isFree":true,"operatingDays":"평일+토요일","weekdayOpen":"00:00","weekdayClose":"23:59","weekendOpen":"00:00","weekendClose":"23:59","holidayOpen":"00:00","holidayClose":"00:00","feeInfo":"무료","phone":"031-560-1212","updatedAt":"2025-08-07","sido":"경기도","sigungu":"남양주시","dong":"다산동"},{"name":"별내면 노상제3","type":"공영","category":"노상","address":"경기도 남양주시 별내면 청학리 439-6","lat":37.7072771,"lng":127.1191182,"totalSpaces":15,"isFree":true,"operatingDays":"평일+토요일","weekdayOpen":"00:00","weekdayClose":"23:59","weekendOpen":"00:00","weekendClose":"23:59","holidayOpen":"00:00","holidayClose":"00:00","feeInfo":"무료","phone":"031-560-1212","updatedAt":"2025-08-07","sido":"경기도","sigungu":"남양주시","dong":"별내면"},{"name":"별내면 노상제6","type":"공영","category":"노상","address":"경기도 남양주시 별내면 청학리 358-10","lat":37.71106407,"lng":127.1135209,"totalSpaces":15,"isFree":true,"operatingDays":"평일+토요일","weekdayOpen":"00:00","weekdayClose":"23:59","weekendOpen":"00:00","weekendClose":"23:59","holidayOpen":"00:00","holidayClose":"00:00","feeInfo":"무료","phone":"031-560-1212","updatedAt":"2025-08-07","sido":"경기도","sigungu":"남양주시","dong":"별내면"},{"name":"퇴계원 노상제2","type":"공영","category":"노상","address":"경기도 남양주시 퇴계원읍 퇴계원리 250-49","lat":37.6512178505,"lng":127.14482042,"totalSpaces":15,"isFree":true,"operatingDays":"평일+토요일","weekdayOpen":"00:00","weekdayClose":"23:59","weekendOpen":"00:00","weekendClose":"23:59","holidayOpen":"00:00","holidayClose":"00:00","feeInfo":"무료","phone":"031-560-1212","updatedAt":"2025-08-07","sido":"경기도","sigungu":"남양주시","dong":"퇴계원읍"},{"name":"금곡 노상제4","type":"공영","category":"노상","address":"경기도 남양주시 홍유릉로248번길 21","lat":37.6268483,"lng":127.2020851,"totalSpaces":15,"isFree":true,"operatingDays":"평일+토요일+공휴일","weekdayOpen":"00:00","weekdayClose":"00:00","weekendOpen":"00:00","weekendClose":"00:00","holidayOpen":"00:00","holidayClose":"00:00","feeInfo":"무료","phone":"031-560-1212","updatedAt":"2017-04-18","sido":"경기도","sigungu":"남양주시","dong":"금곡동"},{"name":"금곡 노상제6","type":"공영","category":"노상","address":"경기도 남양주시 홍유릉로248번길 21","lat":37.6268483,"lng":127.2020851,"totalSpaces":15,"isFree":true,"operatingDays":"평일+토요일+공휴일","weekdayOpen":"00:00","weekdayClose":"00:00","weekendOpen":"00:00","weekendClose":"00:00","holidayOpen":"00:00","holidayClose":"00:00","feeInfo":"무료","phone":"031-560-1212","updatedAt":"2017-04-18","sido":"경기도","sigungu":"남양주시","dong":"금곡동"},{"name":"별내동 노상제4","type":"공영","category":"노상","address":"경기도 남양주시 별내동 1031","lat":37.64702656,"lng":127.1212906,"totalSpaces":14,"isFree":true,"operatingDays":"평일+토요일","weekdayOpen":"00:00","weekdayClose":"23:59","weekendOpen":"00:00","weekendClose":"23:59","holidayOpen":"00:00","holidayClose":"00:00","feeInfo":"무료","phone":"031-560-1212","updatedAt":"2025-08-07","sido":"경기도","sigungu":"남양주시","dong":"별내동"},{"name":"별내동 노상제6","type":"공영","category":"노상","address":"경기도 남양주시 별내동 1006-4","lat":37.64586466,"lng":127.1263502,"totalSpaces":14,"isFree":true,"operatingDays":"평일+토요일","weekdayOpen":"00:00","weekdayClose":"23:59","weekendOpen":"00:00","weekendClose":"23:59","holidayOpen":"00:00","holidayClose":"00:00","feeInfo":"무료","phone":"031-560-1212","updatedAt":"2025-08-07","sido":"경기도","sigungu":"남양주시","dong":"별내동"},{"name":"금곡 노상제8","type":"공영","category":"노상","address":"경기도 남양주시 금곡동 154-34","lat":37.63373676,"lng":127.211588,"totalSpaces":14,"isFree":true,"operatingDays":"평일+토요일","weekdayOpen":"00:00","weekdayClose":"23:59","weekendOpen":"00:00","weekendClose":"23:59","holidayOpen":"00:00","holidayClose":"00:00","feeInfo":"무료","phone":"031-560-1212","updatedAt":"2025-08-07","sido":"경기도","sigungu":"남양주시","dong":"금곡동"},{"name":"화도 노상제2","type":"공영","category":"노상","address":"경기도 남양주시 화도읍 창현리 740","lat":37.64977596,"lng":127.3033648,"totalSpaces":13,"isFree":true,"operatingDays":"평일+토요일","weekdayOpen":"00:00","weekdayClose":"23:59","weekendOpen":"00:00","weekendClose":"23:59","holidayOpen":"00:00","holidayClose":"00:00","feeInfo":"무료","phone":"031-560-1212","updatedAt":"2025-08-07","sido":"경기도","sigungu":"남양주시","dong":"화도읍"},{"name":"평내 노상제2","type":"공영","category":"노상","address":"경기도 남양주시 평내동 640(평내중학교 뒤)","lat":37.6484008,"lng":127.238268,"totalSpaces":13,"isFree":true,"operatingDays":"평일+토요일+공휴일","weekdayOpen":"00:00","weekdayClose":"00:00","weekendOpen":"00:00","weekendClose":"00:00","holidayOpen":"00:00","holidayClose":"00:00","feeInfo":"무료","phone":"031-560-1212","updatedAt":"2017-04-18","sido":"경기도","sigungu":"남양주시","dong":"평내동"},{"name":"진접 노상제6","type":"공영","category":"노상","address":"경기도 남양주시 진접읍 금곡리 1127-38번지(주곡중 신안인스빌 후문)","lat":37.7243288,"lng":127.2092371,"totalSpaces":13,"isFree":true,"operatingDays":"평일+토요일+공휴일","weekdayOpen":"00:00","weekdayClose":"00:00","weekendOpen":"00:00","weekendClose":"00:00","holidayOpen":"00:00","holidayClose":"00:00","feeInfo":"무료","phone":"031-560-1212","updatedAt":"2017-04-18","sido":"경기도","sigungu":"남양주시","dong":"진접읍"},{"name":"다산 노상제1","type":"공영","category":"노상","address":"경기도 남양주시 다산동 707","lat":37.60477122,"lng":127.1564706,"totalSpaces":13,"isFree":true,"operatingDays":"평일+토요일","weekdayOpen":"00:00","weekdayClose":"23:59","weekendOpen":"00:00","weekendClose":"23:59","holidayOpen":"00:00","holidayClose":"00:00","feeInfo":"무료","phone":"031-560-1212","updatedAt":"2025-08-07","sido":"경기도","sigungu":"남양주시","dong":"다산동"},{"name":"진접 노상제3","type":"공영","category":"노상","address":"경기도 남양주시 진접읍 장현리 288-1","lat":37.71834545,"lng":127.1840361,"totalSpaces":12,"isFree":true,"operatingDays":"평일+토요일","weekdayOpen":"00:00","weekdayClose":"23:59","weekendOpen":"00:00","weekendClose":"23:59","holidayOpen":"00:00","holidayClose":"00:00","feeInfo":"무료","phone":"031-560-1212","updatedAt":"2025-08-07","sido":"경기도","sigungu":"남양주시","dong":"진접읍"},{"name":"금곡 노상제4","type":"공영","category":"노상","address":"경기도 남양주시 금곡동 671","lat":37.6268474995,"lng":127.2020851897,"totalSpaces":12,"isFree":true,"operatingDays":"평일+토요일","weekdayOpen":"00:00","weekdayClose":"23:59","weekendOpen":"00:00","weekendClose":"23:59","holidayOpen":"00:00","holidayClose":"00:00","feeInfo":"무료","phone":"031-560-1212","updatedAt":"2025-08-07","sido":"경기도","sigungu":"남양주시","dong":"금곡동"},{"name":"금곡 노상제2","type":"공영","category":"노상","address":"경기도 남양주시 사릉로34번길 48","lat":37.6359744,"lng":127.2138381,"totalSpaces":12,"isFree":true,"operatingDays":"평일+토요일+공휴일","weekdayOpen":"00:00","weekdayClose":"00:00","weekendOpen":"00:00","weekendClose":"00:00","holidayOpen":"00:00","holidayClose":"00:00","feeInfo":"무료","phone":"031-560-1212","updatedAt":"2017-04-18","sido":"경기도","sigungu":"남양주시","dong":"금곡동"},{"name":"진접 노상제2","type":"공영","category":"노상","address":"경기도 남양주시 진접읍 팔야리 786-18","lat":37.74463922,"lng":127.2020778,"totalSpaces":11,"isFree":true,"operatingDays":"평일+토요일","weekdayOpen":"00:00","weekdayClose":"23:59","weekendOpen":"00:00","weekendClose":"23:59","holidayOpen":"00:00","holidayClose":"00:00","feeInfo":"무료","phone":"031-560-1212","updatedAt":"2025-08-07","sido":"경기도","sigungu":"남양주시","dong":"진접읍"},{"name":"도농 노상제1","type":"공영","category":"노상","address":"경기도 남양주시 도농동 53-13번지 일원(도농굴다리 우리은행입구)","lat":37.6063703,"lng":127.1573637,"totalSpaces":11,"isFree":true,"operatingDays":"평일+토요일+공휴일","weekdayOpen":"00:00","weekdayClose":"00:00","weekendOpen":"00:00","weekendClose":"00:00","holidayOpen":"00:00","holidayClose":"00:00","feeInfo":"무료","phone":"031-560-1212","updatedAt":"2017-04-18","sido":"경기도","sigungu":"남양주시","dong":"도농동"},{"name":"별내면 노상제4","type":"공영","category":"노상","address":"경기도 남양주시 별내면 청학리 412-4","lat":37.70772498,"lng":127.1194617,"totalSpaces":10,"isFree":true,"operatingDays":"평일+토요일","weekdayOpen":"00:00","weekdayClose":"23:59","weekendOpen":"00:00","weekendClose":"23:59","holidayOpen":"00:00","holidayClose":"00:00","feeInfo":"무료","phone":"031-560-1212","updatedAt":"2025-08-07","sido":"경기도","sigungu":"남양주시","dong":"별내면"},{"name":"별내동 노상제7","type":"공영","category":"노상","address":"경기도 남양주시 별내동 1031","lat":37.64705,"lng":127.1212906131,"totalSpaces":10,"isFree":true,"operatingDays":"평일+토요일","weekdayOpen":"00:00","weekdayClose":"23:59","weekendOpen":"00:00","weekendClose":"23:59","holidayOpen":"00:00","holidayClose":"00:00","feeInfo":"무료","phone":"031-560-1212","updatedAt":"2025-08-07","sido":"경기도","sigungu":"남양주시","dong":"별내동"},{"name":"화도 노상제4","type":"공영","category":"노상","address":"경기도 남양주시 화도읍 마석로 27-15","lat":37.6536078,"lng":127.3057655,"totalSpaces":9,"isFree":true,"operatingDays":"평일+토요일+공휴일","weekdayOpen":"00:00","weekdayClose":"00:00","weekendOpen":"00:00","weekendClose":"00:00","holidayOpen":"00:00","holidayClose":"00:00","feeInfo":"무료","phone":"031-560-1212","updatedAt":"2017-04-18","sido":"경기도","sigungu":"남양주시","dong":"화도읍"},{"name":"금곡 노상제1","type":"공영","category":"노상","address":"경기도 남양주시 금곡동 177-2","lat":37.63618416,"lng":127.2151659,"totalSpaces":8,"isFree":true,"operatingDays":"평일+토요일","weekdayOpen":"00:00","weekdayClose":"23:59","weekendOpen":"00:00","weekendClose":"23:59","holidayOpen":"00:00","holidayClose":"00:00","feeInfo":"무료","phone":"031-560-1212","updatedAt":"2025-08-07","sido":"경기도","sigungu":"남양주시","dong":"금곡동"},{"name":"퇴계원 노상제1","type":"공영","category":"노상","address":"경기도 남양주시 퇴계원면 도제원로 87","lat":37.6551003,"lng":127.1452592,"totalSpaces":7,"isFree":true,"operatingDays":"평일+토요일+공휴일","weekdayOpen":"00:00","weekdayClose":"00:00","weekendOpen":"00:00","weekendClose":"00:00","holidayOpen":"00:00","holidayClose":"00:00","feeInfo":"무료","phone":"031-560-1212","updatedAt":"2017-04-18","sido":"경기도","sigungu":"남양주시","dong":"퇴계원면,리"},{"name":"금곡 노상제2","type":"공영","category":"노상","address":"경기도 남양주시 금곡동 158-95","lat":37.63610631,"lng":127.2137341,"totalSpaces":7,"isFree":true,"operatingDays":"평일+토요일","weekdayOpen":"00:00","weekdayClose":"23:59","weekendOpen":"00:00","weekendClose":"23:59","holidayOpen":"00:00","holidayClose":"00:00","feeInfo":"무료","phone":"031-560-1212","updatedAt":"2025-08-07","sido":"경기도","sigungu":"남양주시","dong":"금곡동"},{"name":"화도 제9공영","type":"공영","category":"노외","address":"경기도 남양주시 화도읍 마석우리 598-3","lat":37.6611122,"lng":127.3033859,"totalSpaces":6,"isFree":true,"operatingDays":"평일+토요일","weekdayOpen":"00:00","weekdayClose":"23:59","weekendOpen":"00:00","weekendClose":"23:59","holidayOpen":"00:00","holidayClose":"00:00","feeInfo":"무료","phone":"031-560-1212","updatedAt":"2025-08-07","sido":"경기도","sigungu":"남양주시","dong":"화도읍"},{"name":"퇴계원 노상제1","type":"공영","category":"노상","address":"경기도 남양주시 퇴계원읍 퇴계원리 70-67","lat":37.65563675,"lng":127.1452577,"totalSpaces":5,"isFree":true,"operatingDays":"평일+토요일","weekdayOpen":"00:00","weekdayClose":"23:59","weekendOpen":"00:00","weekendClose":"23:59","holidayOpen":"00:00","holidayClose":"00:00","feeInfo":"무료","phone":"031-560-1212","updatedAt":"2025-08-07","sido":"경기도","sigungu":"남양주시","dong":"퇴계원읍"},{"name":"늘을중앙공원","type":"공영","category":"노외","address":"경기도 남양주시 호평동 218-3","lat":37.65880956,"lng":127.2444657,"totalSpaces":240,"isFree":false,"operatingDays":"평일+토요일","weekdayOpen":"08:00","weekdayClose":"20:00","weekendOpen":"08:00","weekendClose":"20:00","holidayOpen":"00:00","holidayClose":"00:00","feeInfo":"기본 30분 600원 / 추가 10분당 300원","phone":"031-560-1212","updatedAt":"2025-08-07","sido":"경기도","sigungu":"남양주시","dong":"호평동"},{"name":"정약용생가 다목적광장","type":"공영","category":"노외","address":"경기도 남양주시 조안면 능내리 50","lat":37.51476207,"lng":127.2970662,"totalSpaces":219,"isFree":false,"operatingDays":"평일+토요일+공휴일","weekdayOpen":"08:00","weekdayClose":"20:00","weekendOpen":"08:00","weekendClose":"20:00","holidayOpen":"08:00","holidayClose":"20:00","feeInfo":"기본 30분 600원 / 추가 10분당 300원","phone":"031-560-1212","updatedAt":"2025-08-07","sido":"경기도","sigungu":"남양주시","dong":"조안면"},{"name":"진접 제5공영","type":"공영","category":"노외","address":"경기도 남양주시 진접읍 금곡리 1118","lat":37.71895377,"lng":127.2050656,"totalSpaces":180,"isFree":false,"operatingDays":"평일+토요일","weekdayOpen":"08:00","weekdayClose":"20:00","weekendOpen":"08:00","weekendClose":"20:00","holidayOpen":"00:00","holidayClose":"00:00","feeInfo":"기본 30분 600원 / 추가 10분당 300원","phone":"031-560-1212","updatedAt":"2025-08-07","sido":"경기도","sigungu":"남양주시","dong":"진접읍"},{"name":"화도 제10공영","type":"공영","category":"노외","address":"경기도 남양주시 화도읍 마석우리 215-1","lat":37.65730263,"lng":127.3068672,"totalSpaces":169,"isFree":false,"operatingDays":"평일+토요일","weekdayOpen":"08:00","weekdayClose":"20:00","weekendOpen":"08:00","weekendClose":"20:00","holidayOpen":"00:00","holidayClose":"00:00","feeInfo":"기본 30분 600원 / 추가 10분당 300원","phone":"031-560-1212","updatedAt":"2025-08-07","sido":"경기도","sigungu":"남양주시","dong":"화도읍"},{"name":"평내 제2공영","type":"공영","category":"노외","address":"경기도 남양주시 평내동 660-8번지(평내호평역사)","lat":37.6535304,"lng":127.2429714,"totalSpaces":141,"isFree":false,"operatingDays":"평일+토요일","weekdayOpen":"06:00","weekdayClose":"00:00","weekendOpen":"12:00","weekendClose":"21:00","holidayOpen":"00:00","holidayClose":"00:00","feeInfo":"기본 30분 600원 / 추가 10분당 300원","phone":"031-560-1212","updatedAt":"2017-04-18","sido":"경기도","sigungu":"남양주시","dong":"평내동"},{"name":"다산생태공원제1공영","type":"공영","category":"노외","address":"경기도 남양주시 조안면 능내리 31-2","lat":37.51423397,"lng":127.2991015,"totalSpaces":135,"isFree":false,"operatingDays":"평일+토요일+공휴일","weekdayOpen":"08:00","weekdayClose":"20:00","weekendOpen":"08:00","weekendClose":"20:00","holidayOpen":"08:00","holidayClose":"20:00","feeInfo":"기본 30분 600원 / 추가 10분당 300원","phone":"031-560-1212","updatedAt":"2025-08-07","sido":"경기도","sigungu":"남양주시","dong":"조안면"},{"name":"퇴계원 제3공영","type":"공영","category":"노외","address":"경기도 남양주시 퇴계원읍 퇴계원리 218-8","lat":37.647674,"lng":127.1423801,"totalSpaces":128,"isFree":false,"operatingDays":"평일+토요일","weekdayOpen":"08:00","weekdayClose":"20:00","weekendOpen":"08:00","weekendClose":"20:00","holidayOpen":"00:00","holidayClose":"00:00","feeInfo":"기본 30분 600원 / 추가 10분당 300원","phone":"031-560-1212","updatedAt":"2025-08-07","sido":"경기도","sigungu":"남양주시","dong":"퇴계원읍"},{"name":"퇴계원 제3공영","type":"공영","category":"노외","address":"경기도 남양주시 퇴계원면 경춘북로 527-1","lat":37.6476076,"lng":127.1423846,"totalSpaces":128,"isFree":false,"operatingDays":"평일+토요일","weekdayOpen":"10:00","weekdayClose":"19:00","weekendOpen":"10:00","weekendClose":"19:00","holidayOpen":"00:00","holidayClose":"00:00","feeInfo":"기본 30분 600원 / 추가 10분당 300원","phone":"031-560-1212","updatedAt":"2017-04-18","sido":"경기도","sigungu":"남양주시","dong":"퇴계원면,리"},{"name":"다산 제3공영","type":"공영","category":"노외","address":"경기도 남양주시 다산동 6148","lat":37.6143008,"lng":127.1547829,"totalSpaces":118,"isFree":false,"operatingDays":"평일+토요일+공휴일","weekdayOpen":"08:00","weekdayClose":"20:00","weekendOpen":"08:00","weekendClose":"20:00","holidayOpen":"08:00","holidayClose":"20:00","feeInfo":"기본 30분 600원 / 추가 10분당 300원","phone":"031-560-1212","updatedAt":"2025-08-07","sido":"경기도","sigungu":"남양주시","dong":"다산동"},{"name":"진건 제4공영","type":"공영","category":"노외","address":"경기도 남양주시 진건읍 사능리 590-2","lat":37.65039476,"lng":127.1791026,"totalSpaces":115,"isFree":false,"operatingDays":"평일+토요일","weekdayOpen":"08:00","weekdayClose":"20:00","weekendOpen":"08:00","weekendClose":"20:00","holidayOpen":"00:00","holidayClose":"00:00","feeInfo":"기본 30분 600원 / 추가 10분당 300원","phone":"031-560-1212","updatedAt":"2025-08-07","sido":"경기도","sigungu":"남양주시","dong":"진건읍"},{"name":"화도 제1공영","type":"공영","category":"노외","address":"경기도 남양주시 화도읍 마석우리 334-11","lat":37.65316702,"lng":127.3030429,"totalSpaces":114,"isFree":false,"operatingDays":"평일+토요일","weekdayOpen":"08:00","weekdayClose":"20:00","weekendOpen":"08:00","weekendClose":"20:00","holidayOpen":"00:00","holidayClose":"00:00","feeInfo":"기본 30분 600원 / 추가 10분당 300원","phone":"031-560-1212","updatedAt":"2025-08-07","sido":"경기도","sigungu":"남양주시","dong":"화도읍"},{"name":"오남 제3공영","type":"공영","category":"노외","address":"경기도 남양주시 오남읍 오남리 41","lat":37.6929338629,"lng":127.2183,"totalSpaces":112,"isFree":false,"operatingDays":"평일+토요일","weekdayOpen":"08:00","weekdayClose":"20:00","weekendOpen":"08:00","weekendClose":"20:00","holidayOpen":"08:00","holidayClose":"20:00","feeInfo":"기본 30분 600원 / 추가 10분당 300원","phone":"031-560-1212","updatedAt":"2025-08-07","sido":"경기도","sigungu":"남양주시","dong":"오남읍"},{"name":"화도 제1공영","type":"공영","category":"노외","address":"경기도 남양주시 화도읍 마석우리 334-11","lat":37.6531644,"lng":127.3029941,"totalSpaces":111,"isFree":false,"operatingDays":"평일+토요일","weekdayOpen":"10:00","weekdayClose":"19:00","weekendOpen":"10:00","weekendClose":"19:00","holidayOpen":"00:00","holidayClose":"00:00","feeInfo":"기본 30분 600원 / 추가 10분당 300원","phone":"031-560-1212","updatedAt":"2017-04-18","sido":"경기도","sigungu":"남양주시","dong":"화도읍"},{"name":"별내동 제2공영","type":"공영","category":"노외","address":"경기도 남양주시 별내동 1062","lat":37.6509379059,"lng":127.1203268138,"totalSpaces":109,"isFree":false,"operatingDays":"평일+토요일","weekdayOpen":"08:00","weekdayClose":"20:00","weekendOpen":"08:00","weekendClose":"20:00","holidayOpen":"00:00","holidayClose":"00:00","feeInfo":"기본 30분 600원 / 추가 10분당 300원","phone":"031-560-1212","updatedAt":"2025-08-07","sido":"경기도","sigungu":"남양주시","dong":"별내동"},{"name":"오남 제1공영","type":"공영","category":"노외","address":"경기도 남양주시 오남읍 오남리 862","lat":37.69421943,"lng":127.1988665,"totalSpaces":107,"isFree":false,"operatingDays":"평일+토요일","weekdayOpen":"08:00","weekdayClose":"20:00","weekendOpen":"08:00","weekendClose":"20:00","holidayOpen":"00:00","holidayClose":"00:00","feeInfo":"기본 30분 600원 / 추가 10분당 300원","phone":"031-560-1212","updatedAt":"2025-08-07","sido":"경기도","sigungu":"남양주시","dong":"오남읍"},{"name":"호평 제2공영","type":"공영","category":"노외","address":"경기도 남양주시 호평동 542-3","lat":37.6555520226,"lng":127.2394137073,"totalSpaces":102,"isFree":false,"operatingDays":"평일+토요일","weekdayOpen":"08:00","weekdayClose":"20:00","weekendOpen":"08:00","weekendClose":"20:00","holidayOpen":"00:00","holidayClose":"00:00","feeInfo":"기본 30분 600원 / 추가 10분당 300원","phone":"031-560-1212","updatedAt":"2025-08-07","sido":"경기도","sigungu":"남양주시","dong":"호평동"},{"name":"평내 제2공영","type":"공영","category":"노외","address":"경기도 남양주시 평내동 660-8","lat":37.65354164,"lng":127.2429728,"totalSpaces":100,"isFree":false,"operatingDays":"평일+토요일","weekdayOpen":"08:00","weekdayClose":"20:00","weekendOpen":"08:00","weekendClose":"20:00","holidayOpen":"00:00","holidayClose":"00:00","feeInfo":"기본 30분 600원 / 추가 10분당 300원","phone":"031-560-1212","updatedAt":"2025-08-07","sido":"경기도","sigungu":"남양주시","dong":"평내동"},{"name":"와부 제3공영","type":"공영","category":"노외","address":"경기도 남양주시 와부읍 덕소로 237","lat":37.5796319,"lng":127.2226567,"totalSpaces":93,"isFree":false,"operatingDays":"평일+토요일","weekdayOpen":"10:00","weekdayClose":"19:00","weekendOpen":"10:00","weekendClose":"19:00","holidayOpen":"00:00","holidayClose":"00:00","feeInfo":"기본 30분 600원 / 추가 10분당 300원","phone":"031-560-1212","updatedAt":"2017-04-18","sido":"경기도","sigungu":"남양주시","dong":"와부읍"},{"name":"와부 제3공영","type":"공영","category":"노외","address":"경기도 남양주시 와부읍 도곡리1037-9","lat":37.57963273,"lng":127.2226542,"totalSpaces":92,"isFree":false,"operatingDays":"평일+토요일","weekdayOpen":"08:00","weekdayClose":"20:00","weekendOpen":"08:00","weekendClose":"20:00","holidayOpen":"00:00","holidayClose":"00:00","feeInfo":"기본 30분 600원 / 추가 10분당 300원","phone":"031-560-1212","updatedAt":"2025-08-07","sido":"경기도","sigungu":"남양주시","dong":"와부읍"},{"name":"진접 제2공영","type":"공영","category":"노외","address":"경기도 남양주시 진접읍 팔야리 792","lat":37.7453536685,"lng":127.2016370265,"totalSpaces":92,"isFree":false,"operatingDays":"평일+토요일","weekdayOpen":"08:00","weekdayClose":"20:00","weekendOpen":"08:00","weekendClose":"20:00","holidayOpen":"00:00","holidayClose":"00:00","feeInfo":"기본 30분 600원 / 추가 10분당 300원","phone":"031-560-1212","updatedAt":"2025-08-07","sido":"경기도","sigungu":"남양주시","dong":"진접읍"},{"name":"화도 제8공영","type":"공영","category":"노외","address":"경기도 남양주시 화도읍 묵현리 353","lat":37.65854013,"lng":127.283728,"totalSpaces":81,"isFree":false,"operatingDays":"평일+토요일","weekdayOpen":"08:00","weekdayClose":"20:00","weekendOpen":"08:00","weekendClose":"20:00","holidayOpen":"00:00","holidayClose":"00:00","feeInfo":"기본 30분 600원 / 추가 10분당 300원","phone":"031-560-1212","updatedAt":"2025-08-07","sido":"경기도","sigungu":"남양주시","dong":"화도읍"},{"name":"지금 제2공영","type":"공영","category":"노외","address":"경기도 남양주시 가운동 664(소방서 뒤)","lat":37.6048522,"lng":127.1579811,"totalSpaces":80,"isFree":false,"operatingDays":"평일+토요일","weekdayOpen":"10:00","weekdayClose":"19:00","weekendOpen":"10:00","weekendClose":"19:00","holidayOpen":"00:00","holidayClose":"00:00","feeInfo":"기본 30분 600원 / 추가 10분당 300원","phone":"031-560-1212","updatedAt":"2017-04-18","sido":"경기도","sigungu":"남양주시","dong":"가운동"},{"name":"진접 노상제4","type":"공영","category":"노상","address":"경기도 남양주시 진접읍 금곡리 1127-113","lat":37.71462257,"lng":127.1977246,"totalSpaces":78,"isFree":false,"operatingDays":"평일+토요일","weekdayOpen":"08:00","weekdayClose":"20:00","weekendOpen":"08:00","weekendClose":"20:00","holidayOpen":"00:00","holidayClose":"00:00","feeInfo":"기본 30분 600원 / 추가 10분당 300원","phone":"031-560-1212","updatedAt":"2025-08-07","sido":"경기도","sigungu":"남양주시","dong":"진접읍"},{"name":"진접 노상제4","type":"공영","category":"노상","address":"경기도 남양주시 진접읍 금곡리 1127-113번지 외","lat":37.7147408,"lng":127.1976917,"totalSpaces":77,"isFree":false,"operatingDays":"평일+토요일","weekdayOpen":"09:00","weekdayClose":"18:00","weekendOpen":"09:00","weekendClose":"18:00","holidayOpen":"00:00","holidayClose":"00:00","feeInfo":"기본 30분 600원 / 추가 10분당 300원","phone":"","updatedAt":"2017-04-18","sido":"경기도","sigungu":"남양주시","dong":"진접읍"},{"name":"화도 제2공영","type":"공영","category":"노외","address":"경기도 남양주시 화도읍 마석우리 339-12","lat":37.6533083,"lng":127.3020889,"totalSpaces":76,"isFree":false,"operatingDays":"평일+토요일","weekdayOpen":"10:00","weekdayClose":"19:00","weekendOpen":"10:00","weekendClose":"19:00","holidayOpen":"00:00","holidayClose":"00:00","feeInfo":"기본 30분 600원 / 추가 10분당 300원","phone":"","updatedAt":"2017-04-18","sido":"경기도","sigungu":"남양주시","dong":"화도읍"},{"name":"화도 제2공영","type":"공영","category":"노외","address":"경기도 남양주시 화도읍 마석우리 338-1","lat":37.65319343,"lng":127.3018012,"totalSpaces":75,"isFree":false,"operatingDays":"평일+토요일","weekdayOpen":"08:00","weekdayClose":"20:00","weekendOpen":"08:00","weekendClose":"20:00","holidayOpen":"00:00","holidayClose":"00:00","feeInfo":"기본 30분 600원 / 추가 10분당 300원","phone":"031-560-1212","updatedAt":"2025-08-07","sido":"경기도","sigungu":"남양주시","dong":"화도읍"},{"name":"퇴계원 제1공영","type":"공영","category":"노외","address":"경기도 남양주시 퇴계원면,리 318-1","lat":37.6493492,"lng":127.1446406,"totalSpaces":73,"isFree":false,"operatingDays":"평일+토요일","weekdayOpen":"08:00","weekdayClose":"20:00","weekendOpen":"08:00","weekendClose":"20:00","holidayOpen":"08:00","holidayClose":"20:00","feeInfo":"기본 30분 600원 / 추가 10분당 300원","phone":"","updatedAt":"2016-06-01","sido":"경기도","sigungu":"남양주시","dong":"퇴계원면,리"},{"name":"다산 제2공영","type":"공영","category":"노외","address":"경기도 남양주시 다산동 664","lat":37.60486538,"lng":127.1579824,"totalSpaces":71,"isFree":false,"operatingDays":"평일+토요일","weekdayOpen":"08:00","weekdayClose":"20:00","weekendOpen":"08:00","weekendClose":"20:00","holidayOpen":"00:00","holidayClose":"00:00","feeInfo":"기본 30분 600원 / 추가 10분당 300원","phone":"031-560-1212","updatedAt":"2025-08-07","sido":"경기도","sigungu":"남양주시","dong":"다산동"},{"name":"진접 제1공영","type":"공영","category":"노외","address":"경기도 남양주시 진접읍 팔야리 778-4","lat":37.74488924,"lng":127.2084787,"totalSpaces":68,"isFree":false,"operatingDays":"평일+토요일","weekdayOpen":"08:00","weekdayClose":"20:00","weekendOpen":"08:00","weekendClose":"20:00","holidayOpen":"00:00","holidayClose":"00:00","feeInfo":"기본 30분 600원 / 추가 10분당 300원","phone":"031-560-1212","updatedAt":"2025-08-07","sido":"경기도","sigungu":"남양주시","dong":"진접읍"},{"name":"호평 제1공영","type":"공영","category":"노외","address":"경기도 남양주시 호평동 350","lat":37.67042857,"lng":127.2519143,"totalSpaces":64,"isFree":false,"operatingDays":"평일+토요일","weekdayOpen":"08:00","weekdayClose":"20:00","weekendOpen":"08:00","weekendClose":"20:00","holidayOpen":"00:00","holidayClose":"00:00","feeInfo":"기본 30분 600원 / 추가 10분당 300원","phone":"031-560-1212","updatedAt":"2025-08-07","sido":"경기도","sigungu":"남양주시","dong":"호평동"},{"name":"진접 노상제5","type":"공영","category":"노상","address":"경기도 남양주시 진접읍 금곡리 1127-16","lat":37.72087167,"lng":127.1963124,"totalSpaces":62,"isFree":false,"operatingDays":"평일+토요일","weekdayOpen":"08:00","weekdayClose":"20:00","weekendOpen":"08:00","weekendClose":"20:00","holidayOpen":"00:00","holidayClose":"00:00","feeInfo":"기본 30분 600원 / 추가 10분당 300원","phone":"031-560-1212","updatedAt":"2025-08-07","sido":"경기도","sigungu":"남양주시","dong":"진접읍"},{"name":"진접 노상제5","type":"공영","category":"노상","address":"경기도 남양주시 진접읍 금곡리 1127-16번지(진접택지/신한은행 뒤)","lat":37.7211805,"lng":127.195835,"totalSpaces":58,"isFree":false,"operatingDays":"평일+토요일","weekdayOpen":"09:00","weekdayClose":"18:00","weekendOpen":"09:00","weekendClose":"18:00","holidayOpen":"00:00","holidayClose":"00:00","feeInfo":"기본 30분 600원 / 추가 10분당 300원","phone":"031-560-1212","updatedAt":"2017-04-18","sido":"경기도","sigungu":"남양주시","dong":"진접읍"},{"name":"화도 제4공영","type":"공영","category":"노외","address":"경기도 남양주시 화도읍 마석로 12","lat":37.6519225,"lng":127.306647,"totalSpaces":55,"isFree":false,"operatingDays":"평일+토요일","weekdayOpen":"10:00","weekdayClose":"19:00","weekendOpen":"10:00","weekendClose":"19:00","holidayOpen":"00:00","holidayClose":"00:00","feeInfo":"기본 30분 600원 / 추가 10분당 300원","phone":"031-560-1212","updatedAt":"2017-04-18","sido":"경기도","sigungu":"남양주시","dong":"화도읍"},{"name":"오남 제2공영","type":"공영","category":"노외","address":"경기도 남양주시 오남읍 양지리 244-1","lat":37.7104059021,"lng":127.2025,"totalSpaces":53,"isFree":false,"operatingDays":"평일+토요일","weekdayOpen":"08:00","weekdayClose":"20:00","weekendOpen":"08:00","weekendClose":"20:00","holidayOpen":"00:00","holidayClose":"00:00","feeInfo":"기본 30분 600원 / 추가 10분당 300원","phone":"031-560-1212","updatedAt":"2025-08-07","sido":"경기도","sigungu":"남양주시","dong":"오남읍"},{"name":"화도 제4공영","type":"공영","category":"노외","address":"경기도 남양주시 화도읍 창현리 469-1","lat":37.6520321778,"lng":127.3067451806,"totalSpaces":53,"isFree":false,"operatingDays":"평일+토요일","weekdayOpen":"08:00","weekdayClose":"20:00","weekendOpen":"08:00","weekendClose":"20:00","holidayOpen":"00:00","holidayClose":"00:00","feeInfo":"기본 30분 600원 / 추가 10분당 300원","phone":"031-560-1212","updatedAt":"2025-08-07","sido":"경기도","sigungu":"남양주시","dong":"화도읍"},{"name":"화도 제7공영","type":"공영","category":"노외","address":"경기도 남양주시 화도읍 창현리 734","lat":37.6509910572,"lng":127.3040456415,"totalSpaces":52,"isFree":false,"operatingDays":"평일+토요일","weekdayOpen":"08:00","weekdayClose":"20:00","weekendOpen":"08:00","weekendClose":"20:00","holidayOpen":"00:00","holidayClose":"00:00","feeInfo":"기본 30분 600원 / 추가 10분당 300원","phone":"031-560-1212","updatedAt":"2025-08-07","sido":"경기도","sigungu":"남양주시","dong":"화도읍"},{"name":"별내동 제1공영","type":"공영","category":"노외","address":"경기도 남양주시 별내동 935","lat":37.65598438,"lng":127.1259358,"totalSpaces":49,"isFree":false,"operatingDays":"평일+토요일","weekdayOpen":"08:00","weekdayClose":"20:00","weekendOpen":"08:00","weekendClose":"20:00","holidayOpen":"00:00","holidayClose":"00:00","feeInfo":"기본 30분 600원 / 추가 10분당 300원","phone":"031-560-1212","updatedAt":"2025-08-07","sido":"경기도","sigungu":"남양주시","dong":"별내동"},{"name":"진접 제3공영","type":"공영","category":"노외","address":"경기도 남양주시 진접읍 장현리 710-2","lat":37.72610263,"lng":127.1937489,"totalSpaces":48,"isFree":false,"operatingDays":"평일+토요일","weekdayOpen":"08:00","weekdayClose":"20:00","weekendOpen":"08:00","weekendClose":"20:00","holidayOpen":"00:00","holidayClose":"00:00","feeInfo":"기본 30분 600원 / 추가 10분당 300원","phone":"031-560-1212","updatedAt":"2025-08-07","sido":"경기도","sigungu":"남양주시","dong":"진접읍"},{"name":"다산 제1공영","type":"공영","category":"노외","address":"경기도 남양주시 다산동 567-8","lat":37.6052493,"lng":127.158063,"totalSpaces":47,"isFree":false,"operatingDays":"평일+토요일","weekdayOpen":"08:00","weekdayClose":"20:00","weekendOpen":"08:00","weekendClose":"20:00","holidayOpen":"00:00","holidayClose":"00:00","feeInfo":"기본 30분 600원 / 추가 10분당 300원","phone":"031-560-1212","updatedAt":"2025-08-07","sido":"경기도","sigungu":"남양주시","dong":"다산동"},{"name":"지금 제1공영","type":"공영","category":"노외","address":"경기도 남양주시 도농동 155-6번지 일원 (기업은행 뒤)","lat":37.6051193,"lng":127.157728,"totalSpaces":47,"isFree":false,"operatingDays":"평일+토요일","weekdayOpen":"10:00","weekdayClose":"19:00","weekendOpen":"10:00","weekendClose":"19:00","holidayOpen":"00:00","holidayClose":"00:00","feeInfo":"기본 30분 600원 / 추가 10분당 300원","phone":"031-560-1212","updatedAt":"2017-04-18","sido":"경기도","sigungu":"남양주시","dong":"도농동"},{"name":"진접 제4공영","type":"공영","category":"노외","address":"경기도 남양주시 진접읍 부평리 755","lat":37.74150278,"lng":127.1996514,"totalSpaces":40,"isFree":false,"operatingDays":"평일+토요일","weekdayOpen":"08:00","weekdayClose":"20:00","weekendOpen":"08:00","weekendClose":"20:00","holidayOpen":"00:00","holidayClose":"00:00","feeInfo":"기본 30분 600원 / 추가 10분당 300원","phone":"031-560-1212","updatedAt":"2025-08-07","sido":"경기도","sigungu":"남양주시","dong":"진접읍"},{"name":"별내동 노상제9","type":"공영","category":"노상","address":"경기도 남양주시 별내동 1098","lat":37.65208015,"lng":127.1129703,"totalSpaces":40,"isFree":false,"operatingDays":"평일+토요일","weekdayOpen":"08:00","weekdayClose":"20:00","weekendOpen":"08:00","weekendClose":"20:00","holidayOpen":"00:00","holidayClose":"00:00","feeInfo":"기본 30분 600원 / 추가 10분당 300원","phone":"031-560-1212","updatedAt":"2025-08-07","sido":"경기도","sigungu":"남양주시","dong":"별내동"},{"name":"화도 노상제3","type":"공영","category":"노상","address":"경기도 남양주시 화도읍 비룡로 58","lat":37.6572322,"lng":127.3019862,"totalSpaces":38,"isFree":false,"operatingDays":"평일+토요일","weekdayOpen":"09:00","weekdayClose":"18:00","weekendOpen":"09:00","weekendClose":"18:00","holidayOpen":"00:00","holidayClose":"00:00","feeInfo":"기본 30분 600원 / 추가 10분당 300원","phone":"031-560-1212","updatedAt":"2017-04-18","sido":"경기도","sigungu":"남양주시","dong":"화도읍"},{"name":"화도 제6공영","type":"공영","category":"노외","address":"경기도 남양주시 화도읍 마석중앙로 79","lat":37.6523608,"lng":127.3085481,"totalSpaces":37,"isFree":false,"operatingDays":"평일+토요일","weekdayOpen":"10:00","weekdayClose":"19:00","weekendOpen":"10:00","weekendClose":"19:00","holidayOpen":"00:00","holidayClose":"00:00","feeInfo":"기본 30분 600원 / 추가 10분당 300원","phone":"031-560-1212","updatedAt":"2017-04-18","sido":"경기도","sigungu":"남양주시","dong":"화도읍"},{"name":"와부 제5공영","type":"공영","category":"노외","address":"경기도 남양주시 와부읍 팔당리 243-9","lat":37.54597782,"lng":127.2449375,"totalSpaces":36,"isFree":false,"operatingDays":"평일+토요일+공휴일","weekdayOpen":"08:00","weekdayClose":"20:00","weekendOpen":"08:00","weekendClose":"20:00","holidayOpen":"08:00","holidayClose":"20:00","feeInfo":"기본 30분 600원 / 추가 10분당 300원","phone":"031-560-1212","updatedAt":"2025-08-07","sido":"경기도","sigungu":"남양주시","dong":"와부읍"},{"name":"퇴계원 제2공영","type":"공영","category":"노외","address":"경기도 남양주시 퇴계원면,리 257-6번지 일원(퇴계원공원 밑)","lat":37.6512216,"lng":127.1430397,"totalSpaces":36,"isFree":false,"operatingDays":"평일+토요일","weekdayOpen":"10:00","weekdayClose":"19:00","weekendOpen":"10:00","weekendClose":"19:00","holidayOpen":"00:00","holidayClose":"00:00","feeInfo":"기본 30분 600원 / 추가 10분당 300원","phone":"031-560-1212","updatedAt":"2017-04-18","sido":"경기도","sigungu":"남양주시","dong":"퇴계원면,리"},{"name":"호평 노상제1","type":"공영","category":"노상","address":"경기도 남양주시 늘을2로 26","lat":37.6550885,"lng":127.2441097,"totalSpaces":36,"isFree":false,"operatingDays":"평일+토요일","weekdayOpen":"09:00","weekdayClose":"18:00","weekendOpen":"09:00","weekendClose":"18:00","holidayOpen":"00:00","holidayClose":"00:00","feeInfo":"기본 30분 600원 / 추가 10분당 300원","phone":"031-560-1212","updatedAt":"2017-04-18","sido":"경기도","sigungu":"남양주시","dong":"호평동"},{"name":"진건 제2공영","type":"공영","category":"노외","address":"경기도 남양주시 진건읍 사능리 618-3","lat":37.65448041,"lng":127.1795049,"totalSpaces":35,"isFree":false,"operatingDays":"평일+토요일","weekdayOpen":"08:00","weekdayClose":"20:00","weekendOpen":"08:00","weekendClose":"20:00","holidayOpen":"00:00","holidayClose":"00:00","feeInfo":"기본 30분 600원 / 추가 10분당 300원","phone":"031-560-1212","updatedAt":"2025-08-07","sido":"경기도","sigungu":"남양주시","dong":"진건읍"},{"name":"퇴계원 제2공영","type":"공영","category":"노외","address":"경기도 남양주시 퇴계원읍 퇴계원리 257-6","lat":37.6512202145,"lng":127.1430095936,"totalSpaces":35,"isFree":false,"operatingDays":"평일+토요일","weekdayOpen":"08:00","weekdayClose":"20:00","weekendOpen":"08:00","weekendClose":"20:00","holidayOpen":"00:00","holidayClose":"00:00","feeInfo":"기본 30분 600원 / 추가 10분당 300원","phone":"031-560-1212","updatedAt":"2025-08-07","sido":"경기도","sigungu":"남양주시","dong":"퇴계원읍"},{"name":"진접 노상제7","type":"공영","category":"노상","address":"경기도 남양주시 진접읍 금곡리 1127-3(진접택지/우체국 뒤)","lat":37.7117454,"lng":127.1870141,"totalSpaces":35,"isFree":false,"operatingDays":"평일+토요일","weekdayOpen":"09:00","weekdayClose":"18:00","weekendOpen":"09:00","weekendClose":"18:00","holidayOpen":"00:00","holidayClose":"00:00","feeInfo":"기본 30분 600원 / 추가 10분당 300원","phone":"031-560-1212","updatedAt":"2017-04-18","sido":"경기도","sigungu":"남양주시","dong":"진접읍"},{"name":"와부 제4공영","type":"공영","category":"노외","address":"경기도 남양주시 와부읍 팔당리 199-4","lat":37.5450812,"lng":127.2459639,"totalSpaces":34,"isFree":false,"operatingDays":"평일+토요일","weekdayOpen":"09:00","weekdayClose":"18:00","weekendOpen":"09:00","weekendClose":"18:00","holidayOpen":"00:00","holidayClose":"00:00","feeInfo":"기본 30분 600원 / 추가 10분당 300원","phone":"","updatedAt":"2017-04-18","sido":"경기도","sigungu":"남양주시","dong":"와부읍"},{"name":"진건 제5공영","type":"공영","category":"노외","address":"경기도 남양주시 진건읍 용정리 산131-4","lat":37.65802043,"lng":127.180696,"totalSpaces":33,"isFree":false,"operatingDays":"평일+토요일","weekdayOpen":"08:00","weekdayClose":"20:00","weekendOpen":"08:00","weekendClose":"20:00","holidayOpen":"00:00","holidayClose":"00:00","feeInfo":"기본 30분 600원 / 추가 10분당 300원","phone":"031-560-1212","updatedAt":"2025-08-07","sido":"경기도","sigungu":"남양주시","dong":"진건읍"},{"name":"양정 제1공영","type":"공영","category":"노외","address":"경기도 남양주시 이패동 464-2","lat":37.60618947,"lng":127.1925063,"totalSpaces":32,"isFree":false,"operatingDays":"평일+토요일","weekdayOpen":"08:00","weekdayClose":"20:00","weekendOpen":"08:00","weekendClose":"20:00","holidayOpen":"00:00","holidayClose":"00:00","feeInfo":"기본 30분 600원 / 추가 10분당 300원","phone":"031-560-1212","updatedAt":"2025-08-07","sido":"경기도","sigungu":"남양주시","dong":"이패동"},{"name":"와부 제2공영","type":"공영","category":"노외","address":"경기도 남양주시 와부읍 덕소로 100-3","lat":37.5853783,"lng":127.2119678,"totalSpaces":31,"isFree":false,"operatingDays":"평일+토요일","weekdayOpen":"10:00","weekdayClose":"19:00","weekendOpen":"10:00","weekendClose":"19:00","holidayOpen":"00:00","holidayClose":"00:00","feeInfo":"기본 30분 600원 / 추가 10분당 300원","phone":"031-560-1212","updatedAt":"2017-04-18","sido":"경기도","sigungu":"남양주시","dong":"와부읍"},{"name":"별내동 노상제1","type":"공영","category":"노상","address":"경기도 남양주시 별내동 1059","lat":37.65024166,"lng":127.1201782,"totalSpaces":30,"isFree":false,"operatingDays":"평일+토요일+공휴일","weekdayOpen":"09:00","weekdayClose":"21:00","weekendOpen":"09:00","weekendClose":"18:00","holidayOpen":"09:00","holidayClose":"18:00","feeInfo":"기본 60분 1,000원 / 추가 30분당 500원","phone":"031-560-1212","updatedAt":"2025-08-07","sido":"경기도","sigungu":"남양주시","dong":"별내동"},{"name":"화도 제3공영","type":"공영","category":"노외","address":"경기도 남양주시 화도읍 마석우리 222-2(구마석지구대 뒤)","lat":37.652939,"lng":127.3079476,"totalSpaces":29,"isFree":false,"operatingDays":"평일+토요일","weekdayOpen":"10:00","weekdayClose":"19:00","weekendOpen":"10:00","weekendClose":"19:00","holidayOpen":"00:00","holidayClose":"00:00","feeInfo":"기본 30분 600원 / 추가 10분당 300원","phone":"031-560-1212","updatedAt":"2017-04-18","sido":"경기도","sigungu":"남양주시","dong":"화도읍"},{"name":"퇴계원 제4공영","type":"공영","category":"노외","address":"경기도 남양주시 퇴계원읍 퇴계원리 229-4","lat":37.64867932,"lng":127.145591,"totalSpaces":29,"isFree":false,"operatingDays":"평일+토요일","weekdayOpen":"08:00","weekdayClose":"20:00","weekendOpen":"08:00","weekendClose":"20:00","holidayOpen":"00:00","holidayClose":"00:00","feeInfo":"기본 30분 600원 / 추가 10분당 300원","phone":"031-560-1212","updatedAt":"2025-08-07","sido":"경기도","sigungu":"남양주시","dong":"퇴계원읍"},{"name":"화도 제5공영","type":"공영","category":"노외","address":"경기도 남양주시 화도읍 마석우리 392-3(마석택지지구)","lat":37.6570029,"lng":127.3028873,"totalSpaces":29,"isFree":false,"operatingDays":"평일+토요일","weekdayOpen":"06:00","weekdayClose":"00:00","weekendOpen":"06:00","weekendClose":"00:00","holidayOpen":"00:00","holidayClose":"00:00","feeInfo":"기본 30분 600원 / 추가 10분당 300원","phone":"031-560-1212","updatedAt":"2017-04-18","sido":"경기도","sigungu":"남양주시","dong":"화도읍"},{"name":"와부 제1공영","type":"공영","category":"노외","address":"경기도 남양주시 와부읍 덕소리 474-1","lat":37.5862488221,"lng":127.2130282386,"totalSpaces":28,"isFree":false,"operatingDays":"평일+토요일","weekdayOpen":"08:00","weekdayClose":"20:00","weekendOpen":"08:00","weekendClose":"20:00","holidayOpen":"00:00","holidayClose":"00:00","feeInfo":"기본 30분 600원 / 추가 10분당 300원","phone":"031-560-1212","updatedAt":"2025-08-07","sido":"경기도","sigungu":"남양주시","dong":"와부읍"},{"name":"와부 노상제1","type":"공영","category":"노상","address":"경기도 남양주시 덕소로97번길 12","lat":37.5849923,"lng":127.2141496,"totalSpaces":28,"isFree":false,"operatingDays":"평일+토요일","weekdayOpen":"09:00","weekdayClose":"20:00","weekendOpen":"09:00","weekendClose":"20:00","holidayOpen":"00:00","holidayClose":"00:00","feeInfo":"기본 30분 600원 / 추가 10분당 300원","phone":"031-595-1115","updatedAt":"2017-04-18","sido":"경기도","sigungu":"남양주시","dong":"와부읍"},{"name":"와부 노상제1","type":"공영","category":"노상","address":"경기도 남양주시 와부읍 덕소리 111-2","lat":37.58523059,"lng":127.2142351,"totalSpaces":27,"isFree":false,"operatingDays":"평일+토요일","weekdayOpen":"08:00","weekdayClose":"20:00","weekendOpen":"08:00","weekendClose":"20:00","holidayOpen":"00:00","holidayClose":"00:00","feeInfo":"기본 30분 600원 / 추가 10분당 300원","phone":"031-560-1212","updatedAt":"2025-08-07","sido":"경기도","sigungu":"남양주시","dong":"와부읍"},{"name":"화도 제3공영","type":"공영","category":"노외","address":"경기도 남양주시 화도읍 마석우리 222-2","lat":37.65235589,"lng":127.3118502,"totalSpaces":26,"isFree":false,"operatingDays":"평일+토요일","weekdayOpen":"08:00","weekdayClose":"20:00","weekendOpen":"08:00","weekendClose":"20:00","holidayOpen":"00:00","holidayClose":"00:00","feeInfo":"기본 30분 600원 / 추가 10분당 300원","phone":"031-560-1212","updatedAt":"2025-08-07","sido":"경기도","sigungu":"남양주시","dong":"화도읍"},{"name":"화도 제5공영","type":"공영","category":"노외","address":"경기도 남양주시 화도읍 마석우리 392-3","lat":37.65695702,"lng":127.3028712,"totalSpaces":25,"isFree":false,"operatingDays":"평일+토요일","weekdayOpen":"08:00","weekdayClose":"20:00","weekendOpen":"08:00","weekendClose":"20:00","holidayOpen":"00:00","holidayClose":"00:00","feeInfo":"기본 30분 600원 / 추가 10분당 300원","phone":"031-560-1212","updatedAt":"2025-08-07","sido":"경기도","sigungu":"남양주시","dong":"화도읍"},{"name":"지금 노상제2","type":"공영","category":"노상","address":"경기도 남양주시 가운동 718","lat":37.6043362,"lng":127.1557468,"totalSpaces":24,"isFree":false,"operatingDays":"평일+토요일","weekdayOpen":"10:00","weekdayClose":"19:00","weekendOpen":"10:00","weekendClose":"19:00","holidayOpen":"00:00","holidayClose":"00:00","feeInfo":"기본 30분 600원 / 추가 10분당 300원","phone":"","updatedAt":"2017-04-18","sido":"경기도","sigungu":"남양주시","dong":"가운동"},{"name":"다산 제4공영","type":"공영","category":"노외","address":"경기도 남양주시 다산동 4338-43","lat":37.61008601,"lng":127.1524054,"totalSpaces":23,"isFree":false,"operatingDays":"평일+토요일","weekdayOpen":"08:00","weekdayClose":"20:00","weekendOpen":"08:00","weekendClose":"20:00","holidayOpen":"00:00","holidayClose":"00:00","feeInfo":"기본 30분 600원 / 추가 10분당 300원","phone":"031-560-1212","updatedAt":"2025-08-07","sido":"경기도","sigungu":"남양주시","dong":"다산동"},{"name":"진접 노상제7","type":"공영","category":"노상","address":"경기도 남양주시 진접읍 금곡리 1127-3","lat":37.71216776,"lng":127.1871317,"totalSpaces":22,"isFree":false,"operatingDays":"평일+토요일","weekdayOpen":"08:00","weekdayClose":"20:00","weekendOpen":"08:00","weekendClose":"20:00","holidayOpen":"00:00","holidayClose":"00:00","feeInfo":"기본 30분 600원 / 추가 10분당 300원","phone":"031-560-1212","updatedAt":"2025-08-07","sido":"경기도","sigungu":"남양주시","dong":"진접읍"},{"name":"별내면 제1공영","type":"공영","category":"노외","address":"경기도 남양주시 별내면 청학리 537","lat":37.70519968,"lng":127.1063714,"totalSpaces":22,"isFree":false,"operatingDays":"평일+토요일","weekdayOpen":"08:00","weekdayClose":"20:00","weekendOpen":"08:00","weekendClose":"20:00","holidayOpen":"00:00","holidayClose":"00:00","feeInfo":"기본 30분 600원 / 추가 10분당 300원","phone":"031-560-1212","updatedAt":"2025-08-07","sido":"경기도","sigungu":"남양주시","dong":"별내면"},{"name":"지금 노상제1","type":"공영","category":"노상","address":"경기도 남양주시 가운동 707","lat":37.6047823,"lng":127.156391,"totalSpaces":19,"isFree":false,"operatingDays":"평일+토요일","weekdayOpen":"10:00","weekdayClose":"19:00","weekendOpen":"10:00","weekendClose":"19:00","holidayOpen":"00:00","holidayClose":"00:00","feeInfo":"기본 30분 600원 / 추가 10분당 300원","phone":"","updatedAt":"2017-04-18","sido":"경기도","sigungu":"남양주시","dong":"가운동"},{"name":"별내동 노상제3","type":"공영","category":"노상","address":"경기도 남양주시 별내동 1017","lat":37.64733481,"lng":127.123598,"totalSpaces":10,"isFree":false,"operatingDays":"평일+토요일+공휴일","weekdayOpen":"09:00","weekdayClose":"21:00","weekendOpen":"09:00","weekendClose":"18:00","holidayOpen":"09:00","holidayClose":"18:00","feeInfo":"기본 60분 1,000원 / 추가 30분당 500원","phone":"031-560-1212","updatedAt":"2025-08-07","sido":"경기도","sigungu":"남양주시","dong":"별내동"}]}