{"sido":"경기도","sigungu":"동두천시","totalCount":64,"validCount":64,"items":[{"name":"동두천일반산업단지 내","type":"공영","category":"노상","address":"경기도 동두천시 강변로702번길 30","lat":37.92862183,"lng":127.0514182,"totalSpaces":174,"isFree":true,"operatingDays":"평일+토요일+공휴일","weekdayOpen":"00:00","weekdayClose":"23:59","weekendOpen":"00:00","weekendClose":"23:59","holidayOpen":"00:00","holidayClose":"23:59","feeInfo":"무료","phone":"031-860-2293","updatedAt":"2025-11-07","sido":"경기도","sigungu":"동두천시","dong":"동두천동"},{"name":"동두천중앙역→보산역 방향 일방통행로","type":"공영","category":"노상","address":"경기도 동두천시 정장로 55","lat":37.90433564,"lng":127.0569778,"totalSpaces":113,"isFree":true,"operatingDays":"평일+토요일+공휴일","weekdayOpen":"00:00","weekdayClose":"23:59","weekendOpen":"00:00","weekendClose":"23:59","holidayOpen":"00:00","holidayClose":"23:59","feeInfo":"무료","phone":"031-860-2293","updatedAt":"2025-11-07","sido":"경기도","sigungu":"동두천시","dong":"생연동"},{"name":"중앙경로당, 빨간풍차","type":"공영","category":"노상","address":"경기도 동두천시 평화로 2509","lat":37.91180504,"lng":127.057447,"totalSpaces":107,"isFree":true,"operatingDays":"평일+토요일+공휴일","weekdayOpen":"00:00","weekdayClose":"23:59","weekendOpen":"00:00","weekendClose":"23:59","holidayOpen":"00:00","holidayClose":"23:59","feeInfo":"무료","phone":"031-860-2293","updatedAt":"2025-11-07","sido":"경기도","sigungu":"동두천시","dong":"생연동"},{"name":"임시주차장(생연파출소 세아프라자)","type":"공영","category":"노외","address":"경기도 동두천시 생연동 814-1","lat":37.90099951,"lng":127.0511247,"totalSpaces":91,"isFree":true,"operatingDays":"평일+토요일+공휴일","weekdayOpen":"00:00","weekdayClose":"23:59","weekendOpen":"00:00","weekendClose":"23:59","holidayOpen":"00:00","holidayClose":"23:59","feeInfo":"무료","phone":"031-860-2293","updatedAt":"2025-11-07","sido":"경기도","sigungu":"동두천시","dong":"생연동"},{"name":"보건소 앞","type":"공영","category":"노외","address":"경기도 동두천시 생연동 715-6","lat":37.896390755,"lng":127.0532495982,"totalSpaces":79,"isFree":true,"operatingDays":"평일+토요일+공휴일","weekdayOpen":"00:00","weekdayClose":"23:59","weekendOpen":"00:00","weekendClose":"23:59","holidayOpen":"00:00","holidayClose":"23:59","feeInfo":"무료","phone":"031-860-2293","updatedAt":"2025-11-07","sido":"경기도","sigungu":"동두천시","dong":"생연동"},{"name":"미2사단 정문 맞은 편 지하철 하부","type":"공영","category":"노외","address":"경기도 동두천시 보산동 434-1","lat":37.91958542,"lng":127.0561696,"totalSpaces":70,"isFree":true,"operatingDays":"평일+토요일+공휴일","weekdayOpen":"00:00","weekdayClose":"23:59","weekendOpen":"00:00","weekendClose":"23:59","holidayOpen":"00:00","holidayClose":"23:59","feeInfo":"무료","phone":"031-860-2293","updatedAt":"2025-11-07","sido":"경기도","sigungu":"동두천시","dong":"보산동"},{"name":"동두천역주차장","type":"공영","category":"노외","address":"경기도동두천시평화로 2687","lat":37.92840047,"lng":127.0556447,"totalSpaces":68,"isFree":true,"operatingDays":"평일+토요일+공휴일","weekdayOpen":"00:00","weekdayClose":"23:59","weekendOpen":"00:00","weekendClose":"23:59","holidayOpen":"00:00","holidayClose":"23:59","feeInfo":"무료","phone":"031-860-2293","updatedAt":"2025-11-07","sido":"경기도","sigungu":"동두천시","dong":"동두천동"},{"name":"중앙종묘농약사~성지가전재활용","type":"공영","category":"노상","address":"경기도 동두천시 중앙로362번길 30-6","lat":37.91184597,"lng":127.056836,"totalSpaces":57,"isFree":true,"operatingDays":"평일+토요일+공휴일","weekdayOpen":"00:00","weekdayClose":"23:59","weekendOpen":"00:00","weekendClose":"23:59","holidayOpen":"00:00","holidayClose":"23:59","feeInfo":"무료","phone":"031-860-2293","updatedAt":"2025-11-07","sido":"경기도","sigungu":"동두천시","dong":"생연동"},{"name":"탑동5주차장","type":"공영","category":"노외","address":"경기도 동두천시 탑동동 218-1","lat":37.89276326,"lng":127.1208309,"totalSpaces":49,"isFree":true,"operatingDays":"평일+토요일+공휴일","weekdayOpen":"00:00","weekdayClose":"23:59","weekendOpen":"00:00","weekendClose":"23:59","holidayOpen":"00:00","holidayClose":"23:59","feeInfo":"무료","phone":"031-860-2293","updatedAt":"2025-11-07","sido":"경기도","sigungu":"동두천시","dong":"탑동동"},{"name":"한미문화의광장 주차장","type":"공영","category":"노외","address":"경기도 동두천시 상패로 210-27","lat":37.91665362,"lng":127.0558196,"totalSpaces":47,"isFree":true,"operatingDays":"평일+토요일+공휴일","weekdayOpen":"00:00","weekdayClose":"23:59","weekendOpen":"00:00","weekendClose":"23:59","holidayOpen":"00:00","holidayClose":"23:59","feeInfo":"무료","phone":"031-860-2293","updatedAt":"2025-11-07","sido":"경기도","sigungu":"동두천시","dong":"보산동"},{"name":"탑동3주차장","type":"공영","category":"노외","address":"경기도 동두천시 탑신로 315","lat":37.89207508,"lng":127.1221641,"totalSpaces":43,"isFree":true,"operatingDays":"평일+토요일+공휴일","weekdayOpen":"00:00","weekdayClose":"23:59","weekendOpen":"00:00","weekendClose":"23:59","holidayOpen":"00:00","holidayClose":"23:59","feeInfo":"무료","phone":"031-860-2293","updatedAt":"2025-11-07","sido":"경기도","sigungu":"동두천시","dong":"탑동동"},{"name":"동두천역 철길(담장) 옆","type":"공영","category":"노상","address":"경기도 동두천시 원터강변로41번길 91","lat":37.928648,"lng":127.0535535,"totalSpaces":39,"isFree":true,"operatingDays":"평일+토요일+공휴일","weekdayOpen":"00:00","weekdayClose":"23:59","weekendOpen":"00:00","weekendClose":"23:59","holidayOpen":"00:00","holidayClose":"23:59","feeInfo":"무료","phone":"031-860-2293","updatedAt":"2025-11-07","sido":"경기도","sigungu":"동두천시","dong":"동두천동"},{"name":"중앙근린공원 공영주차장","type":"공영","category":"노외","address":"경기도 동두천시 생연동 221","lat":37.90839056,"lng":127.0645902,"totalSpaces":38,"isFree":true,"operatingDays":"평일+토요일+공휴일","weekdayOpen":"00:00","weekdayClose":"23:59","weekendOpen":"00:00","weekendClose":"23:59","holidayOpen":"00:00","holidayClose":"23:59","feeInfo":"무료","phone":"031-860-2293","updatedAt":"2025-11-07","sido":"경기도","sigungu":"동두천시","dong":"생연동"},{"name":"탑동1주차장","type":"공영","category":"노외","address":"경기도 동두천시 탑동동 350-1","lat":37.89190135,"lng":127.1093494,"totalSpaces":34,"isFree":true,"operatingDays":"평일+토요일+공휴일","weekdayOpen":"00:00","weekdayClose":"23:59","weekendOpen":"00:00","weekendClose":"23:59","holidayOpen":"00:00","holidayClose":"23:59","feeInfo":"무료","phone":"031-860-2293","updatedAt":"2025-11-07","sido":"경기도","sigungu":"동두천시","dong":"탑동동"},{"name":"불현지구 임시주차장","type":"공영","category":"노외","address":"경기도 동두천시 생연동 745-13","lat":37.8955909,"lng":127.0573884,"totalSpaces":34,"isFree":true,"operatingDays":"평일+토요일+공휴일","weekdayOpen":"00:00","weekdayClose":"23:59","weekendOpen":"00:00","weekendClose":"23:59","holidayOpen":"00:00","holidayClose":"23:59","feeInfo":"무료","phone":"031-860-2293","updatedAt":"2025-11-07","sido":"경기도","sigungu":"동두천시","dong":"생연동"},{"name":"탑동2주차장","type":"공영","category":"노외","address":"경기도 동두천시 탑신로 215-12","lat":37.8965291,"lng":127.1143411,"totalSpaces":31,"isFree":true,"operatingDays":"평일+토요일+공휴일","weekdayOpen":"00:00","weekdayClose":"23:59","weekendOpen":"00:00","weekendClose":"23:59","holidayOpen":"00:00","holidayClose":"23:59","feeInfo":"무료","phone":"031-860-2293","updatedAt":"2025-11-07","sido":"경기도","sigungu":"동두천시","dong":"탑동동"},{"name":"중앙동행정복지센터","type":"공영","category":"노외","address":"경기도 동두천시 생연동 604-10","lat":37.90759801,"lng":127.0533984,"totalSpaces":29,"isFree":true,"operatingDays":"평일+토요일+공휴일","weekdayOpen":"00:00","weekdayClose":"23:59","weekendOpen":"00:00","weekendClose":"23:59","holidayOpen":"00:00","holidayClose":"23:59","feeInfo":"무료","phone":"031-860-2293","updatedAt":"2025-11-07","sido":"경기도","sigungu":"동두천시","dong":"생연동"},{"name":"염산부인과 앞","type":"공영","category":"노상","address":"경기도 동두천시 동광로 124","lat":37.91198659,"lng":127.0610196,"totalSpaces":26,"isFree":true,"operatingDays":"평일+토요일+공휴일","weekdayOpen":"00:00","weekdayClose":"23:59","weekendOpen":"00:00","weekendClose":"23:59","holidayOpen":"00:00","holidayClose":"23:59","feeInfo":"무료","phone":"031-860-2293","updatedAt":"2025-11-07","sido":"경기도","sigungu":"동두천시","dong":"생연동"},{"name":"우성아파트·동원아파트 앞","type":"공영","category":"노상","address":"경기도 동두천시 송터로 15","lat":37.90902998,"lng":127.0616787,"totalSpaces":26,"isFree":true,"operatingDays":"평일+토요일+공휴일","weekdayOpen":"00:00","weekdayClose":"23:59","weekendOpen":"00:00","weekendClose":"23:59","holidayOpen":"00:00","holidayClose":"23:59","feeInfo":"무료","phone":"031-860-2293","updatedAt":"2025-11-07","sido":"경기도","sigungu":"동두천시","dong":"생연동"},{"name":"은성교회 전철하부주차장","type":"공영","category":"노외","address":"경기도 동두천시 평화로 2511","lat":37.91218589,"lng":127.0575986,"totalSpaces":26,"isFree":true,"operatingDays":"평일+토요일+공휴일","weekdayOpen":"00:00","weekdayClose":"23:59","weekendOpen":"00:00","weekendClose":"23:59","holidayOpen":"00:00","holidayClose":"23:59","feeInfo":"무료","phone":"031-860-2293","updatedAt":"2025-11-07","sido":"경기도","sigungu":"동두천시","dong":"생연동"},{"name":"탑동6주차장","type":"공영","category":"노외","address":"경기도 동두천시 탑동동 205","lat":37.89133515,"lng":127.1262674,"totalSpaces":26,"isFree":true,"operatingDays":"평일+토요일+공휴일","weekdayOpen":"00:00","weekdayClose":"23:59","weekendOpen":"00:00","weekendClose":"23:59","holidayOpen":"00:00","holidayClose":"23:59","feeInfo":"무료","phone":"031-860-2293","updatedAt":"2025-11-07","sido":"경기도","sigungu":"동두천시","dong":"탑동동"},{"name":"동광극장 앞","type":"공영","category":"노상","address":"경기도 동두천시 동광로 33","lat":37.90883275,"lng":127.0520047,"totalSpaces":25,"isFree":true,"operatingDays":"평일+토요일+공휴일","weekdayOpen":"00:00","weekdayClose":"23:59","weekendOpen":"00:00","weekendClose":"23:59","holidayOpen":"00:00","holidayClose":"23:59","feeInfo":"무료","phone":"031-860-2293","updatedAt":"2025-11-07","sido":"경기도","sigungu":"동두천시","dong":"생연동"},{"name":"중앙동 빗물펌프장 1","type":"공영","category":"노외","address":"경기도 동두천시 생연동 580-71","lat":37.91194821,"lng":127.0543269,"totalSpaces":25,"isFree":true,"operatingDays":"평일+토요일+공휴일","weekdayOpen":"00:00","weekdayClose":"23:59","weekendOpen":"00:00","weekendClose":"23:59","holidayOpen":"00:00","holidayClose":"23:59","feeInfo":"무료","phone":"031-860-2293","updatedAt":"2025-11-07","sido":"경기도","sigungu":"동두천시","dong":"생연동"},{"name":"제일감리교회 앞","type":"공영","category":"노상","address":"경기도 동두천시 동두천로 294","lat":37.90765285,"lng":127.0561695,"totalSpaces":21,"isFree":true,"operatingDays":"평일+토요일+공휴일","weekdayOpen":"00:00","weekdayClose":"23:59","weekendOpen":"00:00","weekendClose":"23:59","holidayOpen":"00:00","holidayClose":"23:59","feeInfo":"무료","phone":"031-860-2293","updatedAt":"2025-11-07","sido":"경기도","sigungu":"동두천시","dong":"생연동"},{"name":"한국국토정보공사·시청 후문","type":"공영","category":"노상","address":"경기도 동두천시 정장로 72","lat":37.90392291,"lng":127.0588165,"totalSpaces":21,"isFree":true,"operatingDays":"평일+토요일+공휴일","weekdayOpen":"00:00","weekdayClose":"23:59","weekendOpen":"00:00","weekendClose":"23:59","holidayOpen":"00:00","holidayClose":"23:59","feeInfo":"무료","phone":"031-860-2293","updatedAt":"2025-11-07","sido":"경기도","sigungu":"동두천시","dong":"생연동"},{"name":"송내3주차장","type":"공영","category":"노외","address":"경기도 동두천시 송내동 676","lat":37.8826288,"lng":127.053493,"totalSpaces":21,"isFree":true,"operatingDays":"평일+토요일+공휴일","weekdayOpen":"00:00","weekdayClose":"23:59","weekendOpen":"00:00","weekendClose":"23:59","holidayOpen":"00:00","holidayClose":"23:59","feeInfo":"무료","phone":"031-860-2293","updatedAt":"2025-11-07","sido":"경기도","sigungu":"동두천시","dong":"송내동"},{"name":"중앙동 빗물펌프장 2","type":"공영","category":"노외","address":"경기도 동두천시 생연동 826-1","lat":37.9075918,"lng":127.0513922,"totalSpaces":21,"isFree":true,"operatingDays":"평일+토요일+공휴일","weekdayOpen":"00:00","weekdayClose":"23:59","weekendOpen":"00:00","weekendClose":"23:59","holidayOpen":"00:00","holidayClose":"23:59","feeInfo":"무료","phone":"031-860-2293","updatedAt":"2025-11-07","sido":"경기도","sigungu":"동두천시","dong":"생연동"},{"name":"경환공업사 앞","type":"공영","category":"노상","address":"경기도 동두천시 동광로 172","lat":37.91543626,"lng":127.0605571,"totalSpaces":19,"isFree":true,"operatingDays":"평일+토요일+공휴일","weekdayOpen":"00:00","weekdayClose":"23:59","weekendOpen":"00:00","weekendClose":"23:59","holidayOpen":"00:00","holidayClose":"23:59","feeInfo":"무료","phone":"031-860-2293","updatedAt":"2025-11-07","sido":"경기도","sigungu":"동두천시","dong":"보산동"},{"name":"보산1펌프장지구","type":"공영","category":"노외","address":"경기도 동두천시 보산동 458-15","lat":37.92241796,"lng":127.056467,"totalSpaces":18,"isFree":true,"operatingDays":"평일+토요일+공휴일","weekdayOpen":"00:00","weekdayClose":"23:59","weekendOpen":"00:00","weekendClose":"23:59","holidayOpen":"00:00","holidayClose":"23:59","feeInfo":"무료","phone":"031-860-2293","updatedAt":"2025-11-07","sido":"경기도","sigungu":"동두천시","dong":"보산동"},{"name":"동두천쇼핑, 초원식당","type":"공영","category":"노상","address":"경기도 동두천시 평화로 2544","lat":37.91479865,"lng":127.0577258,"totalSpaces":16,"isFree":true,"operatingDays":"평일+토요일+공휴일","weekdayOpen":"00:00","weekdayClose":"23:59","weekendOpen":"00:00","weekendClose":"23:59","holidayOpen":"00:00","holidayClose":"23:59","feeInfo":"무료","phone":"031-860-2293","updatedAt":"2025-11-07","sido":"경기도","sigungu":"동두천시","dong":"보산동"},{"name":"동양가구 앞","type":"공영","category":"노상","address":"경기도 동두천시 평화로2530번길","lat":37.91348481,"lng":127.0581171,"totalSpaces":16,"isFree":true,"operatingDays":"평일+토요일+공휴일","weekdayOpen":"00:00","weekdayClose":"23:59","weekendOpen":"00:00","weekendClose":"23:59","holidayOpen":"00:00","holidayClose":"23:59","feeInfo":"무료","phone":"031-860-2293","updatedAt":"2025-11-07","sido":"경기도","sigungu":"동두천시","dong":"보산동"},{"name":"탑동4주차장","type":"공영","category":"노외","address":"경기도 동두천시 탑동동 366-1","lat":37.89577031,"lng":127.1119324,"totalSpaces":16,"isFree":true,"operatingDays":"평일+토요일+공휴일","weekdayOpen":"00:00","weekdayClose":"23:59","weekendOpen":"00:00","weekendClose":"23:59","holidayOpen":"00:00","holidayClose":"23:59","feeInfo":"무료","phone":"031-860-2293","updatedAt":"2025-11-07","sido":"경기도","sigungu":"동두천시","dong":"탑동동"},{"name":"제일시장","type":"공영","category":"노외","address":"경기도 동두천시 생연동 824-19","lat":37.9046288,"lng":127.0513558,"totalSpaces":16,"isFree":true,"operatingDays":"평일+토요일+공휴일","weekdayOpen":"00:00","weekdayClose":"23:59","weekendOpen":"00:00","weekendClose":"23:59","holidayOpen":"00:00","holidayClose":"23:59","feeInfo":"무료","phone":"031-860-2293","updatedAt":"2025-11-07","sido":"경기도","sigungu":"동두천시","dong":"생연동"},{"name":"중앙동13통주차장","type":"공영","category":"노외","address":"경기도 동두천시 생연동 582-39","lat":37.90933507,"lng":127.0521574,"totalSpaces":16,"isFree":true,"operatingDays":"평일+토요일+공휴일","weekdayOpen":"00:00","weekdayClose":"23:59","weekendOpen":"00:00","weekendClose":"23:59","holidayOpen":"00:00","holidayClose":"23:59","feeInfo":"무료","phone":"031-860-2293","updatedAt":"2025-11-07","sido":"경기도","sigungu":"동두천시","dong":"생연동"},{"name":"동두천중앙고 후문 앞","type":"공영","category":"노상","address":"경기도 동두천시 평화로 2280","lat":37.89165104,"lng":127.0581024,"totalSpaces":15,"isFree":true,"operatingDays":"평일+토요일+공휴일","weekdayOpen":"00:00","weekdayClose":"23:59","weekendOpen":"00:00","weekendClose":"23:59","holidayOpen":"00:00","holidayClose":"23:59","feeInfo":"무료","phone":"031-860-2293","updatedAt":"2025-11-07","sido":"경기도","sigungu":"동두천시","dong":"지행동"},{"name":"한빛누리고 앞","type":"공영","category":"노상","address":"경기도 동두천시 동광로 124","lat":37.91198659,"lng":127.0610196,"totalSpaces":15,"isFree":true,"operatingDays":"평일+토요일+공휴일","weekdayOpen":"00:00","weekdayClose":"23:59","weekendOpen":"00:00","weekendClose":"23:59","holidayOpen":"00:00","holidayClose":"23:59","feeInfo":"무료","phone":"031-860-2293","updatedAt":"2025-11-07","sido":"경기도","sigungu":"동두천시","dong":"생연동"},{"name":"향미식당 앞","type":"공영","category":"노상","address":"경기도 동두천시 생연로 110","lat":37.90227695,"lng":127.0509486,"totalSpaces":15,"isFree":true,"operatingDays":"평일+토요일+공휴일","weekdayOpen":"00:00","weekdayClose":"23:59","weekendOpen":"00:00","weekendClose":"23:59","holidayOpen":"00:00","holidayClose":"23:59","feeInfo":"무료","phone":"031-860-2293","updatedAt":"2025-11-07","sido":"경기도","sigungu":"동두천시","dong":"생연동"},{"name":"화성5차아파트","type":"공영","category":"노상","address":"경기도 동두천시 강변로300번길 49-7","lat":37.89973669,"lng":127.046482,"totalSpaces":15,"isFree":true,"operatingDays":"평일+토요일+공휴일","weekdayOpen":"00:00","weekdayClose":"23:59","weekendOpen":"00:00","weekendClose":"23:59","holidayOpen":"00:00","holidayClose":"23:59","feeInfo":"무료","phone":"031-860-2293","updatedAt":"2025-11-07","sido":"경기도","sigungu":"동두천시","dong":"생연동"},{"name":"동두천초교 정문 앞","type":"공영","category":"노외","address":"경기도 동두천시 생연동 478-2","lat":37.9081111,"lng":127.0585996,"totalSpaces":15,"isFree":true,"operatingDays":"평일+토요일+공휴일","weekdayOpen":"00:00","weekdayClose":"23:59","weekendOpen":"00:00","weekendClose":"23:59","holidayOpen":"00:00","holidayClose":"23:59","feeInfo":"무료","phone":"031-860-2293","updatedAt":"2025-11-07","sido":"경기도","sigungu":"동두천시","dong":"생연동"},{"name":"DDC커뮤니티센터","type":"공영","category":"노외","address":"경기도 동두천시 보산동 425-1","lat":37.9137149,"lng":127.056923,"totalSpaces":15,"isFree":true,"operatingDays":"평일+토요일+공휴일","weekdayOpen":"00:00","weekdayClose":"23:59","weekendOpen":"00:00","weekendClose":"23:59","holidayOpen":"00:00","holidayClose":"23:59","feeInfo":"무료","phone":"031-860-2293","updatedAt":"2025-11-07","sido":"경기도","sigungu":"동두천시","dong":"보산동"},{"name":"카리스뮤직 앞","type":"공영","category":"노상","address":"경기도 동두천시 상패로 214-1","lat":37.91760142,"lng":127.0561753,"totalSpaces":14,"isFree":true,"operatingDays":"평일+토요일+공휴일","weekdayOpen":"00:00","weekdayClose":"23:59","weekendOpen":"00:00","weekendClose":"23:59","holidayOpen":"00:00","holidayClose":"23:59","feeInfo":"무료","phone":"031-860-2293","updatedAt":"2025-11-07","sido":"경기도","sigungu":"동두천시","dong":"보산동"},{"name":"G7호텔 주변","type":"공영","category":"노상","address":"경기도 동두천시 어수로101번길 14","lat":37.9031456,"lng":127.0542649,"totalSpaces":14,"isFree":true,"operatingDays":"평일+토요일+공휴일","weekdayOpen":"00:00","weekdayClose":"23:59","weekendOpen":"00:00","weekendClose":"23:59","holidayOpen":"00:00","holidayClose":"23:59","feeInfo":"무료","phone":"031-860-2293","updatedAt":"2025-11-07","sido":"경기도","sigungu":"동두천시","dong":"생연동"},{"name":"불현지구2 임시주차장","type":"공영","category":"노외","address":"경기도 동두천시 생연동 744-3","lat":37.8981516494,"lng":127.0570642759,"totalSpaces":14,"isFree":true,"operatingDays":"평일+토요일+공휴일","weekdayOpen":"00:00","weekdayClose":"23:59","weekendOpen":"00:00","weekendClose":"23:59","holidayOpen":"00:00","holidayClose":"23:59","feeInfo":"무료","phone":"031-860-2293","updatedAt":"2025-11-07","sido":"경기도","sigungu":"동두천시","dong":"생연동"},{"name":"(구)전자랜드 앞","type":"공영","category":"노상","address":"경기도 동두천시 동두천로 9","lat":37.8822938,"lng":127.0539543,"totalSpaces":14,"isFree":true,"operatingDays":"평일+토요일+공휴일","weekdayOpen":"00:00","weekdayClose":"23:59","weekendOpen":"00:00","weekendClose":"23:59","holidayOpen":"00:00","holidayClose":"23:59","feeInfo":"무료","phone":"031-860-2293","updatedAt":"2025-11-07","sido":"경기도","sigungu":"동두천시","dong":"송내동"},{"name":"보산손세차장 앞","type":"공영","category":"노상","address":"경기도 동두천시 중앙로 378","lat":37.9129971,"lng":127.0586768,"totalSpaces":13,"isFree":true,"operatingDays":"평일+토요일+공휴일","weekdayOpen":"00:00","weekdayClose":"23:59","weekendOpen":"00:00","weekendClose":"23:59","holidayOpen":"00:00","holidayClose":"23:59","feeInfo":"무료","phone":"031-860-2293","updatedAt":"2025-11-07","sido":"경기도","sigungu":"동두천시","dong":"보산동"},{"name":"중앙동5통주차장","type":"공영","category":"노외","address":"경기도 동두천시 생연동 552-16","lat":37.90932744,"lng":127.0559134,"totalSpaces":12,"isFree":true,"operatingDays":"평일+토요일+공휴일","weekdayOpen":"00:00","weekdayClose":"23:59","weekendOpen":"00:00","weekendClose":"23:59","holidayOpen":"00:00","holidayClose":"23:59","feeInfo":"무료","phone":"031-860-2293","updatedAt":"2025-11-07","sido":"경기도","sigungu":"동두천시","dong":"생연동"},{"name":"로하스요양병원 옆 도로","type":"공영","category":"노상","address":"경기도 동두천시 강변로420번길 10","lat":37.90623406,"lng":127.0513986,"totalSpaces":10,"isFree":true,"operatingDays":"평일+토요일+공휴일","weekdayOpen":"00:00","weekdayClose":"23:59","weekendOpen":"00:00","weekendClose":"23:59","holidayOpen":"00:00","holidayClose":"23:59","feeInfo":"무료","phone":"031-860-2293","updatedAt":"2025-11-07","sido":"경기도","sigungu":"동두천시","dong":"생연동"},{"name":"동두천벽지·장판 매장 앞","type":"공영","category":"노상","address":"경기도 동두천시 중앙로274번길 25","lat":37.90591711,"lng":127.055745,"totalSpaces":9,"isFree":true,"operatingDays":"평일+토요일+공휴일","weekdayOpen":"00:00","weekdayClose":"23:59","weekendOpen":"00:00","weekendClose":"23:59","holidayOpen":"00:00","holidayClose":"23:59","feeInfo":"무료","phone":"031-860-2293","updatedAt":"2025-11-07","sido":"경기도","sigungu":"동두천시","dong":"생연동"},{"name":"상패동 8통","type":"공영","category":"노외","address":"경기도 동두천시 상패동 687-1","lat":37.90232169,"lng":127.0255418,"totalSpaces":9,"isFree":true,"operatingDays":"평일+토요일+공휴일","weekdayOpen":"00:00","weekdayClose":"23:59","weekendOpen":"00:00","weekendClose":"23:59","holidayOpen":"00:00","holidayClose":"23:59","feeInfo":"무료","phone":"031-860-2293","updatedAt":"2025-11-07","sido":"경기도","sigungu":"동두천시","dong":"상패동"},{"name":"재광타운 앞","type":"공영","category":"노상","address":"경기도 동두천시 못골로49번길 40","lat":37.90212721,"lng":127.0658475,"totalSpaces":9,"isFree":true,"operatingDays":"평일+토요일+공휴일","weekdayOpen":"00:00","weekdayClose":"23:59","weekendOpen":"00:00","weekendClose":"23:59","holidayOpen":"00:00","holidayClose":"23:59","feeInfo":"무료","phone":"031-860-2293","updatedAt":"2025-11-07","sido":"경기도","sigungu":"동두천시","dong":"생연동"},{"name":"폭포수농원 옆","type":"공영","category":"노상","address":"경기도 동두천시 탑신로 438","lat":37.89268955,"lng":127.1353224,"totalSpaces":9,"isFree":true,"operatingDays":"평일+토요일+공휴일","weekdayOpen":"00:00","weekdayClose":"23:59","weekendOpen":"00:00","weekendClose":"23:59","holidayOpen":"00:00","holidayClose":"23:59","feeInfo":"무료","phone":"031-860-2293","updatedAt":"2025-11-07","sido":"경기도","sigungu":"동두천시","dong":"탑동동"},{"name":"광암교주차장","type":"공영","category":"노외","address":"경기도 동두천시 광암동 195-1","lat":37.89463268,"lng":127.087224,"totalSpaces":8,"isFree":true,"operatingDays":"평일+토요일+공휴일","weekdayOpen":"00:00","weekdayClose":"23:59","weekendOpen":"00:00","weekendClose":"23:59","holidayOpen":"00:00","holidayClose":"23:59","feeInfo":"무료","phone":"031-860-2293","updatedAt":"2025-11-07","sido":"경기도","sigungu":"동두천시","dong":"광암동"},{"name":"대형자동차 공영주차장(대형)","type":"공영","category":"노외","address":"경기도 동두천시 상패동 252-2","lat":37.90101758,"lng":127.0353953,"totalSpaces":136,"isFree":false,"operatingDays":"평일+토요일","weekdayOpen":"09:00","weekdayClose":"21:00","weekendOpen":"09:00","weekendClose":"21:00","holidayOpen":"00:00","holidayClose":"00:00","feeInfo":"기본 30분 600원 / 추가 10분당 200원","phone":"031-865-6004","updatedAt":"2025-11-07","sido":"경기도","sigungu":"동두천시","dong":"상패동"},{"name":"송내1주차장","type":"공영","category":"노외","address":"경기도 동두천시 지행동 720","lat":37.89148117,"lng":127.0539419,"totalSpaces":105,"isFree":false,"operatingDays":"평일+토요일+공휴일","weekdayOpen":"09:00","weekdayClose":"22:00","weekendOpen":"09:00","weekendClose":"22:00","holidayOpen":"09:00","holidayClose":"22:00","feeInfo":"기본 30분 600원 / 추가 10분당 200원","phone":"031-865-6004","updatedAt":"2025-11-07","sido":"경기도","sigungu":"동두천시","dong":"지행동"},{"name":"송내4주차장","type":"공영","category":"노외","address":"경기도 동두천시 지행동 722","lat":37.89084467,"lng":127.0524788,"totalSpaces":98,"isFree":false,"operatingDays":"평일+토요일+공휴일","weekdayOpen":"09:00","weekdayClose":"22:00","weekendOpen":"09:00","weekendClose":"22:00","holidayOpen":"09:00","holidayClose":"22:00","feeInfo":"기본 30분 600원 / 추가 10분당 200원","phone":"031-865-6004","updatedAt":"2025-11-07","sido":"경기도","sigungu":"동두천시","dong":"지행동"},{"name":"송내지구 공영주차장","type":"공영","category":"노외","address":"경기도 동두천시 중앙로33번길 67-82","lat":37.88279313,"lng":127.0523069,"totalSpaces":97,"isFree":false,"operatingDays":"평일+토요일","weekdayOpen":"09:00","weekdayClose":"20:00","weekendOpen":"09:00","weekendClose":"20:00","holidayOpen":"00:00","holidayClose":"00:00","feeInfo":"기본 120분 0원 / 추가 10분당 400원","phone":"031-865-6004","updatedAt":"2025-11-07","sido":"경기도","sigungu":"동두천시","dong":"송내동"},{"name":"큰시장 공영주차장","type":"공영","category":"노외","address":"경기도 동두천시 큰시장로 57","lat":37.90018291,"lng":127.0512966,"totalSpaces":63,"isFree":false,"operatingDays":"평일+토요일","weekdayOpen":"09:00","weekdayClose":"20:00","weekendOpen":"09:00","weekendClose":"20:00","holidayOpen":"00:00","holidayClose":"00:00","feeInfo":"기본 120분 0원 / 추가 10분당 400원","phone":"031-865-6004","updatedAt":"2025-11-07","sido":"경기도","sigungu":"동두천시","dong":"생연동"},{"name":"대형자동차 공영주차장(소형)","type":"공영","category":"노외","address":"경기도 동두천시 상패동 252-2","lat":37.90101758,"lng":127.0353953,"totalSpaces":48,"isFree":false,"operatingDays":"평일+토요일","weekdayOpen":"09:00","weekdayClose":"21:00","weekendOpen":"09:00","weekendClose":"21:00","holidayOpen":"00:00","holidayClose":"00:00","feeInfo":"기본 30분 500원 / 추가 10분당 200원","phone":"031-865-6004","updatedAt":"2025-11-07","sido":"경기도","sigungu":"동두천시","dong":"상패동"},{"name":"중앙동 공영주차장","type":"공영","category":"노외","address":"경기도 동두천시 동광로66번길 28","lat":37.90738006,"lng":127.0551875,"totalSpaces":41,"isFree":false,"operatingDays":"평일+토요일","weekdayOpen":"09:00","weekdayClose":"20:00","weekendOpen":"09:00","weekendClose":"20:00","holidayOpen":"00:00","holidayClose":"00:00","feeInfo":"기본 120분 0원 / 추가 10분당 400원","phone":"031-865-6004","updatedAt":"2025-11-07","sido":"경기도","sigungu":"동두천시","dong":"생연동"},{"name":"동두천중앙역세권","type":"공영","category":"노외","address":"경기도 동두천시 생연동 678-60","lat":37.9029251,"lng":127.0550301,"totalSpaces":36,"isFree":false,"operatingDays":"평일+토요일","weekdayOpen":"09:00","weekdayClose":"20:00","weekendOpen":"09:00","weekendClose":"20:00","holidayOpen":"00:00","holidayClose":"00:00","feeInfo":"기본 120분 0원 / 추가 10분당 400원","phone":"031-860-2293","updatedAt":"2025-11-07","sido":"경기도","sigungu":"동두천시","dong":"생연동"},{"name":"5060청춘로드 주차장","type":"공영","category":"노외","address":"경기도 동두천시 생연동 824-60","lat":37.90523435,"lng":127.0515456,"totalSpaces":34,"isFree":false,"operatingDays":"평일+토요일","weekdayOpen":"09:00","weekdayClose":"20:00","weekendOpen":"09:00","weekendClose":"20:00","holidayOpen":"00:00","holidayClose":"00:00","feeInfo":"기본 120분 0원 / 추가 10분당 400원","phone":"031-865-6004","updatedAt":"2025-11-07","sido":"경기도","sigungu":"동두천시","dong":"생연동"},{"name":"미2사단 보산동 공영주차장","type":"공영","category":"노외","address":"경기도 동두천시 평화로 2557-1","lat":37.91615923,"lng":127.0570332,"totalSpaces":31,"isFree":false,"operatingDays":"평일+토요일","weekdayOpen":"09:00","weekdayClose":"20:00","weekendOpen":"09:00","weekendClose":"20:00","holidayOpen":"00:00","holidayClose":"00:00","feeInfo":"기본 120분 0원 / 추가 10분당 400원","phone":"031-860-2293","updatedAt":"2025-11-07","sido":"경기도","sigungu":"동두천시","dong":"보산동"},{"name":"송내2주차장","type":"공영","category":"노외","address":"경기도 동두천시 송내동 689","lat":37.88417814,"lng":127.0507834,"totalSpaces":20,"isFree":false,"operatingDays":"평일+토요일","weekdayOpen":"09:00","weekdayClose":"20:00","weekendOpen":"09:00","weekendClose":"20:00","holidayOpen":"00:00","holidayClose":"00:00","feeInfo":"기본 120분 0원 / 추가 10분당 400원","phone":"031-860-2293","updatedAt":"2025-11-07","sido":"경기도","sigungu":"동두천시","dong":"송내동"},{"name":"생연로일원 공영주차장","type":"공영","category":"노외","address":"경기도 동두천시 생연동 818-11","lat":37.9039305,"lng":127.0508524,"totalSpaces":19,"isFree":false,"operatingDays":"평일+토요일","weekdayOpen":"09:00","weekdayClose":"20:00","weekendOpen":"09:00","weekendClose":"20:00","holidayOpen":"00:00","holidayClose":"00:00","feeInfo":"기본 120분 0원 / 추가 10분당 400원","phone":"031-860-2293","updatedAt":"2025-11-07","sido":"경기도","sigungu":"동두천시","dong":"생연동"}]}