{"sido":"경기도","sigungu":"안양시","totalCount":105,"validCount":105,"items":[{"name":"석수역 좌우측 주차장","type":"공영","category":"노상","address":"경기도 안양시 만안구 연현로 105","lat":37.433685,"lng":126.901917,"totalSpaces":119,"isFree":true,"operatingDays":"평일+토요일+공휴일","weekdayOpen":"00:00","weekdayClose":"23:59","weekendOpen":"00:00","weekendClose":"23:59","holidayOpen":"00:00","holidayClose":"23:59","feeInfo":"무료","phone":"031-8045-5255","updatedAt":"2025-12-26","sido":"경기도","sigungu":"안양시","dong":""},{"name":"대림아파트 뒤 주차장","type":"공영","category":"노외","address":"경기도 안양시 만안구 만안로 369","lat":37.41149,"lng":126.913689,"totalSpaces":77,"isFree":true,"operatingDays":"평일+토요일+공휴일","weekdayOpen":"00:00","weekdayClose":"23:59","weekendOpen":"00:00","weekendClose":"23:59","holidayOpen":"00:00","holidayClose":"23:59","feeInfo":"무료","phone":"031-8045-5255","updatedAt":"2025-12-26","sido":"경기도","sigungu":"안양시","dong":""},{"name":"군용지 주차장","type":"공영","category":"노외","address":"경기도 안양시 만안구 창박로41번길 34","lat":37.38309,"lng":126.901602,"totalSpaces":68,"isFree":true,"operatingDays":"평일+토요일+공휴일","weekdayOpen":"00:00","weekdayClose":"23:59","weekendOpen":"00:00","weekendClose":"23:59","holidayOpen":"00:00","holidayClose":"23:59","feeInfo":"무료","phone":"031-8045-5255","updatedAt":"2025-12-26","sido":"경기도","sigungu":"안양시","dong":""},{"name":"호현마을 주차장","type":"공영","category":"노외","address":"경기도 안양시 만안구 박달동 818","lat":37.40594,"lng":126.883488,"totalSpaces":64,"isFree":true,"operatingDays":"평일+토요일+공휴일","weekdayOpen":"00:00","weekdayClose":"23:59","weekendOpen":"00:00","weekendClose":"23:59","holidayOpen":"00:00","holidayClose":"23:59","feeInfo":"무료","phone":"031-8045-5255","updatedAt":"2025-12-26","sido":"경기도","sigungu":"안양시","dong":""},{"name":"호현마을 주민주차장 주차장","type":"공영","category":"노외","address":"경기도 안양시 만안구 박달동 867-12","lat":37.406334,"lng":126.883768,"totalSpaces":62,"isFree":true,"operatingDays":"평일+토요일+공휴일","weekdayOpen":"00:00","weekdayClose":"23:59","weekendOpen":"00:00","weekendClose":"23:59","holidayOpen":"00:00","holidayClose":"23:59","feeInfo":"무료","phone":"031-8045-5255","updatedAt":"2025-12-26","sido":"경기도","sigungu":"안양시","dong":""},{"name":"부흥파크 앞 주차장","type":"공영","category":"노외","address":"경기도 안양시 만안구 안양동 759-97","lat":37.393665,"lng":126.910424,"totalSpaces":61,"isFree":true,"operatingDays":"평일+토요일+공휴일","weekdayOpen":"00:00","weekdayClose":"23:59","weekendOpen":"00:00","weekendClose":"23:59","holidayOpen":"00:00","holidayClose":"23:59","feeInfo":"무료","phone":"031-8045-5255","updatedAt":"2025-12-26","sido":"경기도","sigungu":"안양시","dong":""},{"name":"율목복지회관 주차장","type":"공영","category":"노외","address":"경기도 안양시 만안구 병목안로130번길 172-30","lat":37.393163,"lng":126.90803,"totalSpaces":57,"isFree":true,"operatingDays":"평일+토요일+공휴일","weekdayOpen":"00:00","weekdayClose":"23:59","weekendOpen":"00:00","weekendClose":"23:59","holidayOpen":"00:00","holidayClose":"23:59","feeInfo":"무료","phone":"031-8045-5255","updatedAt":"2025-12-26","sido":"경기도","sigungu":"안양시","dong":""},{"name":"김중업건축박물관 뒤 주차장","type":"공영","category":"노외","address":"경기도 안양시 만안구 예술공원로103번길 4","lat":37.41838,"lng":126.918319,"totalSpaces":56,"isFree":true,"operatingDays":"평일+토요일+공휴일","weekdayOpen":"00:00","weekdayClose":"23:59","weekendOpen":"00:00","weekendClose":"23:59","holidayOpen":"00:00","holidayClose":"23:59","feeInfo":"무료","phone":"031-8045-5255","updatedAt":"2025-12-26","sido":"경기도","sigungu":"안양시","dong":""},{"name":"우주타운옆 주차장","type":"공영","category":"노외","address":"경기도 안양시 만안구 박달로416번길 19","lat":37.400551,"lng":126.89847,"totalSpaces":48,"isFree":true,"operatingDays":"평일+토요일+공휴일","weekdayOpen":"00:00","weekdayClose":"23:59","weekendOpen":"00:00","weekendClose":"23:59","holidayOpen":"00:00","holidayClose":"23:59","feeInfo":"무료","phone":"031-8045-5255","updatedAt":"2025-12-26","sido":"경기도","sigungu":"안양시","dong":""},{"name":"양지초등학교 앞 주차장","type":"공영","category":"노외","address":"경기도 안양시 만안구 병목안로 130번길69","lat":37.392245,"lng":126.904552,"totalSpaces":47,"isFree":true,"operatingDays":"평일+토요일+공휴일","weekdayOpen":"00:00","weekdayClose":"23:59","weekendOpen":"00:00","weekendClose":"23:59","holidayOpen":"00:00","holidayClose":"23:59","feeInfo":"무료","phone":"031-8045-5255","updatedAt":"2025-12-26","sido":"경기도","sigungu":"안양시","dong":""},{"name":"안양3동노외 주차장","type":"공영","category":"노외","address":"경기도 안양시 만안구 양화로25번길 24-5","lat":37.3956,"lng":126.913219,"totalSpaces":47,"isFree":true,"operatingDays":"평일+토요일+공휴일","weekdayOpen":"00:00","weekdayClose":"23:59","weekendOpen":"00:00","weekendClose":"23:59","holidayOpen":"00:00","holidayClose":"23:59","feeInfo":"무료","phone":"031-8045-5255","updatedAt":"2025-12-26","sido":"경기도","sigungu":"안양시","dong":""},{"name":"호계3동노외 주차장","type":"공영","category":"노외","address":"경기도 안양시 동안구 호계동 1006-4,5","lat":37.368702,"lng":126.958851,"totalSpaces":41,"isFree":true,"operatingDays":"평일+토요일+공휴일","weekdayOpen":"00:00","weekdayClose":"23:59","weekendOpen":"00:00","weekendClose":"23:59","holidayOpen":"00:00","holidayClose":"23:59","feeInfo":"무료","phone":"031-8045-5255","updatedAt":"2025-12-26","sido":"경기도","sigungu":"안양시","dong":""},{"name":"수리산교 하부 주차장","type":"공영","category":"노외","address":"경기도 안양시 만안구 병목안로 392","lat":37.371784,"lng":126.904387,"totalSpaces":40,"isFree":true,"operatingDays":"평일+토요일+공휴일","weekdayOpen":"00:00","weekdayClose":"23:59","weekendOpen":"00:00","weekendClose":"23:59","holidayOpen":"00:00","holidayClose":"23:59","feeInfo":"무료","phone":"031-8045-5255","updatedAt":"2025-12-26","sido":"경기도","sigungu":"안양시","dong":""},{"name":"중촌경로당 주차장","type":"공영","category":"노외","address":"경기도 안양시 동안구 관악대로359번길 20-22","lat":37.405281,"lng":126.963752,"totalSpaces":33,"isFree":true,"operatingDays":"평일+토요일+공휴일","weekdayOpen":"00:00","weekdayClose":"23:59","weekendOpen":"00:00","weekendClose":"23:59","holidayOpen":"00:00","holidayClose":"23:59","feeInfo":"무료","phone":"031-8045-5255","updatedAt":"2025-12-26","sido":"경기도","sigungu":"안양시","dong":""},{"name":"호원어린이공원 노외 주차장","type":"공영","category":"노외","address":"경기도 안양시 동안구 호계동 1300","lat":37.377449,"lng":126.954074,"totalSpaces":30,"isFree":true,"operatingDays":"평일+토요일+공휴일","weekdayOpen":"00:00","weekdayClose":"23:59","weekendOpen":"00:00","weekendClose":"23:59","holidayOpen":"00:00","holidayClose":"23:59","feeInfo":"무료","phone":"031-8045-5255","updatedAt":"2025-12-26","sido":"경기도","sigungu":"안양시","dong":""},{"name":"범계성당옆 주차장","type":"공영","category":"노외","address":"경기도 안양시 동안구 경수대로 725","lat":37.386345,"lng":126.95023,"totalSpaces":27,"isFree":true,"operatingDays":"평일+토요일+공휴일","weekdayOpen":"00:00","weekdayClose":"23:59","weekendOpen":"00:00","weekendClose":"23:59","holidayOpen":"00:00","holidayClose":"23:59","feeInfo":"무료","phone":"031-8045-5255","updatedAt":"2025-12-26","sido":"경기도","sigungu":"안양시","dong":""},{"name":"운동장파출소 뒤 주차장","type":"공영","category":"노외","address":"경기도 안양시 동안구 평촌대로374번길 16","lat":37.403842,"lng":126.950531,"totalSpaces":27,"isFree":true,"operatingDays":"평일+토요일+공휴일","weekdayOpen":"00:00","weekdayClose":"23:59","weekendOpen":"00:00","weekendClose":"23:59","holidayOpen":"00:00","holidayClose":"23:59","feeInfo":"무료","phone":"031-8045-5255","updatedAt":"2025-12-26","sido":"경기도","sigungu":"안양시","dong":""},{"name":"완충녹지 주차장 주차장","type":"공영","category":"노외","address":"경기도 안양시 만안구 안양로68번길 19","lat":37.382554,"lng":126.935765,"totalSpaces":24,"isFree":true,"operatingDays":"평일+토요일+공휴일","weekdayOpen":"00:00","weekdayClose":"23:59","weekendOpen":"00:00","weekendClose":"23:59","holidayOpen":"00:00","holidayClose":"23:59","feeInfo":"무료","phone":"031-8045-5255","updatedAt":"2025-12-26","sido":"경기도","sigungu":"안양시","dong":""},{"name":"박달1동 주민센터 앞 주차장","type":"공영","category":"노외","address":"경기도 안양시 만안구 박달로497번길 28","lat":37.403642,"lng":126.907937,"totalSpaces":23,"isFree":true,"operatingDays":"평일+토요일+공휴일","weekdayOpen":"00:00","weekdayClose":"23:59","weekendOpen":"00:00","weekendClose":"23:59","holidayOpen":"00:00","holidayClose":"23:59","feeInfo":"무료","phone":"031-8045-5255","updatedAt":"2025-12-26","sido":"경기도","sigungu":"안양시","dong":""},{"name":"병목안옛길 주차장","type":"공영","category":"노외","address":"경기도 안양시 만안구 병목안로156번길 24-24","lat":37.390812,"lng":126.908432,"totalSpaces":23,"isFree":true,"operatingDays":"평일+토요일+공휴일","weekdayOpen":"00:00","weekdayClose":"23:59","weekendOpen":"00:00","weekendClose":"23:59","holidayOpen":"00:00","holidayClose":"23:59","feeInfo":"무료","phone":"031-8045-5255","updatedAt":"2025-12-26","sido":"경기도","sigungu":"안양시","dong":""},{"name":"공원아파트 뒤 주차장","type":"공영","category":"노외","address":"경기도 안양시 만안구 박달우회로150번길 41","lat":37.406218,"lng":126.912413,"totalSpaces":23,"isFree":true,"operatingDays":"평일+토요일+공휴일","weekdayOpen":"00:00","weekdayClose":"23:59","weekendOpen":"00:00","weekendClose":"23:59","holidayOpen":"00:00","holidayClose":"23:59","feeInfo":"무료","phone":"031-8045-5255","updatedAt":"2025-12-26","sido":"경기도","sigungu":"안양시","dong":""},{"name":"한마음선원뒤 주차장","type":"공영","category":"노외","address":"경기도 안양시 만안구 경수대로1290번길 30-14","lat":37.422338,"lng":126.909473,"totalSpaces":22,"isFree":true,"operatingDays":"평일+토요일+공휴일","weekdayOpen":"00:00","weekdayClose":"23:59","weekendOpen":"00:00","weekendClose":"23:59","holidayOpen":"00:00","holidayClose":"23:59","feeInfo":"무료","phone":"031-8045-5255","updatedAt":"2025-12-26","sido":"경기도","sigungu":"안양시","dong":""},{"name":"안양6동 주민센터 뒤 주차장","type":"공영","category":"노외","address":"경기도 안양시 만안구 안양로170번길 23","lat":37.390073,"lng":126.930569,"totalSpaces":22,"isFree":true,"operatingDays":"평일+토요일+공휴일","weekdayOpen":"00:00","weekdayClose":"23:59","weekendOpen":"00:00","weekendClose":"23:59","holidayOpen":"00:00","holidayClose":"23:59","feeInfo":"무료","phone":"031-8045-5255","updatedAt":"2025-12-26","sido":"경기도","sigungu":"안양시","dong":""},{"name":"더샵아이파크 옆 노외 주차장","type":"공영","category":"노외","address":"경기도 안양시 동안구 경수대로610번길36","lat":37.376985,"lng":126.957199,"totalSpaces":22,"isFree":true,"operatingDays":"평일+토요일+공휴일","weekdayOpen":"00:00","weekdayClose":"23:59","weekendOpen":"00:00","weekendClose":"23:59","holidayOpen":"00:00","holidayClose":"23:59","feeInfo":"무료","phone":"031-8045-5255","updatedAt":"2025-12-26","sido":"경기도","sigungu":"안양시","dong":""},{"name":"안양테크노벨리 주차장","type":"공영","category":"노외","address":"경기도 안양시 만안구 전파로24번길 35-24","lat":37.389026,"lng":126.936539,"totalSpaces":21,"isFree":true,"operatingDays":"평일+토요일+공휴일","weekdayOpen":"00:00","weekdayClose":"23:59","weekendOpen":"00:00","weekendClose":"23:59","holidayOpen":"00:00","holidayClose":"23:59","feeInfo":"무료","phone":"031-8045-5255","updatedAt":"2025-12-26","sido":"경기도","sigungu":"안양시","dong":""},{"name":"충의 주차장","type":"공영","category":"노외","address":"경기도 안양시 동안구 비산동 1171","lat":37.40713,"lng":126.951474,"totalSpaces":20,"isFree":true,"operatingDays":"평일+토요일+공휴일","weekdayOpen":"00:00","weekdayClose":"23:59","weekendOpen":"00:00","weekendClose":"23:59","holidayOpen":"00:00","holidayClose":"23:59","feeInfo":"무료","phone":"031-8045-5255","updatedAt":"2025-12-26","sido":"경기도","sigungu":"안양시","dong":""},{"name":"신기사거리 고가 밑 주차장","type":"공영","category":"노외","address":"경기도 안양시 동안구 호계동 936-3","lat":37.378213,"lng":126.953892,"totalSpaces":16,"isFree":true,"operatingDays":"평일+토요일+공휴일","weekdayOpen":"00:00","weekdayClose":"23:59","weekendOpen":"00:00","weekendClose":"23:59","holidayOpen":"00:00","holidayClose":"23:59","feeInfo":"무료","phone":"031-8045-5255","updatedAt":"2025-12-26","sido":"경기도","sigungu":"안양시","dong":""},{"name":"청명리버빌 앞 주차장","type":"공영","category":"노외","address":"경기도 안양시 만안구 안양동 759-97","lat":37.393665,"lng":126.91045,"totalSpaces":15,"isFree":true,"operatingDays":"평일+토요일+공휴일","weekdayOpen":"00:00","weekdayClose":"23:59","weekendOpen":"00:00","weekendClose":"23:59","holidayOpen":"00:00","holidayClose":"23:59","feeInfo":"무료","phone":"031-8045-5255","updatedAt":"2025-12-26","sido":"경기도","sigungu":"안양시","dong":""},{"name":"인덕원 주차장","type":"공영","category":"노외","address":"경기도 안양시 동안구 관양동 1510-4","lat":37.398041,"lng":126.978644,"totalSpaces":15,"isFree":true,"operatingDays":"평일+토요일+공휴일","weekdayOpen":"00:00","weekdayClose":"23:59","weekendOpen":"00:00","weekendClose":"23:59","holidayOpen":"00:00","holidayClose":"23:59","feeInfo":"무료","phone":"031-8045-5255","updatedAt":"2025-12-26","sido":"경기도","sigungu":"안양시","dong":""},{"name":"율목복지회관 뒤 주차장","type":"공영","category":"노외","address":"경기도 안양시 만안구 안양동 971-6","lat":37.392941,"lng":126.90813,"totalSpaces":11,"isFree":true,"operatingDays":"평일+토요일+공휴일","weekdayOpen":"00:00","weekdayClose":"23:59","weekendOpen":"00:00","weekendClose":"23:59","holidayOpen":"00:00","holidayClose":"23:59","feeInfo":"무료","phone":"031-8045-5255","updatedAt":"2025-12-26","sido":"경기도","sigungu":"안양시","dong":""},{"name":"서초교 옆 주차장","type":"공영","category":"노외","address":"경기도 안양시 만안구 양화로37번길 23","lat":37.396556,"lng":126.912432,"totalSpaces":11,"isFree":true,"operatingDays":"평일+토요일+공휴일","weekdayOpen":"00:00","weekdayClose":"23:59","weekendOpen":"00:00","weekendClose":"23:59","holidayOpen":"00:00","holidayClose":"23:59","feeInfo":"무료","phone":"031-8045-5255","updatedAt":"2025-12-26","sido":"경기도","sigungu":"안양시","dong":""},{"name":"정우아파트옆 주차장","type":"공영","category":"노외","address":"경기도 안양시 만안구 양화로 61","lat":37.39892,"lng":126.912877,"totalSpaces":10,"isFree":true,"operatingDays":"평일+토요일+공휴일","weekdayOpen":"00:00","weekdayClose":"23:59","weekendOpen":"00:00","weekendClose":"23:59","holidayOpen":"00:00","holidayClose":"23:59","feeInfo":"무료","phone":"031-8045-5255","updatedAt":"2025-12-26","sido":"경기도","sigungu":"안양시","dong":""},{"name":"신기사거리 옆 주차장","type":"공영","category":"노외","address":"경기도 안양시 동안구 호계동 938","lat":37.377873,"lng":126.954821,"totalSpaces":8,"isFree":true,"operatingDays":"평일+토요일+공휴일","weekdayOpen":"00:00","weekdayClose":"23:59","weekendOpen":"00:00","weekendClose":"23:59","holidayOpen":"00:00","holidayClose":"23:59","feeInfo":"무료","phone":"031-8045-5255","updatedAt":"2025-12-26","sido":"경기도","sigungu":"안양시","dong":""},{"name":"정우아트빌라 뒤 주차장","type":"공영","category":"노외","address":"경기도 안양시 만안구 양화로151번길 5","lat":37.405818,"lng":126.908111,"totalSpaces":6,"isFree":true,"operatingDays":"평일+토요일+공휴일","weekdayOpen":"00:00","weekdayClose":"23:59","weekendOpen":"00:00","weekendClose":"23:59","holidayOpen":"00:00","holidayClose":"23:59","feeInfo":"무료","phone":"031-8045-5255","updatedAt":"2025-12-26","sido":"경기도","sigungu":"안양시","dong":""},{"name":"구장터경로당 주차장","type":"공영","category":"노외","address":"경기도 안양시 동안구 흥안대로94번길 23","lat":37.368479,"lng":126.956052,"totalSpaces":6,"isFree":true,"operatingDays":"평일+토요일+공휴일","weekdayOpen":"00:00","weekdayClose":"23:59","weekendOpen":"00:00","weekendClose":"23:59","holidayOpen":"00:00","holidayClose":"23:59","feeInfo":"무료","phone":"031-8045-5255","updatedAt":"2025-12-26","sido":"경기도","sigungu":"안양시","dong":""},{"name":"안양공고 뒤 주차장","type":"공영","category":"노외","address":"경기도 안양시 만안구 안양동 910-10","lat":37.39883,"lng":126.913129,"totalSpaces":5,"isFree":true,"operatingDays":"평일+토요일+공휴일","weekdayOpen":"00:00","weekdayClose":"23:59","weekendOpen":"00:00","weekendClose":"23:59","holidayOpen":"00:00","holidayClose":"23:59","feeInfo":"무료","phone":"031-8045-5255","updatedAt":"2025-12-26","sido":"경기도","sigungu":"안양시","dong":""},{"name":"평촌지하 주차장","type":"공영","category":"노외","address":"경기도 안양시 동안구 시민대로 238","lat":37.392294,"lng":126.958038,"totalSpaces":793,"isFree":false,"operatingDays":"평일","weekdayOpen":"10:00","weekdayClose":"18:00","weekendOpen":"00:00","weekendClose":"00:00","holidayOpen":"00:00","holidayClose":"00:00","feeInfo":"기본 30분 200원","phone":"031-8045-5255","updatedAt":"2025-12-26","sido":"경기도","sigungu":"안양시","dong":""},{"name":"관양1동 주차타워 주차장","type":"공영","category":"노외","address":"경기도 안양시 동안구 관평로358번길 30","lat":37.406432,"lng":126.961088,"totalSpaces":238,"isFree":false,"operatingDays":"평일","weekdayOpen":"09:00","weekdayClose":"18:00","weekendOpen":"00:00","weekendClose":"00:00","holidayOpen":"00:00","holidayClose":"00:00","feeInfo":"기본 30분 200원","phone":"031-8045-5255","updatedAt":"2025-12-26","sido":"경기도","sigungu":"안양시","dong":""},{"name":"관양2동 노외 주차장","type":"공영","category":"노외","address":"경기도 안양시 동안구 흥안대로507번길 32","lat":37.39923,"lng":126.975011,"totalSpaces":203,"isFree":false,"operatingDays":"평일","weekdayOpen":"09:00","weekdayClose":"20:00","weekendOpen":"00:00","weekendClose":"00:00","holidayOpen":"00:00","holidayClose":"00:00","feeInfo":"기본 30분 200원","phone":"031-8045-5255","updatedAt":"2025-12-26","sido":"경기도","sigungu":"안양시","dong":""},{"name":"삼덕공원지하 주차장","type":"공영","category":"노외","address":"경기도 안양시 만안구 삼덕로 106","lat":37.397387,"lng":126.916402,"totalSpaces":194,"isFree":false,"operatingDays":"평일+토요일+공휴일","weekdayOpen":"10:00","weekdayClose":"20:00","weekendOpen":"10:00","weekendClose":"20:00","holidayOpen":"10:00","holidayClose":"20:00","feeInfo":"기본 30분 400원","phone":"031-8045-5255","updatedAt":"2025-12-26","sido":"경기도","sigungu":"안양시","dong":""},{"name":"인덕원환승 주차장","type":"공영","category":"노외","address":"경기도 안양시 동안구 안양판교로 23","lat":37.400687,"lng":126.978495,"totalSpaces":182,"isFree":false,"operatingDays":"평일+토요일+공휴일","weekdayOpen":"10:00","weekdayClose":"22:00","weekendOpen":"10:00","weekendClose":"22:00","holidayOpen":"10:00","holidayClose":"22:00","feeInfo":"기본 30분 400원","phone":"031-8045-5255","updatedAt":"2025-12-26","sido":"경기도","sigungu":"안양시","dong":""},{"name":"삼막사노상 주차장","type":"공영","category":"노상","address":"경기도 안양시 만안구 삼막로 155","lat":37.435667,"lng":126.917068,"totalSpaces":173,"isFree":false,"operatingDays":"평일+토요일+공휴일","weekdayOpen":"09:00","weekdayClose":"21:00","weekendOpen":"09:00","weekendClose":"21:00","holidayOpen":"09:00","holidayClose":"21:00","feeInfo":"기본 30분 200원","phone":"031-8045-5255","updatedAt":"2025-12-26","sido":"경기도","sigungu":"안양시","dong":""},{"name":"병목안시민공원 주차장","type":"공영","category":"노외","address":"경기도 안양시 만안구 병목안로 215","lat":37.385292,"lng":126.907662,"totalSpaces":170,"isFree":false,"operatingDays":"평일+토요일+공휴일","weekdayOpen":"09:00","weekdayClose":"21:00","weekendOpen":"00:00","weekendClose":"23:59","holidayOpen":"00:00","holidayClose":"23:59","feeInfo":"기본 30분 200원","phone":"031-8045-5255","updatedAt":"2025-12-26","sido":"경기도","sigungu":"안양시","dong":""},{"name":"스마트스퀘어지하 노외 주차장","type":"공영","category":"노외","address":"경기도 안양시 동안구 부림로170번길 20","lat":37.398722,"lng":126.964386,"totalSpaces":170,"isFree":false,"operatingDays":"평일+토요일+공휴일","weekdayOpen":"09:00","weekdayClose":"18:00","weekendOpen":"09:00","weekendClose":"18:00","holidayOpen":"09:00","holidayClose":"18:00","feeInfo":"기본 30분 400원","phone":"031-8045-5255","updatedAt":"2025-12-26","sido":"경기도","sigungu":"안양시","dong":""},{"name":"예술공원노외 주차장","type":"공영","category":"노외","address":"경기도 안양시 만안구 예술공원로 131","lat":37.419063,"lng":126.919771,"totalSpaces":168,"isFree":false,"operatingDays":"평일+토요일+공휴일","weekdayOpen":"09:00","weekdayClose":"21:00","weekendOpen":"09:00","weekendClose":"21:00","holidayOpen":"09:00","holidayClose":"21:00","feeInfo":"기본 30분 400원","phone":"031-8045-5255","updatedAt":"2025-12-26","sido":"경기도","sigungu":"안양시","dong":""},{"name":"범계역노상 주차장","type":"공영","category":"노상","address":"경기도 안양시 동안구 평촌대로223번길 55","lat":37.390241,"lng":126.952754,"totalSpaces":168,"isFree":false,"operatingDays":"평일+토요일+공휴일","weekdayOpen":"09:00","weekdayClose":"22:00","weekendOpen":"09:00","weekendClose":"22:00","holidayOpen":"00:00","holidayClose":"22:00","feeInfo":"기본 30분 600원","phone":"031-8045-5255","updatedAt":"2025-12-26","sido":"경기도","sigungu":"안양시","dong":""},{"name":"동편마을 지하 주차장","type":"공영","category":"노외","address":"경기도 안양시 동안구 동편로39번길 13","lat":37.407889,"lng":126.972434,"totalSpaces":163,"isFree":false,"operatingDays":"평일","weekdayOpen":"09:00","weekdayClose":"18:00","weekendOpen":"00:00","weekendClose":"00:00","holidayOpen":"00:00","holidayClose":"00:00","feeInfo":"기본 30분 200원","phone":"031-8045-5255","updatedAt":"2025-12-26","sido":"경기도","sigungu":"안양시","dong":""},{"name":"안양4동 노외 주차장","type":"공영","category":"노외","address":"경기도 안양시 만안구 냉천로203번길 15","lat":37.397271,"lng":126.918516,"totalSpaces":149,"isFree":false,"operatingDays":"평일+토요일","weekdayOpen":"10:00","weekdayClose":"20:00","weekendOpen":"09:00","weekendClose":"20:00","holidayOpen":"00:00","holidayClose":"00:00","feeInfo":"기본 30분 400원","phone":"031-8045-5255","updatedAt":"2025-12-26","sido":"경기도","sigungu":"안양시","dong":""},{"name":"관양2동복개 주차장","type":"공영","category":"노상","address":"경기도 안양시 동안구 벌말로 174","lat":37.402242,"lng":126.971412,"totalSpaces":139,"isFree":false,"operatingDays":"평일","weekdayOpen":"09:00","weekdayClose":"18:00","weekendOpen":"00:00","weekendClose":"00:00","holidayOpen":"00:00","holidayClose":"00:00","feeInfo":"기본 30분 400원","phone":"031-8045-5255","updatedAt":"2025-12-26","sido":"경기도","sigungu":"안양시","dong":""},{"name":"안양8동 지하 주차장","type":"공영","category":"노외","address":"경기도 안양시 만안구 안양로 114","lat":37.385493,"lng":126.93312,"totalSpaces":134,"isFree":false,"operatingDays":"평일","weekdayOpen":"09:00","weekdayClose":"18:00","weekendOpen":"00:00","weekendClose":"00:00","holidayOpen":"00:00","holidayClose":"00:00","feeInfo":"기본 30분 200원","phone":"031-8045-5255","updatedAt":"2025-12-26","sido":"경기도","sigungu":"안양시","dong":""},{"name":"안양7동 노외 주차장","type":"공영","category":"노외","address":"경기도 안양시 만안구 안양동 212-3","lat":37.390747,"lng":126.933714,"totalSpaces":133,"isFree":false,"operatingDays":"평일+토요일+공휴일","weekdayOpen":"09:00","weekdayClose":"17:00","weekendOpen":"09:00","weekendClose":"17:00","holidayOpen":"09:00","holidayClose":"17:00","feeInfo":"기본 30분 400원","phone":"031-8045-5255","updatedAt":"2025-12-26","sido":"경기도","sigungu":"안양시","dong":""},{"name":"관악노상2 주차장","type":"공영","category":"노상","address":"경기도 안양시 동안구 관악대로 373","lat":37.404688,"lng":126.964073,"totalSpaces":126,"isFree":false,"operatingDays":"평일+토요일","weekdayOpen":"09:00","weekdayClose":"19:00","weekendOpen":"09:00","weekendClose":"19:00","holidayOpen":"00:00","holidayClose":"00:00","feeInfo":"기본 30분 600원","phone":"031-8045-5255","updatedAt":"2025-12-26","sido":"경기도","sigungu":"안양시","dong":""},{"name":"관악역4환승 주차장","type":"공영","category":"노외","address":"경기도 안양시 만안구 경수대로1273번길 25","lat":37.419812,"lng":126.908973,"totalSpaces":118,"isFree":false,"operatingDays":"평일","weekdayOpen":"09:00","weekdayClose":"17:00","weekendOpen":"00:00","weekendClose":"00:00","holidayOpen":"00:00","holidayClose":"00:00","feeInfo":"기본 30분 200원","phone":"031-8045-5255","updatedAt":"2025-12-26","sido":"경기도","sigungu":"안양시","dong":""},{"name":"화창초교 주차장","type":"공영","category":"노외","address":"경기도 안양시 만안구 양화로217번길 30","lat":37.412127,"lng":126.903519,"totalSpaces":109,"isFree":false,"operatingDays":"평일+토요일+공휴일","weekdayOpen":"00:00","weekdayClose":"23:59","weekendOpen":"00:00","weekendClose":"23:59","holidayOpen":"00:00","holidayClose":"23:59","feeInfo":"기본 30분 200원","phone":"031-8045-5255","updatedAt":"2025-12-26","sido":"경기도","sigungu":"안양시","dong":""},{"name":"냉천놀이터 주차장","type":"공영","category":"노외","address":"경기도 안양시 만안구 안양로263번길 31","lat":37.395251,"lng":126.922045,"totalSpaces":101,"isFree":false,"operatingDays":"평일+토요일+공휴일","weekdayOpen":"00:00","weekdayClose":"23:59","weekendOpen":"00:00","weekendClose":"23:59","holidayOpen":"00:00","holidayClose":"23:59","feeInfo":"기본 30분 200원","phone":"031-8045-5255","updatedAt":"2025-12-26","sido":"경기도","sigungu":"안양시","dong":""},{"name":"일번가노외 주차장","type":"공영","category":"노외","address":"경기도 안양시 만안구 만안로 193-1","lat":37.398221,"lng":126.924903,"totalSpaces":99,"isFree":false,"operatingDays":"평일+토요일+공휴일","weekdayOpen":"10:00","weekdayClose":"22:00","weekendOpen":"10:00","weekendClose":"22:00","holidayOpen":"10:00","holidayClose":"22:00","feeInfo":"기본 30분 600원","phone":"031-8045-5255","updatedAt":"2025-12-26","sido":"경기도","sigungu":"안양시","dong":""},{"name":"관악역3환승 주차장","type":"공영","category":"노외","address":"경기도 안양시 만안구 경수대로1273번길 49","lat":37.418959,"lng":126.909725,"totalSpaces":96,"isFree":false,"operatingDays":"평일","weekdayOpen":"09:00","weekdayClose":"17:00","weekendOpen":"00:00","weekendClose":"00:00","holidayOpen":"00:00","holidayClose":"00:00","feeInfo":"기본 30분 200원","phone":"031-8045-5255","updatedAt":"2025-12-26","sido":"경기도","sigungu":"안양시","dong":""},{"name":"동안노상 주차장","type":"공영","category":"노상","address":"경기도 안양시 동안구 평촌대로243번길 30","lat":37.392839,"lng":126.95304,"totalSpaces":95,"isFree":false,"operatingDays":"평일","weekdayOpen":"09:00","weekdayClose":"17:00","weekendOpen":"00:00","weekendClose":"00:00","holidayOpen":"00:00","holidayClose":"00:00","feeInfo":"기본 30분 600원","phone":"031-8045-5255","updatedAt":"2025-12-26","sido":"경기도","sigungu":"안양시","dong":""},{"name":"석수3동 충훈공영 주차장","type":"공영","category":"노외","address":"경기도 안양시 만안구 충훈로90번길 36","lat":37.409197,"lng":126.899406,"totalSpaces":94,"isFree":false,"operatingDays":"평일","weekdayOpen":"09:00","weekdayClose":"18:00","weekendOpen":"00:00","weekendClose":"00:00","holidayOpen":"00:00","holidayClose":"00:00","feeInfo":"기본 30분 200원","phone":"031-8045-5255","updatedAt":"2025-12-26","sido":"경기도","sigungu":"안양시","dong":""},{"name":"관악노상1 주차장","type":"공영","category":"노상","address":"경기도 안양시 동안구 관악대로 370","lat":37.403949,"lng":126.964044,"totalSpaces":92,"isFree":false,"operatingDays":"평일+토요일","weekdayOpen":"09:00","weekdayClose":"19:00","weekendOpen":"09:00","weekendClose":"19:00","holidayOpen":"00:00","holidayClose":"00:00","feeInfo":"기본 30분 600원","phone":"031-8045-5255","updatedAt":"2025-12-26","sido":"경기도","sigungu":"안양시","dong":""},{"name":"삼덕노외 주차장","type":"공영","category":"노외","address":"경기도 안양시 만안구 안양로263번길 31","lat":37.395251,"lng":126.922045,"totalSpaces":91,"isFree":false,"operatingDays":"평일+토요일+공휴일","weekdayOpen":"10:00","weekdayClose":"20:00","weekendOpen":"10:00","weekendClose":"20:00","holidayOpen":"10:00","holidayClose":"20:00","feeInfo":"기본 30분 400원","phone":"031-8045-5255","updatedAt":"2025-12-26","sido":"경기도","sigungu":"안양시","dong":""},{"name":"예술공원고가밑 주차장","type":"공영","category":"노상","address":"경기도 안양시 만안구 경수대로 1175","lat":37.415309,"lng":126.91702,"totalSpaces":88,"isFree":false,"operatingDays":"평일+토요일+공휴일","weekdayOpen":"09:00","weekdayClose":"21:00","weekendOpen":"09:00","weekendClose":"21:00","holidayOpen":"09:00","holidayClose":"21:00","feeInfo":"기본 30분 400원","phone":"031-8045-5255","updatedAt":"2025-12-26","sido":"경기도","sigungu":"안양시","dong":""},{"name":"명학역노상 주차장","type":"공영","category":"노상","address":"경기도 안양시 만안구 덕천로 52","lat":37.385891,"lng":126.936294,"totalSpaces":87,"isFree":false,"operatingDays":"평일","weekdayOpen":"09:00","weekdayClose":"17:00","weekendOpen":"00:00","weekendClose":"00:00","holidayOpen":"00:00","holidayClose":"00:00","feeInfo":"기본 30분 400원","phone":"031-8045-5255","updatedAt":"2025-12-26","sido":"경기도","sigungu":"안양시","dong":""},{"name":"해동놀이터 주차장","type":"공영","category":"노외","address":"경기도 안양시 동안구 관악대로287번길 104-22","lat":37.407419,"lng":126.956132,"totalSpaces":76,"isFree":false,"operatingDays":"평일+토요일+공휴일","weekdayOpen":"00:00","weekdayClose":"23:59","weekendOpen":"00:00","weekendClose":"23:59","holidayOpen":"00:00","holidayClose":"23:59","feeInfo":"기본 30분 200원","phone":"031-8045-5255","updatedAt":"2025-12-26","sido":"경기도","sigungu":"안양시","dong":""},{"name":"원스퀘어 임시공영 주차장","type":"공영","category":"노외","address":"경기도 안양시 만안구 안양동 668-29","lat":37.400994,"lng":126.921391,"totalSpaces":75,"isFree":false,"operatingDays":"평일+토요일+공휴일","weekdayOpen":"10:00","weekdayClose":"22:00","weekendOpen":"10:00","weekendClose":"22:00","holidayOpen":"10:00","holidayClose":"22:00","feeInfo":"기본 30분 600원","phone":"031-8045-5255","updatedAt":"2025-12-26","sido":"경기도","sigungu":"안양시","dong":""},{"name":"석수대형화물 주차장","type":"공영","category":"노외","address":"경기도 안양시 만안구 석수로 238","lat":37.410881,"lng":126.893191,"totalSpaces":74,"isFree":false,"operatingDays":"평일+토요일+공휴일","weekdayOpen":"00:00","weekdayClose":"23:59","weekendOpen":"00:00","weekendClose":"23:59","holidayOpen":"00:00","holidayClose":"23:59","feeInfo":"기본 30분 400원","phone":"031-8045-5255","updatedAt":"2025-12-26","sido":"경기도","sigungu":"안양시","dong":""},{"name":"평촌역노상 주차장","type":"공영","category":"노상","address":"경기도 안양시 동안구 관평로182번길 42","lat":37.393649,"lng":126.96266,"totalSpaces":71,"isFree":false,"operatingDays":"평일+토요일","weekdayOpen":"10:00","weekdayClose":"20:00","weekendOpen":"10:00","weekendClose":"20:00","holidayOpen":"00:00","holidayClose":"00:00","feeInfo":"기본 30분 600원","phone":"031-8045-5255","updatedAt":"2025-12-26","sido":"경기도","sigungu":"안양시","dong":""},{"name":"호현마을1 공영주차장","type":"공영","category":"노외","address":"경기도 안양시 만안구 박달동 818","lat":37.406,"lng":126.883488,"totalSpaces":64,"isFree":false,"operatingDays":"평일","weekdayOpen":"09:00","weekdayClose":"18:00","weekendOpen":"00:00","weekendClose":"00:00","holidayOpen":"00:00","holidayClose":"00:00","feeInfo":"기본 30분 200원","phone":"031-8045-5255","updatedAt":"2025-12-26","sido":"경기도","sigungu":"안양시","dong":""},{"name":"호현마을2 공영주차장","type":"공영","category":"노외","address":"경기도 안양시 만안구 박달동 815-4","lat":37.406321,"lng":126.884022,"totalSpaces":62,"isFree":false,"operatingDays":"평일","weekdayOpen":"09:00","weekdayClose":"18:00","weekendOpen":"00:00","weekendClose":"00:00","holidayOpen":"00:00","holidayClose":"00:00","feeInfo":"기본 30분 200원","phone":"031-8045-5255","updatedAt":"2025-12-26","sido":"경기도","sigungu":"안양시","dong":""},{"name":"박달시장2 노외 주차장","type":"공영","category":"노외","address":"경기도 안양시 만안구 박달동 72-22","lat":37.403321,"lng":126.912547,"totalSpaces":61,"isFree":false,"operatingDays":"평일+토요일","weekdayOpen":"09:00","weekdayClose":"19:00","weekendOpen":"09:00","weekendClose":"19:00","holidayOpen":"00:00","holidayClose":"00:00","feeInfo":"기본 30분 400원","phone":"031-8045-5255","updatedAt":"2025-12-26","sido":"경기도","sigungu":"안양시","dong":""},{"name":"수리산2노상 주차장","type":"공영","category":"노상","address":"경기도 안양시 만안구 수리산로 52","lat":37.389034,"lng":126.931797,"totalSpaces":61,"isFree":false,"operatingDays":"평일","weekdayOpen":"10:00","weekdayClose":"18:00","weekendOpen":"00:00","weekendClose":"00:00","holidayOpen":"00:00","holidayClose":"00:00","feeInfo":"기본 30분 600원","phone":"031-8045-5255","updatedAt":"2025-12-26","sido":"경기도","sigungu":"안양시","dong":""},{"name":"인덕원노상2 주차장","type":"공영","category":"노상","address":"경기도 안양시 동안구 흥안대로 524","lat":37.400745,"lng":126.977342,"totalSpaces":58,"isFree":false,"operatingDays":"평일+토요일+공휴일","weekdayOpen":"09:00","weekdayClose":"22:00","weekendOpen":"09:00","weekendClose":"22:00","holidayOpen":"09:00","holidayClose":"22:00","feeInfo":"기본 30분 600원","phone":"031-8045-5255","updatedAt":"2025-12-26","sido":"경기도","sigungu":"안양시","dong":""},{"name":"샘모루초교 주차장","type":"공영","category":"노외","address":"경기도 안양시 동안구 관악대로 155","lat":37.39965,"lng":126.940857,"totalSpaces":57,"isFree":false,"operatingDays":"평일+토요일","weekdayOpen":"09:00","weekdayClose":"20:00","weekendOpen":"09:00","weekendClose":"20:00","holidayOpen":"00:00","holidayClose":"00:00","feeInfo":"기본 30분 200원","phone":"031-8045-5255","updatedAt":"2025-12-26","sido":"경기도","sigungu":"안양시","dong":""},{"name":"개나리놀이터 주차장","type":"공영","category":"노외","address":"경기도 안양시 만안구 안양로343번길 57-7","lat":37.40151,"lng":126.915331,"totalSpaces":56,"isFree":false,"operatingDays":"평일+토요일+공휴일","weekdayOpen":"00:00","weekdayClose":"23:59","weekendOpen":"00:00","weekendClose":"23:59","holidayOpen":"00:00","holidayClose":"23:59","feeInfo":"기본 30분 200원","phone":"031-8045-5255","updatedAt":"2025-12-26","sido":"경기도","sigungu":"안양시","dong":""},{"name":"박달고가밑 주차장","type":"공영","category":"노상","address":"경기도 안양시 만안구 만안로 340","lat":37.409156,"lng":126.915848,"totalSpaces":56,"isFree":false,"operatingDays":"평일+토요일","weekdayOpen":"11:00","weekdayClose":"21:00","weekendOpen":"11:00","weekendClose":"21:00","holidayOpen":"00:00","holidayClose":"00:00","feeInfo":"기본 30분 400원","phone":"031-8045-5255","updatedAt":"2025-12-26","sido":"경기도","sigungu":"안양시","dong":""},{"name":"남부노상 주차장","type":"공영","category":"노상","address":"경기도 안양시 만안구 만안로 171","lat":37.396723,"lng":126.926338,"totalSpaces":55,"isFree":false,"operatingDays":"평일","weekdayOpen":"10:00","weekdayClose":"18:00","weekendOpen":"00:00","weekendClose":"00:00","holidayOpen":"00:00","holidayClose":"00:00","feeInfo":"기본 30분 600원","phone":"031-8045-5255","updatedAt":"2025-12-26","sido":"경기도","sigungu":"안양시","dong":""},{"name":"안양역1노상 주차장","type":"공영","category":"노상","address":"경기도 안양시 만안구 만안로223번길 13","lat":37.400587,"lng":126.92197,"totalSpaces":54,"isFree":false,"operatingDays":"평일+토요일+공휴일","weekdayOpen":"10:00","weekdayClose":"22:00","weekendOpen":"10:00","weekendClose":"22:00","holidayOpen":"10:00","holidayClose":"22:00","feeInfo":"기본 30분 600원","phone":"031-8045-5255","updatedAt":"2025-12-26","sido":"경기도","sigungu":"안양시","dong":""},{"name":"문예노상 주차장","type":"공영","category":"노상","address":"경기도 안양시 만안구 문예로 48","lat":37.385848,"lng":126.93295,"totalSpaces":54,"isFree":false,"operatingDays":"평일","weekdayOpen":"10:00","weekdayClose":"18:00","weekendOpen":"00:00","weekendClose":"00:00","holidayOpen":"00:00","holidayClose":"00:00","feeInfo":"기본 30분 600원","phone":"031-8045-5255","updatedAt":"2025-12-26","sido":"경기도","sigungu":"안양시","dong":""},{"name":"남부노외 주차장","type":"공영","category":"노외","address":"경기도 안양시 만안구 안양로248번길 13","lat":37.395591,"lng":126.925273,"totalSpaces":54,"isFree":false,"operatingDays":"평일+토요일","weekdayOpen":"08:00","weekdayClose":"18:00","weekendOpen":"08:00","weekendClose":"18:00","holidayOpen":"00:00","holidayClose":"00:00","feeInfo":"기본 30분 600원","phone":"031-8045-5255","updatedAt":"2025-12-26","sido":"경기도","sigungu":"안양시","dong":""},{"name":"인덕원노상1 주차장","type":"공영","category":"노상","address":"경기도 안양시 동안구 흥안대로 527","lat":37.401119,"lng":126.976131,"totalSpaces":51,"isFree":false,"operatingDays":"평일+토요일+공휴일","weekdayOpen":"09:00","weekdayClose":"22:00","weekendOpen":"09:00","weekendClose":"22:00","holidayOpen":"09:00","holidayClose":"22:00","feeInfo":"기본 30분 600원","phone":"031-8045-5255","updatedAt":"2025-12-26","sido":"경기도","sigungu":"안양시","dong":""},{"name":"관양2동 공업부지 노외 주차장","type":"공영","category":"노외","address":"경기도 안양시 동안구 시민대로383번길 38","lat":37.398098,"lng":126.973011,"totalSpaces":49,"isFree":false,"operatingDays":"평일+토요일+공휴일","weekdayOpen":"00:00","weekdayClose":"23:59","weekendOpen":"00:00","weekendClose":"23:59","holidayOpen":"00:00","holidayClose":"23:59","feeInfo":"기본 30분 400원","phone":"031-8045-5255","updatedAt":"2025-12-26","sido":"경기도","sigungu":"안양시","dong":""},{"name":"관악역2환승 주차장","type":"공영","category":"노외","address":"경기도 안양시 만안구 만안로 461","lat":37.418639,"lng":126.908756,"totalSpaces":46,"isFree":false,"operatingDays":"평일","weekdayOpen":"09:00","weekdayClose":"17:00","weekendOpen":"00:00","weekendClose":"00:00","holidayOpen":"00:00","holidayClose":"00:00","feeInfo":"기본 30분 200원","phone":"031-8045-5255","updatedAt":"2025-12-26","sido":"경기도","sigungu":"안양시","dong":""},{"name":"먹거리촌노상 주차장","type":"공영","category":"노상","address":"경기도 안양시 동안구 귀인로190번길 23","lat":37.384338,"lng":126.960806,"totalSpaces":45,"isFree":false,"operatingDays":"평일+토요일","weekdayOpen":"10:00","weekdayClose":"21:00","weekendOpen":"10:00","weekendClose":"21:00","holidayOpen":"00:00","holidayClose":"00:00","feeInfo":"기본 30분 400원","phone":"031-8045-5255","updatedAt":"2025-12-26","sido":"경기도","sigungu":"안양시","dong":""},{"name":"수목원입구노외 주차장","type":"공영","category":"노외","address":"경기도 안양시 만안구 예술공원로 251","lat":37.418649,"lng":126.932895,"totalSpaces":44,"isFree":false,"operatingDays":"평일+토요일+공휴일","weekdayOpen":"09:00","weekdayClose":"21:00","weekendOpen":"09:00","weekendClose":"21:00","holidayOpen":"09:00","holidayClose":"21:00","feeInfo":"기본 30분 400원","phone":"031-8045-5255","updatedAt":"2025-12-26","sido":"경기도","sigungu":"안양시","dong":""},{"name":"관악역1환승 주차장","type":"공영","category":"노외","address":"경기도 안양시 만안구 만안로 471","lat":37.419339,"lng":126.908208,"totalSpaces":44,"isFree":false,"operatingDays":"평일+토요일+공휴일","weekdayOpen":"00:00","weekdayClose":"23:59","weekendOpen":"00:00","weekendClose":"23:59","holidayOpen":"00:00","holidayClose":"23:59","feeInfo":"기본 30분 200원","phone":"031-8045-5255","updatedAt":"2025-12-26","sido":"경기도","sigungu":"안양시","dong":""},{"name":"느루소공원 지하 주차장","type":"공영","category":"노외","address":"경기도 안양시 동안구 호계동 954-4","lat":37.373289,"lng":126.954235,"totalSpaces":44,"isFree":false,"operatingDays":"평일","weekdayOpen":"09:00","weekdayClose":"18:00","weekendOpen":"00:00","weekendClose":"00:00","holidayOpen":"00:00","holidayClose":"00:00","feeInfo":"기본 30분 200원","phone":"031-8045-5255","updatedAt":"2025-12-26","sido":"경기도","sigungu":"안양시","dong":""},{"name":"호계3동 노외 주차장","type":"공영","category":"노외","address":"경기도 안양시 동안구 흥안대로94번길 18","lat":37.368765,"lng":126.955553,"totalSpaces":43,"isFree":false,"operatingDays":"평일","weekdayOpen":"10:00","weekdayClose":"18:00","weekendOpen":"00:00","weekendClose":"00:00","holidayOpen":"00:00","holidayClose":"00:00","feeInfo":"기본 30분 400원","phone":"031-8045-5255","updatedAt":"2025-12-26","sido":"경기도","sigungu":"안양시","dong":""},{"name":"관악3노상 주차장","type":"공영","category":"노상","address":"경기도 안양시 동안구 관악대로 479-2","lat":37.403089,"lng":126.975724,"totalSpaces":42,"isFree":false,"operatingDays":"평일","weekdayOpen":"09:00","weekdayClose":"19:00","weekendOpen":"00:00","weekendClose":"00:00","holidayOpen":"00:00","holidayClose":"00:00","feeInfo":"기본 30분 600원","phone":"031-8045-5255","updatedAt":"2025-12-26","sido":"경기도","sigungu":"안양시","dong":""},{"name":"덕천노상 주차장","type":"공영","category":"노상","address":"경기도 안양시 만안구 덕천로 98","lat":37.389759,"lng":126.934457,"totalSpaces":42,"isFree":false,"operatingDays":"평일","weekdayOpen":"09:00","weekdayClose":"17:00","weekendOpen":"00:00","weekendClose":"00:00","holidayOpen":"00:00","holidayClose":"00:00","feeInfo":"기본 30분 400원","phone":"031-8045-5255","updatedAt":"2025-12-26","sido":"경기도","sigungu":"안양시","dong":""},{"name":"비호교복개 1,2 노외 주차장","type":"공영","category":"노외","address":"경기도 안양시 동안구 호계동 1009","lat":37.392049,"lng":126.942526,"totalSpaces":42,"isFree":false,"operatingDays":"평일","weekdayOpen":"09:00","weekdayClose":"19:00","weekendOpen":"00:00","weekendClose":"00:00","holidayOpen":"00:00","holidayClose":"00:00","feeInfo":"기본 30분 400원","phone":"031-8045-5255","updatedAt":"2025-12-26","sido":"경기도","sigungu":"안양시","dong":""},{"name":"안양2동 노외 주차장","type":"공영","category":"노외","address":"경기도 안양시 만안구 안양로384번길 50","lat":37.405082,"lng":126.917823,"totalSpaces":40,"isFree":false,"operatingDays":"평일+토요일","weekdayOpen":"09:00","weekdayClose":"19:00","weekendOpen":"09:00","weekendClose":"19:00","holidayOpen":"00:00","holidayClose":"00:00","feeInfo":"기본 30분 600원","phone":"031-8045-5255","updatedAt":"2025-12-26","sido":"경기도","sigungu":"안양시","dong":""},{"name":"시청앞노상 주차장","type":"공영","category":"노상","address":"경기도 안양시 동안구 시민대로 230","lat":37.392332,"lng":126.956512,"totalSpaces":34,"isFree":false,"operatingDays":"평일","weekdayOpen":"10:00","weekdayClose":"18:00","weekendOpen":"00:00","weekendClose":"00:00","holidayOpen":"00:00","holidayClose":"00:00","feeInfo":"기본 30분 400원","phone":"031-8045-5255","updatedAt":"2025-12-26","sido":"경기도","sigungu":"안양시","dong":""},{"name":"수리산1노상 주차장","type":"공영","category":"노상","address":"경기도 안양시 만안구 수리산로 31","lat":37.388374,"lng":126.92961,"totalSpaces":32,"isFree":false,"operatingDays":"평일","weekdayOpen":"10:00","weekdayClose":"18:00","weekendOpen":"00:00","weekendClose":"00:00","holidayOpen":"00:00","holidayClose":"00:00","feeInfo":"기본 30분 600원","phone":"031-8045-5255","updatedAt":"2025-12-26","sido":"경기도","sigungu":"안양시","dong":""},{"name":"호계고가밑 주차장","type":"공영","category":"노상","address":"경기도 안양시 동안구 흥안대로 67","lat":37.369056,"lng":126.952098,"totalSpaces":30,"isFree":false,"operatingDays":"평일","weekdayOpen":"10:00","weekdayClose":"18:00","weekendOpen":"00:00","weekendClose":"00:00","holidayOpen":"00:00","holidayClose":"00:00","feeInfo":"기본 30분 400원","phone":"031-8045-5255","updatedAt":"2025-12-26","sido":"경기도","sigungu":"안양시","dong":""},{"name":"안양6동1 노외 주차장","type":"공영","category":"노외","address":"경기도 안양시 만안구 안양로 174","lat":37.389804,"lng":126.92982,"totalSpaces":30,"isFree":false,"operatingDays":"평일","weekdayOpen":"09:00","weekdayClose":"18:00","weekendOpen":"00:00","weekendClose":"00:00","holidayOpen":"00:00","holidayClose":"00:00","feeInfo":"기본 30분 400원","phone":"031-8045-5255","updatedAt":"2025-12-26","sido":"경기도","sigungu":"안양시","dong":""},{"name":"청원노외 주차장","type":"공영","category":"노외","address":"경기도 안양시 만안구 안양로360번길 35","lat":37.404503,"lng":126.919194,"totalSpaces":29,"isFree":false,"operatingDays":"평일+토요일+공휴일","weekdayOpen":"00:00","weekdayClose":"23:59","weekendOpen":"00:00","weekendClose":"23:59","holidayOpen":"00:00","holidayClose":"23:59","feeInfo":"기본 30분 400원","phone":"031-8045-5255","updatedAt":"2025-12-26","sido":"경기도","sigungu":"안양시","dong":""},{"name":"삼봉노상 주차장","type":"공영","category":"노상","address":"경기도 안양시 만안구 박달동 850","lat":37.399188,"lng":126.900075,"totalSpaces":28,"isFree":false,"operatingDays":"평일","weekdayOpen":"09:00","weekdayClose":"18:00","weekendOpen":"00:00","weekendClose":"00:00","holidayOpen":"00:00","holidayClose":"00:00","feeInfo":"기본 30분 400원","phone":"031-8045-5255","updatedAt":"2025-12-26","sido":"경기도","sigungu":"안양시","dong":""},{"name":"관양시장노상 주차장","type":"공영","category":"노상","address":"경기도 안양시 동안구 관평로 324","lat":37.40493,"lng":126.957766,"totalSpaces":27,"isFree":false,"operatingDays":"평일","weekdayOpen":"10:00","weekdayClose":"18:00","weekendOpen":"00:00","weekendClose":"00:00","holidayOpen":"00:00","holidayClose":"00:00","feeInfo":"기본 30분 400원","phone":"031-8045-5255","updatedAt":"2025-12-26","sido":"경기도","sigungu":"안양시","dong":""},{"name":"학원가노상 주차장","type":"공영","category":"노상","address":"경기도 안양시 동안구 귀인로172번길 42","lat":37.382942,"lng":126.959054,"totalSpaces":27,"isFree":false,"operatingDays":"평일+토요일","weekdayOpen":"10:00","weekdayClose":"20:00","weekendOpen":"10:00","weekendClose":"20:00","holidayOpen":"00:00","holidayClose":"00:00","feeInfo":"기본 30분 400원","phone":"031-8045-5255","updatedAt":"2025-12-26","sido":"경기도","sigungu":"안양시","dong":""},{"name":"안양3동노상 주차장","type":"공영","category":"노상","address":"경기도 안양시 만안구 안양로323번길 24","lat":37.399985,"lng":126.91863,"totalSpaces":27,"isFree":false,"operatingDays":"평일+토요일","weekdayOpen":"10:00","weekdayClose":"18:00","weekendOpen":"10:00","weekendClose":"18:00","holidayOpen":"00:00","holidayClose":"00:00","feeInfo":"기본 30분 600원","phone":"031-8045-5255","updatedAt":"2025-12-26","sido":"경기도","sigungu":"안양시","dong":""},{"name":"안양역2노상 주차장","type":"공영","category":"노상","address":"경기도 안양시 만안구 만안로 231","lat":37.396261,"lng":126.920467,"totalSpaces":24,"isFree":false,"operatingDays":"평일+토요일+공휴일","weekdayOpen":"10:00","weekdayClose":"22:00","weekendOpen":"00:00","weekendClose":"22:00","holidayOpen":"10:00","holidayClose":"22:00","feeInfo":"기본 30분 600원","phone":"031-8045-5255","updatedAt":"2025-12-26","sido":"경기도","sigungu":"안양시","dong":""},{"name":"박달시장노외 주차장","type":"공영","category":"노외","address":"경기도 안양시 만안구 양화로 134","lat":37.40459,"lng":126.909477,"totalSpaces":18,"isFree":false,"operatingDays":"평일+토요일","weekdayOpen":"09:00","weekdayClose":"19:00","weekendOpen":"09:00","weekendClose":"19:00","holidayOpen":"00:00","holidayClose":"00:00","feeInfo":"기본 30분 400원","phone":"031-8045-5255","updatedAt":"2025-12-26","sido":"경기도","sigungu":"안양시","dong":""},{"name":"안양6동2 노외 주차장","type":"공영","category":"노외","address":"경기도 안양시 만안구 안양로 186","lat":37.390692,"lng":126.929122,"totalSpaces":15,"isFree":false,"operatingDays":"평일+토요일+공휴일","weekdayOpen":"00:00","weekdayClose":"23:59","weekendOpen":"00:00","weekendClose":"23:59","holidayOpen":"00:00","holidayClose":"23:59","feeInfo":"기본 30분 400원","phone":"031-8045-5255","updatedAt":"2025-12-26","sido":"경기도","sigungu":"안양시","dong":""},{"name":"먹거리촌노외 주차장","type":"공영","category":"노외","address":"경기도 안양시 동안구 평촌대로 102","lat":37.381575,"lng":126.961642,"totalSpaces":12,"isFree":false,"operatingDays":"평일+토요일","weekdayOpen":"10:00","weekdayClose":"21:00","weekendOpen":"10:00","weekendClose":"21:00","holidayOpen":"00:00","holidayClose":"00:00","feeInfo":"기본 30분 400원","phone":"031-8045-5255","updatedAt":"2025-12-26","sido":"경기도","sigungu":"안양시","dong":""},{"name":"박달시장노상 주차장","type":"공영","category":"노상","address":"경기도 안양시 만안구 양화로 134","lat":37.40459,"lng":126.909477,"totalSpaces":10,"isFree":false,"operatingDays":"평일+토요일","weekdayOpen":"09:00","weekdayClose":"19:00","weekendOpen":"09:00","weekendClose":"19:00","holidayOpen":"00:00","holidayClose":"00:00","feeInfo":"기본 30분 400원","phone":"031-8045-5255","updatedAt":"2025-12-26","sido":"경기도","sigungu":"안양시","dong":""}]}