{"sido":"경기도","sigungu":"양주시","totalCount":85,"validCount":85,"items":[{"name":"고읍(4) 공영주차장","type":"공영","category":"노외","address":"경기도 양주시 광사동 711","lat":37.78828469,"lng":127.0804411,"totalSpaces":209,"isFree":true,"operatingDays":"평일+토요일+공휴일","weekdayOpen":"09:00","weekdayClose":"23:59","weekendOpen":"09:00","weekendClose":"23:59","holidayOpen":"09:00","holidayClose":"23:59","feeInfo":"무료","phone":"031-8082-6624","updatedAt":"2025-07-31","sido":"경기도","sigungu":"양주시","dong":"광사동"},{"name":"덕정 교각(1) 임시 공영주차장","type":"공영","category":"노외","address":"경기도 양주시 덕정동 346-2","lat":37.8406605231,"lng":127.0618771599,"totalSpaces":133,"isFree":true,"operatingDays":"평일+토요일+공휴일","weekdayOpen":"09:00","weekdayClose":"23:59","weekendOpen":"09:00","weekendClose":"23:59","holidayOpen":"09:00","holidayClose":"23:59","feeInfo":"무료","phone":"031-8082-6624","updatedAt":"2025-07-31","sido":"경기도","sigungu":"양주시","dong":"덕정동"},{"name":"옥정지구(1) 공영주차장","type":"공영","category":"노외","address":"경기도 양주시 옥정동 975-1","lat":37.83755029,"lng":127.0899336,"totalSpaces":131,"isFree":true,"operatingDays":"평일+토요일+공휴일","weekdayOpen":"09:00","weekdayClose":"23:59","weekendOpen":"09:00","weekendClose":"23:59","holidayOpen":"09:00","holidayClose":"23:59","feeInfo":"무료","phone":"031-8082-6624","updatedAt":"2025-07-31","sido":"경기도","sigungu":"양주시","dong":"옥정동"},{"name":"고읍(5) 공영주차장","type":"공영","category":"노외","address":"경기도 양주시 고읍동 454","lat":37.79925028,"lng":127.0771351,"totalSpaces":120,"isFree":true,"operatingDays":"평일+토요일+공휴일","weekdayOpen":"09:00","weekdayClose":"23:59","weekendOpen":"09:00","weekendClose":"23:59","holidayOpen":"09:00","holidayClose":"23:59","feeInfo":"무료","phone":"031-8082-6624","updatedAt":"2025-07-31","sido":"경기도","sigungu":"양주시","dong":"고읍동"},{"name":"남방4통공영주차장","type":"공영","category":"노외","address":"경기도 양주시 남방동 199-3","lat":37.76690097,"lng":127.0441809,"totalSpaces":78,"isFree":true,"operatingDays":"평일+토요일+공휴일","weekdayOpen":"09:00","weekdayClose":"23:59","weekendOpen":"09:00","weekendClose":"23:59","holidayOpen":"09:00","holidayClose":"23:59","feeInfo":"무료","phone":"031-8082-6624","updatedAt":"2025-07-31","sido":"경기도","sigungu":"양주시","dong":"남방동"},{"name":"광적복개주차장","type":"공영","category":"노외","address":"경기도 양주시 광적면 가납리 702-23","lat":37.82182513,"lng":126.9867859,"totalSpaces":74,"isFree":true,"operatingDays":"평일+토요일+공휴일","weekdayOpen":"09:00","weekdayClose":"23:59","weekendOpen":"09:00","weekendClose":"23:59","holidayOpen":"09:00","holidayClose":"23:59","feeInfo":"무료","phone":"031-8082-6624","updatedAt":"2025-07-31","sido":"경기도","sigungu":"양주시","dong":"광적면"},{"name":"삼육사로노상주차장","type":"공영","category":"노상","address":"경기도 양주시 남면 신산리 산 18-1","lat":37.88978081,"lng":126.9758388,"totalSpaces":62,"isFree":true,"operatingDays":"평일+토요일+공휴일","weekdayOpen":"09:00","weekdayClose":"23:59","weekendOpen":"09:00","weekendClose":"23:59","holidayOpen":"09:00","holidayClose":"23:59","feeInfo":"무료","phone":"031-8082-6624","updatedAt":"2025-07-31","sido":"경기도","sigungu":"양주시","dong":"남면"},{"name":"옥정호수공원 노상주차장","type":"공영","category":"노상","address":"경기도 양주시 옥정동 1040-10","lat":37.8239502412,"lng":127.0983295202,"totalSpaces":43,"isFree":true,"operatingDays":"평일+토요일+공휴일","weekdayOpen":"09:00","weekdayClose":"23:59","weekendOpen":"09:00","weekendClose":"23:59","holidayOpen":"09:00","holidayClose":"23:59","feeInfo":"무료","phone":"031-8082-6624","updatedAt":"2025-07-31","sido":"경기도","sigungu":"양주시","dong":"옥정동"},{"name":"덕정노상주차장","type":"공영","category":"노상","address":"경기도 양주시 덕정동 151-55","lat":37.84238905,"lng":127.0643224,"totalSpaces":39,"isFree":true,"operatingDays":"평일+토요일+공휴일","weekdayOpen":"09:00","weekdayClose":"23:59","weekendOpen":"09:00","weekendClose":"23:59","holidayOpen":"09:00","holidayClose":"23:59","feeInfo":"무료","phone":"031-8082-6624","updatedAt":"2025-07-31","sido":"경기도","sigungu":"양주시","dong":"덕정동"},{"name":"덕정노외주차장","type":"공영","category":"노외","address":"경기도 양주시 덕정동 138-36","lat":37.84453247,"lng":127.0657369,"totalSpaces":35,"isFree":true,"operatingDays":"평일+토요일+공휴일","weekdayOpen":"09:00","weekdayClose":"23:59","weekendOpen":"09:00","weekendClose":"23:59","holidayOpen":"09:00","holidayClose":"23:59","feeInfo":"무료","phone":"031-8082-6624","updatedAt":"2025-07-31","sido":"경기도","sigungu":"양주시","dong":"덕정동"},{"name":"양주시여성보육비젼센터 공영주차장","type":"공영","category":"노외","address":"경기도 양주시 고암동 580-7","lat":37.83492943,"lng":127.073812,"totalSpaces":35,"isFree":true,"operatingDays":"평일+토요일+공휴일","weekdayOpen":"09:00","weekdayClose":"23:59","weekendOpen":"09:00","weekendClose":"23:59","holidayOpen":"09:00","holidayClose":"23:59","feeInfo":"무료","phone":"031-8082-6624","updatedAt":"2025-07-31","sido":"경기도","sigungu":"양주시","dong":"고암동"},{"name":"덕정주공상가공영주차장","type":"공영","category":"노상","address":"경기도 양주시 덕정동 256-1","lat":37.8372577,"lng":127.064005,"totalSpaces":34,"isFree":true,"operatingDays":"평일+토요일+공휴일","weekdayOpen":"09:00","weekdayClose":"23:59","weekendOpen":"09:00","weekendClose":"23:59","holidayOpen":"09:00","holidayClose":"23:59","feeInfo":"무료","phone":"031-828-9797","updatedAt":"2025-07-31","sido":"경기도","sigungu":"양주시","dong":"덕정동"},{"name":"금광아파트 옆 주차장","type":"공영","category":"노외","address":"경기도 양주시 덕계동 424-35","lat":37.81820667,"lng":127.0488859,"totalSpaces":33,"isFree":true,"operatingDays":"평일+토요일+공휴일","weekdayOpen":"09:00","weekdayClose":"23:59","weekendOpen":"09:00","weekendClose":"23:59","holidayOpen":"09:00","holidayClose":"23:59","feeInfo":"무료","phone":"031-8082-6624","updatedAt":"2025-07-31","sido":"경기도","sigungu":"양주시","dong":"덕계동"},{"name":"가석지구공영주차장(2)","type":"공영","category":"노외","address":"경기도 양주시 광적면 가납리 870-5","lat":37.82119856,"lng":126.9865045,"totalSpaces":32,"isFree":true,"operatingDays":"평일+토요일+공휴일","weekdayOpen":"09:00","weekdayClose":"23:59","weekendOpen":"09:00","weekendClose":"23:59","holidayOpen":"09:00","holidayClose":"23:59","feeInfo":"무료","phone":"031-8082-6624","updatedAt":"2025-07-31","sido":"경기도","sigungu":"양주시","dong":"광적면"},{"name":"가석지구공영주차장(3)","type":"공영","category":"노외","address":"경기도 양주시 광적면 가납리 900","lat":37.82027506,"lng":126.9823249,"totalSpaces":30,"isFree":true,"operatingDays":"평일+토요일+공휴일","weekdayOpen":"09:00","weekdayClose":"23:59","weekendOpen":"09:00","weekendClose":"23:59","holidayOpen":"09:00","holidayClose":"23:59","feeInfo":"무료","phone":"031-8082-6624","updatedAt":"2025-07-31","sido":"경기도","sigungu":"양주시","dong":"광적면"},{"name":"가석지구공영주차장(1)","type":"공영","category":"노외","address":"경기도 양주시 광적면 가납리 860","lat":37.8227193,"lng":126.984015,"totalSpaces":28,"isFree":true,"operatingDays":"평일+토요일+공휴일","weekdayOpen":"09:00","weekdayClose":"23:59","weekendOpen":"09:00","weekendClose":"23:59","holidayOpen":"09:00","holidayClose":"23:59","feeInfo":"무료","phone":"031-8082-6624","updatedAt":"2025-07-31","sido":"경기도","sigungu":"양주시","dong":"광적면"},{"name":"고읍(3) 공영주차장","type":"공영","category":"노외","address":"경기도 양주시 광사동 679-2","lat":37.79129711,"lng":127.080442,"totalSpaces":28,"isFree":true,"operatingDays":"평일+토요일+공휴일","weekdayOpen":"09:00","weekdayClose":"23:59","weekendOpen":"09:00","weekendClose":"23:59","holidayOpen":"09:00","holidayClose":"23:59","feeInfo":"무료","phone":"031-8082-6624","updatedAt":"2025-07-31","sido":"경기도","sigungu":"양주시","dong":"광사동"},{"name":"덕정8통노상주차장(2)","type":"공영","category":"노상","address":"경기도 양주시 덕정동 286-43","lat":37.83951822,"lng":127.0633407,"totalSpaces":27,"isFree":true,"operatingDays":"평일+토요일+공휴일","weekdayOpen":"09:00","weekdayClose":"23:59","weekendOpen":"09:00","weekendClose":"23:59","holidayOpen":"09:00","holidayClose":"23:59","feeInfo":"무료","phone":"031-8082-6624","updatedAt":"2025-07-31","sido":"경기도","sigungu":"양주시","dong":"덕정동"},{"name":"덕정지구(2)주차장","type":"공영","category":"노외","address":"경기도 양주시 고암동 588-3","lat":37.83215732,"lng":127.0733234,"totalSpaces":26,"isFree":true,"operatingDays":"평일+토요일+공휴일","weekdayOpen":"09:00","weekdayClose":"23:59","weekendOpen":"09:00","weekendClose":"23:59","holidayOpen":"09:00","holidayClose":"23:59","feeInfo":"무료","phone":"031-8082-6624","updatedAt":"2025-07-31","sido":"경기도","sigungu":"양주시","dong":"고암동"},{"name":"덕정역사공영주차장","type":"공영","category":"노외","address":"경기도 양주시 덕정동 350-271","lat":37.8413611,"lng":127.0620371,"totalSpaces":26,"isFree":true,"operatingDays":"평일+토요일+공휴일","weekdayOpen":"09:00","weekdayClose":"23:59","weekendOpen":"09:00","weekendClose":"23:59","holidayOpen":"09:00","holidayClose":"23:59","feeInfo":"무료","phone":"031-8082-6624","updatedAt":"2025-07-31","sido":"경기도","sigungu":"양주시","dong":"덕정동"},{"name":"고읍지구 공영주차장(광사동)","type":"공영","category":"노외","address":"경기도 양주시 광사동 688","lat":37.78892215,"lng":127.0814186,"totalSpaces":19,"isFree":true,"operatingDays":"평일+토요일+공휴일","weekdayOpen":"09:00","weekdayClose":"23:59","weekendOpen":"09:00","weekendClose":"23:59","holidayOpen":"09:00","holidayClose":"23:59","feeInfo":"무료","phone":"031-8082-6624","updatedAt":"2025-07-31","sido":"경기도","sigungu":"양주시","dong":"광사동"},{"name":"고읍지구 공영주차장(만송동)","type":"공영","category":"노외","address":"경기도 양주시 만송동 689-4","lat":37.79916162,"lng":127.0829477,"totalSpaces":18,"isFree":true,"operatingDays":"평일+토요일+공휴일","weekdayOpen":"09:00","weekdayClose":"23:59","weekendOpen":"09:00","weekendClose":"23:59","holidayOpen":"09:00","holidayClose":"23:59","feeInfo":"무료","phone":"031-8082-6624","updatedAt":"2025-07-31","sido":"경기도","sigungu":"양주시","dong":"만송동"},{"name":"가석지구공영주차장(4)","type":"공영","category":"노외","address":"경기도 양주시 광적면 가납리 910-8","lat":37.81926017,"lng":126.9780208,"totalSpaces":18,"isFree":true,"operatingDays":"평일+토요일+공휴일","weekdayOpen":"09:00","weekdayClose":"23:59","weekendOpen":"09:00","weekendClose":"23:59","holidayOpen":"09:00","holidayClose":"23:59","feeInfo":"무료","phone":"031-8082-6624","updatedAt":"2025-07-31","sido":"경기도","sigungu":"양주시","dong":"광적면"},{"name":"가납공영주차장","type":"공영","category":"노외","address":"경기도 양주시 광적면 삼일로 20","lat":37.82076207,"lng":126.9873475,"totalSpaces":15,"isFree":true,"operatingDays":"평일+토요일+공휴일","weekdayOpen":"09:00","weekdayClose":"23:59","weekendOpen":"09:00","weekendClose":"23:59","holidayOpen":"09:00","holidayClose":"23:59","feeInfo":"무료","phone":"031-8082-6624","updatedAt":"2025-07-31","sido":"경기도","sigungu":"양주시","dong":"광적면"},{"name":"덕정동노상주차장","type":"공영","category":"노상","address":"경기도 양주시 덕정동 135-5","lat":37.84343708,"lng":127.0642274,"totalSpaces":14,"isFree":true,"operatingDays":"평일+토요일+공휴일","weekdayOpen":"09:00","weekdayClose":"23:59","weekendOpen":"09:00","weekendClose":"23:59","holidayOpen":"09:00","holidayClose":"23:59","feeInfo":"무료","phone":"031-8082-6624","updatedAt":"2025-07-31","sido":"경기도","sigungu":"양주시","dong":"덕정동"},{"name":"덕정8통노상주차장(1)","type":"공영","category":"노상","address":"경기도 양주시 덕정동 286-13","lat":37.83849829,"lng":127.0647607,"totalSpaces":14,"isFree":true,"operatingDays":"평일+토요일+공휴일","weekdayOpen":"09:00","weekdayClose":"23:59","weekendOpen":"09:00","weekendClose":"23:59","holidayOpen":"09:00","holidayClose":"23:59","feeInfo":"무료","phone":"031-8082-6624","updatedAt":"2025-07-31","sido":"경기도","sigungu":"양주시","dong":"덕정동"},{"name":"백석읍 방성리 노상주차장","type":"공영","category":"노상","address":"경기도 양주시 백석읍 방성리 888-1","lat":37.8018046372,"lng":127.0009810562,"totalSpaces":9,"isFree":true,"operatingDays":"평일+토요일+공휴일","weekdayOpen":"09:00","weekdayClose":"23:59","weekendOpen":"09:00","weekendClose":"23:59","holidayOpen":"09:00","holidayClose":"23:59","feeInfo":"무료","phone":"031-8082-6624","updatedAt":"2025-07-31","sido":"경기도","sigungu":"양주시","dong":"백석읍"},{"name":"가석지구공영주차장(5)","type":"공영","category":"노외","address":"경기도 양주시 광적면 석우리 724","lat":37.82661788,"lng":126.9821732,"totalSpaces":7,"isFree":true,"operatingDays":"평일+토요일+공휴일","weekdayOpen":"09:00","weekdayClose":"23:59","weekendOpen":"09:00","weekendClose":"23:59","holidayOpen":"09:00","holidayClose":"23:59","feeInfo":"무료","phone":"031-8082-6624","updatedAt":"2025-07-31","sido":"경기도","sigungu":"양주시","dong":"광적면"},{"name":"효순이미선이 추모공원 노상주차장","type":"공영","category":"노상","address":"경기도 양주시 광적면 효촌리 산 37-1","lat":37.85759605,"lng":126.947711,"totalSpaces":6,"isFree":true,"operatingDays":"평일+토요일+공휴일","weekdayOpen":"09:00","weekdayClose":"23:59","weekendOpen":"09:00","weekendClose":"23:59","holidayOpen":"09:00","holidayClose":"23:59","feeInfo":"무료","phone":"031-8082-6624","updatedAt":"2025-07-31","sido":"경기도","sigungu":"양주시","dong":"광적면"},{"name":"메가시티 상가","type":"민영","category":"노외","address":"경기도 양주시 고읍남로 23","lat":37.79400986,"lng":127.0795064,"totalSpaces":202,"isFree":false,"operatingDays":"평일+토요일+공휴일","weekdayOpen":"09:00","weekdayClose":"23:59","weekendOpen":"09:00","weekendClose":"23:59","holidayOpen":"09:00","holidayClose":"23:59","feeInfo":"기본 30분 600원 / 추가 10분당 200원","phone":"031-842-0442","updatedAt":"2025-07-31","sido":"경기도","sigungu":"양주시","dong":"광사동"},{"name":"송추2교 하부 공공주차장","type":"민영","category":"노외","address":"경기도 양주시 장흥면 울대리 418-3","lat":37.71612898,"lng":126.978424,"totalSpaces":202,"isFree":false,"operatingDays":"평일+토요일+공휴일","weekdayOpen":"09:00","weekdayClose":"23:59","weekendOpen":"09:00","weekendClose":"23:59","holidayOpen":"09:00","holidayClose":"23:59","feeInfo":"기본 30분 600원 / 추가 10분당 200원","phone":"031-828-8000","updatedAt":"2025-07-31","sido":"경기도","sigungu":"양주시","dong":"장흥면"},{"name":"폴리타워","type":"민영","category":"노외","address":"경기도 양주시 옥정동로7다길 12-13","lat":37.81928059,"lng":127.0933904,"totalSpaces":202,"isFree":false,"operatingDays":"평일+토요일+공휴일","weekdayOpen":"09:00","weekdayClose":"23:59","weekendOpen":"09:00","weekendClose":"23:59","holidayOpen":"09:00","holidayClose":"23:59","feeInfo":"기본 30분 600원 / 추가 10분당 200원","phone":"031-8082-6624","updatedAt":"2025-07-31","sido":"경기도","sigungu":"양주시","dong":"옥정동"},{"name":"드림타워1","type":"민영","category":"노외","address":"경기도 양주시 옥정동로7나길 18","lat":37.82086645,"lng":127.0933878,"totalSpaces":170,"isFree":false,"operatingDays":"평일+토요일+공휴일","weekdayOpen":"09:00","weekdayClose":"23:59","weekendOpen":"09:00","weekendClose":"23:59","holidayOpen":"09:00","holidayClose":"23:59","feeInfo":"기본 30분 600원 / 추가 10분당 200원","phone":"031-8082-6624","updatedAt":"2025-07-31","sido":"경기도","sigungu":"양주시","dong":"옥정동"},{"name":"드림타워2","type":"민영","category":"노외","address":"경기도 양주시 옥정동로7다길 108","lat":37.821482,"lng":127.0934763043,"totalSpaces":169,"isFree":false,"operatingDays":"평일+토요일+공휴일","weekdayOpen":"09:00","weekdayClose":"23:59","weekendOpen":"09:00","weekendClose":"23:59","holidayOpen":"09:00","holidayClose":"23:59","feeInfo":"기본 30분 600원 / 추가 10분당 200원","phone":"031-8082-6624","updatedAt":"2025-07-31","sido":"경기도","sigungu":"양주시","dong":"옥정동"},{"name":"장흥허브테마공원","type":"민영","category":"노외","address":"경기도 양주시 장흥면 울대리 416-7","lat":37.71515365,"lng":126.9807511,"totalSpaces":156,"isFree":false,"operatingDays":"평일+토요일+공휴일","weekdayOpen":"09:00","weekdayClose":"23:59","weekendOpen":"09:00","weekendClose":"23:59","holidayOpen":"09:00","holidayClose":"23:59","feeInfo":"기본 30분 600원 / 추가 10분당 200원","phone":"031-871-8202","updatedAt":"2025-07-31","sido":"경기도","sigungu":"양주시","dong":"장흥면"},{"name":"마장호수 공영주차장","type":"공영","category":"노외","address":"경기도 양주시 백석읍 기산리 390-9","lat":37.7772523741,"lng":126.9350312338,"totalSpaces":149,"isFree":false,"operatingDays":"평일+토요일+공휴일","weekdayOpen":"09:00","weekdayClose":"23:59","weekendOpen":"09:00","weekendClose":"23:59","holidayOpen":"09:00","holidayClose":"23:59","feeInfo":"기본 30분 600원 / 추가 10분당 200원","phone":"031-828-9797","updatedAt":"2025-07-31","sido":"경기도","sigungu":"양주시","dong":"백석읍"},{"name":"고읍저류지 공영주차장","type":"공영","category":"노외","address":"경기도 양주시 부흥로 1920","lat":37.7935908693,"lng":127.0768537726,"totalSpaces":145,"isFree":false,"operatingDays":"평일+토요일+공휴일","weekdayOpen":"09:00","weekdayClose":"23:59","weekendOpen":"09:00","weekendClose":"23:59","holidayOpen":"09:00","holidayClose":"23:59","feeInfo":"기본 30분 600원 / 추가 10분당 200원","phone":"031-828-9797","updatedAt":"2025-07-31","sido":"경기도","sigungu":"양주시","dong":"광사동"},{"name":"덕계공원 공영주차장","type":"공영","category":"노외","address":"경기도 양주시 평화로1435번길 30","lat":37.8211191483,"lng":127.0476930173,"totalSpaces":145,"isFree":false,"operatingDays":"평일+토요일+공휴일","weekdayOpen":"09:00","weekdayClose":"23:59","weekendOpen":"09:00","weekendClose":"23:59","holidayOpen":"09:00","holidayClose":"23:59","feeInfo":"기본 30분 600원 / 추가 10분당 200원","phone":"031-828-9797","updatedAt":"2025-07-31","sido":"경기도","sigungu":"양주시","dong":"덕계동"},{"name":"드림월드빌딩","type":"민영","category":"노외","address":"경기도 양주시 고읍남로 6-9","lat":37.79577415,"lng":127.079724,"totalSpaces":119,"isFree":false,"operatingDays":"평일+토요일+공휴일","weekdayOpen":"09:00","weekdayClose":"23:59","weekendOpen":"09:00","weekendClose":"23:59","holidayOpen":"09:00","holidayClose":"23:59","feeInfo":"기본 30분 600원 / 추가 10분당 200원","phone":"031-821-4011","updatedAt":"2025-07-31","sido":"경기도","sigungu":"양주시","dong":"광사동"},{"name":"장흥관광지 제2주차장(장흥관광지)","type":"공영","category":"노외","address":"경기도 양주시 장흥면 석현리 394","lat":37.73106211,"lng":126.9496205,"totalSpaces":118,"isFree":false,"operatingDays":"평일+토요일+공휴일","weekdayOpen":"09:00","weekdayClose":"23:59","weekendOpen":"09:00","weekendClose":"23:59","holidayOpen":"09:00","holidayClose":"23:59","feeInfo":"기본 0분 0원 / 추가 0분당 0원","phone":"031-828-9797","updatedAt":"2025-07-31","sido":"경기도","sigungu":"양주시","dong":"장흥면"},{"name":"신환승주차장","type":"민영","category":"노외","address":"경기도 양주시 덕정동 350-269","lat":37.84157604,"lng":127.0617067,"totalSpaces":97,"isFree":false,"operatingDays":"평일+토요일+공휴일","weekdayOpen":"09:00","weekdayClose":"23:59","weekendOpen":"09:00","weekendClose":"23:59","holidayOpen":"09:00","holidayClose":"23:59","feeInfo":"기본 30분 600원 / 추가 10분당 200원","phone":"031-8082-6624","updatedAt":"2025-07-31","sido":"경기도","sigungu":"양주시","dong":"덕정동"},{"name":"㈜ 양주메디칼프라자","type":"민영","category":"노외","address":"경기도 양주시 옥정동로 274","lat":37.831438,"lng":127.099047,"totalSpaces":93,"isFree":false,"operatingDays":"평일+토요일+공휴일","weekdayOpen":"09:00","weekdayClose":"23:59","weekendOpen":"09:00","weekendClose":"23:59","holidayOpen":"09:00","holidayClose":"23:59","feeInfo":"기본 30분 600원 / 추가 10분당 200원","phone":"031-8082-6624","updatedAt":"2025-07-31","sido":"경기도","sigungu":"양주시","dong":""},{"name":"덕계역(1) 공영주차장","type":"공영","category":"노외","address":"경기도 양주시 덕계동 942","lat":37.819301,"lng":127.057776,"totalSpaces":90,"isFree":false,"operatingDays":"평일+토요일+공휴일","weekdayOpen":"09:00","weekdayClose":"23:59","weekendOpen":"09:00","weekendClose":"23:59","holidayOpen":"09:00","holidayClose":"23:59","feeInfo":"기본 30분 600원 / 추가 10분당 200원","phone":"031-828-9797","updatedAt":"2025-07-31","sido":"경기도","sigungu":"양주시","dong":"덕계동"},{"name":"덕정역 주차장","type":"민영","category":"노외","address":"경기도 양주시 덕정동 281-4","lat":37.83753317,"lng":127.0640175,"totalSpaces":89,"isFree":false,"operatingDays":"평일+토요일+공휴일","weekdayOpen":"09:00","weekdayClose":"23:59","weekendOpen":"09:00","weekendClose":"23:59","holidayOpen":"09:00","holidayClose":"23:59","feeInfo":"기본 30분 600원 / 추가 10분당 200원","phone":"02-3271-0715","updatedAt":"2025-07-31","sido":"경기도","sigungu":"양주시","dong":"덕정동"},{"name":"덕계역(3)","type":"공영","category":"노외","address":"경기도 양주시 덕계동 930-2","lat":37.8183776624,"lng":127.0548135118,"totalSpaces":78,"isFree":false,"operatingDays":"평일+토요일+공휴일","weekdayOpen":"09:00","weekdayClose":"23:59","weekendOpen":"09:00","weekendClose":"23:59","holidayOpen":"09:00","holidayClose":"23:59","feeInfo":"기본 30분 600원 / 추가 10분당 200원","phone":"031-828-9797","updatedAt":"2025-07-31","sido":"경기도","sigungu":"양주시","dong":"덕계동"},{"name":"장흥관광지 제1주차장(하천변)","type":"공영","category":"노외","address":"경기도 양주시 장흥면 석현리 392-7","lat":37.72995063,"lng":126.949159,"totalSpaces":74,"isFree":false,"operatingDays":"평일+토요일+공휴일","weekdayOpen":"09:00","weekdayClose":"23:59","weekendOpen":"09:00","weekendClose":"23:59","holidayOpen":"09:00","holidayClose":"23:59","feeInfo":"기본 0분 0원 / 추가 0분당 0원","phone":"031-828-9797","updatedAt":"2025-07-31","sido":"경기도","sigungu":"양주시","dong":"장흥면"},{"name":"광적공영주차장","type":"공영","category":"노외","address":"경기도 양주시 광적면 가래비9길 27","lat":37.82382212,"lng":126.9827037,"totalSpaces":74,"isFree":false,"operatingDays":"평일+토요일+공휴일","weekdayOpen":"09:00","weekdayClose":"23:59","weekendOpen":"09:00","weekendClose":"23:59","holidayOpen":"09:00","holidayClose":"23:59","feeInfo":"기본 30분 600원 / 추가 10분당 200원","phone":"031-8082-6624","updatedAt":"2025-07-31","sido":"경기도","sigungu":"양주시","dong":"광적면"},{"name":"기산저수지(2) 공영주차장","type":"공영","category":"노외","address":"경기도 양주시 백석읍 기산리 126-4","lat":37.7751993827,"lng":126.9588197045,"totalSpaces":72,"isFree":false,"operatingDays":"평일+토요일+공휴일","weekdayOpen":"09:00","weekdayClose":"23:59","weekendOpen":"09:00","weekendClose":"23:59","holidayOpen":"09:00","holidayClose":"23:59","feeInfo":"기본 30분 600원 / 추가 10분당 200원","phone":"031-828-9797","updatedAt":"2025-07-31","sido":"경기도","sigungu":"양주시","dong":"백석읍"},{"name":"양주스파월드 주차장","type":"민영","category":"노외","address":"경기도 양주시 덕정동 162-16","lat":37.84064913,"lng":127.0648174,"totalSpaces":63,"isFree":false,"operatingDays":"평일+토요일+공휴일","weekdayOpen":"09:00","weekdayClose":"23:59","weekendOpen":"09:00","weekendClose":"23:59","holidayOpen":"09:00","holidayClose":"23:59","feeInfo":"기본 30분 600원 / 추가 10분당 200원","phone":"031-862-8444","updatedAt":"2025-07-31","sido":"경기도","sigungu":"양주시","dong":"덕정동"},{"name":"두리주차장","type":"민영","category":"노외","address":"경기도 양주시 덕정동 208-9","lat":37.83671525,"lng":127.0680156,"totalSpaces":61,"isFree":false,"operatingDays":"평일+토요일+공휴일","weekdayOpen":"09:00","weekdayClose":"23:59","weekendOpen":"09:00","weekendClose":"23:59","holidayOpen":"09:00","holidayClose":"23:59","feeInfo":"기본 30분 600원 / 추가 10분당 200원","phone":"031-8082-6624","updatedAt":"2025-07-31","sido":"경기도","sigungu":"양주시","dong":"덕정동"},{"name":"회천농협 유료주차장","type":"민영","category":"노외","address":"경기도 양주시 덕정2길 26","lat":37.84297075,"lng":127.0628316,"totalSpaces":58,"isFree":false,"operatingDays":"평일+토요일+공휴일","weekdayOpen":"09:00","weekdayClose":"23:59","weekendOpen":"09:00","weekendClose":"23:59","holidayOpen":"09:00","holidayClose":"23:59","feeInfo":"기본 30분 600원 / 추가 10분당 200원","phone":"031-8082-6624","updatedAt":"2025-07-31","sido":"경기도","sigungu":"양주시","dong":"덕정동"},{"name":"유진빌딩","type":"민영","category":"노외","address":"경기도 양주시 옥정동로3길 34-6","lat":37.815575,"lng":127.096595,"totalSpaces":57,"isFree":false,"operatingDays":"평일+토요일+공휴일","weekdayOpen":"09:00","weekdayClose":"23:59","weekendOpen":"09:00","weekendClose":"23:59","holidayOpen":"09:00","holidayClose":"23:59","feeInfo":"기본 30분 600원 / 추가 10분당 200원","phone":"031-8082-6624","updatedAt":"2025-07-31","sido":"경기도","sigungu":"양주시","dong":"옥정동"},{"name":"덕계역(2) 공영주차장","type":"공영","category":"노외","address":"경기도 양주시 덕계동 932","lat":37.8195382646,"lng":127.0565790197,"totalSpaces":57,"isFree":false,"operatingDays":"평일+토요일+공휴일","weekdayOpen":"09:00","weekdayClose":"23:59","weekendOpen":"09:00","weekendClose":"23:59","holidayOpen":"09:00","holidayClose":"23:59","feeInfo":"기본 30분 600원 / 추가 10분당 200원","phone":"031-828-9797","updatedAt":"2025-07-31","sido":"경기도","sigungu":"양주시","dong":"덕계동"},{"name":"장흥관광지 제4주차장(선비촌)","type":"공영","category":"노외","address":"경기도 양주시 장흥면 석현리 369-3","lat":37.73594394,"lng":126.9513222,"totalSpaces":55,"isFree":false,"operatingDays":"평일+토요일+공휴일","weekdayOpen":"09:00","weekdayClose":"23:59","weekendOpen":"09:00","weekendClose":"23:59","holidayOpen":"09:00","holidayClose":"23:59","feeInfo":"기본 0분 0원 / 추가 0분당 0원","phone":"031-828-9797","updatedAt":"2025-07-31","sido":"경기도","sigungu":"양주시","dong":"장흥면"},{"name":"율정동","type":"민영","category":"노외","address":"경기도 양주시 율정동 67-1","lat":37.81693874,"lng":127.1040223,"totalSpaces":50,"isFree":false,"operatingDays":"평일+토요일+공휴일","weekdayOpen":"09:00","weekdayClose":"23:59","weekendOpen":"09:00","weekendClose":"23:59","holidayOpen":"09:00","holidayClose":"23:59","feeInfo":"기본 30분 600원 / 추가 10분당 200원","phone":"031-8082-6624","updatedAt":"2025-07-31","sido":"경기도","sigungu":"양주시","dong":"율정동"},{"name":"엄상마을 유료주차장","type":"민영","category":"노외","address":"경기도 양주시 고암동 143","lat":37.8313784,"lng":127.0686174,"totalSpaces":47,"isFree":false,"operatingDays":"평일+토요일+공휴일","weekdayOpen":"09:00","weekdayClose":"23:59","weekendOpen":"09:00","weekendClose":"23:59","holidayOpen":"09:00","holidayClose":"23:59","feeInfo":"기본 30분 600원 / 추가 10분당 200원","phone":"","updatedAt":"2025-07-31","sido":"경기도","sigungu":"양주시","dong":"고암동"},{"name":"서연주차장","type":"민영","category":"노외","address":"경기도 양주시 백석읍 복지리 110-1, 110-9, 110-10, 111-2","lat":37.78654451,"lng":126.9912131,"totalSpaces":47,"isFree":false,"operatingDays":"평일+토요일+공휴일","weekdayOpen":"09:00","weekdayClose":"23:59","weekendOpen":"09:00","weekendClose":"23:59","holidayOpen":"09:00","holidayClose":"23:59","feeInfo":"기본 30분 600원 / 추가 10분당 200원","phone":"031-8082-6624","updatedAt":"2025-07-31","sido":"경기도","sigungu":"양주시","dong":"백석읍"},{"name":"기산저수지(1) 공영주차장","type":"공영","category":"노외","address":"경기도 양주시 백석읍 기산리 261-1","lat":37.7774227301,"lng":126.9520382074,"totalSpaces":44,"isFree":false,"operatingDays":"평일+토요일+공휴일","weekdayOpen":"09:00","weekdayClose":"23:59","weekendOpen":"09:00","weekendClose":"23:59","holidayOpen":"09:00","holidayClose":"23:59","feeInfo":"기본 30분 600원 / 추가 10분당 200원","phone":"031-828-9797","updatedAt":"2025-07-31","sido":"경기도","sigungu":"양주시","dong":"백석읍"},{"name":"장흥관광지 제5주차장(아시나요)","type":"공영","category":"노외","address":"경기도 양주시 장흥면 석현리 373-2","lat":37.73575851,"lng":126.950832,"totalSpaces":39,"isFree":false,"operatingDays":"평일+토요일+공휴일","weekdayOpen":"09:00","weekdayClose":"23:59","weekendOpen":"09:00","weekendClose":"23:59","holidayOpen":"09:00","holidayClose":"23:59","feeInfo":"기본 0분 0원 / 추가 0분당 0원","phone":"031-828-9797","updatedAt":"2025-07-31","sido":"경기도","sigungu":"양주시","dong":"장흥면"},{"name":"㈜디지아이","type":"민영","category":"노외","address":"경기도 양주시 옥정동 965-7","lat":37.821074,"lng":127.092801,"totalSpaces":36,"isFree":false,"operatingDays":"평일+토요일+공휴일","weekdayOpen":"09:00","weekdayClose":"23:59","weekendOpen":"09:00","weekendClose":"23:59","holidayOpen":"09:00","holidayClose":"23:59","feeInfo":"기본 30분 600원 / 추가 10분당 200원","phone":"031-8082-6624","updatedAt":"2025-07-31","sido":"경기도","sigungu":"양주시","dong":"옥정동"},{"name":"옥정(2) 공영주차장","type":"공영","category":"노외","address":"경기도 양주시 옥정동 1040-1","lat":37.825794,"lng":127.0980524,"totalSpaces":34,"isFree":false,"operatingDays":"평일+토요일+공휴일","weekdayOpen":"09:00","weekdayClose":"23:59","weekendOpen":"09:00","weekendClose":"23:59","holidayOpen":"09:00","holidayClose":"23:59","feeInfo":"기본 30분 600원 / 추가 10분당 200원","phone":"031-8082-6624","updatedAt":"2025-07-31","sido":"경기도","sigungu":"양주시","dong":"옥정동"},{"name":"가납주차장","type":"민영","category":"노외","address":"경기도 양주시 광적면 가납리 562","lat":37.80674709,"lng":126.9909616,"totalSpaces":33,"isFree":false,"operatingDays":"평일+토요일+공휴일","weekdayOpen":"09:00","weekdayClose":"23:59","weekendOpen":"09:00","weekendClose":"23:59","holidayOpen":"09:00","holidayClose":"23:59","feeInfo":"기본 30분 600원 / 추가 10분당 200원","phone":"031-8082-6624","updatedAt":"2025-07-31","sido":"경기도","sigungu":"양주시","dong":"광적면"},{"name":"방성리","type":"민영","category":"노외","address":"경기도 양주시 백석읍 방성리 158-3","lat":37.8032395,"lng":126.9989296,"totalSpaces":30,"isFree":false,"operatingDays":"평일+토요일+공휴일","weekdayOpen":"09:00","weekdayClose":"23:59","weekendOpen":"09:00","weekendClose":"23:59","holidayOpen":"09:00","holidayClose":"23:59","feeInfo":"기본 30분 600원 / 추가 10분당 200원","phone":"031-566-2264","updatedAt":"2025-07-31","sido":"경기도","sigungu":"양주시","dong":"백석읍"},{"name":"서울주차장","type":"민영","category":"노외","address":"경기도 양주시 장흥면 부곡리 540-20","lat":37.71922861,"lng":126.9751393,"totalSpaces":30,"isFree":false,"operatingDays":"평일+토요일+공휴일","weekdayOpen":"09:00","weekdayClose":"23:59","weekendOpen":"09:00","weekendClose":"23:59","holidayOpen":"09:00","holidayClose":"23:59","feeInfo":"기본 30분 600원 / 추가 10분당 200원","phone":"031-826-4108","updatedAt":"2025-07-31","sido":"경기도","sigungu":"양주시","dong":"장흥면"},{"name":"회천농협주차장","type":"민영","category":"노외","address":"경기도 양주시 덕정2길 26","lat":37.84297075,"lng":127.0628316,"totalSpaces":30,"isFree":false,"operatingDays":"평일+토요일+공휴일","weekdayOpen":"09:00","weekdayClose":"23:59","weekendOpen":"09:00","weekendClose":"23:59","holidayOpen":"09:00","holidayClose":"23:59","feeInfo":"기본 30분 600원 / 추가 10분당 200원","phone":"031-858-9101","updatedAt":"2025-07-31","sido":"경기도","sigungu":"양주시","dong":"덕정동"},{"name":"덕계동주차장","type":"민영","category":"노외","address":"경기도 양주시 덕계동 462-8","lat":37.8194375,"lng":127.0474945,"totalSpaces":29,"isFree":false,"operatingDays":"평일+토요일+공휴일","weekdayOpen":"09:00","weekdayClose":"23:59","weekendOpen":"09:00","weekendClose":"23:59","holidayOpen":"09:00","holidayClose":"23:59","feeInfo":"기본 30분 600원 / 추가 10분당 200원","phone":"031-8082-6624","updatedAt":"2025-07-31","sido":"경기도","sigungu":"양주시","dong":"덕계동"},{"name":"가납리주차장","type":"민영","category":"노외","address":"경기도 양주시 광적면 가납리 741-5","lat":37.8236869,"lng":126.9855425,"totalSpaces":29,"isFree":false,"operatingDays":"평일+토요일+공휴일","weekdayOpen":"09:00","weekdayClose":"23:59","weekendOpen":"09:00","weekendClose":"23:59","holidayOpen":"09:00","holidayClose":"23:59","feeInfo":"기본 30분 600원 / 추가 10분당 200원","phone":"031-8082-6624","updatedAt":"2025-07-31","sido":"경기도","sigungu":"양주시","dong":"광적면"},{"name":"오케이주차타워","type":"민영","category":"노외","address":"경기도 양주시 옥정동로5길 6","lat":37.8164902,"lng":127.09873,"totalSpaces":28,"isFree":false,"operatingDays":"평일+토요일+공휴일","weekdayOpen":"09:00","weekdayClose":"23:59","weekendOpen":"09:00","weekendClose":"23:59","holidayOpen":"09:00","holidayClose":"23:59","feeInfo":"기본 30분 600원 / 추가 10분당 200원","phone":"031-8082-6624","updatedAt":"2025-07-31","sido":"경기도","sigungu":"양주시","dong":"옥정동"},{"name":"회천종합물류","type":"민영","category":"노외","address":"경기도 양주시 덕정동 276-2,12","lat":37.83572982,"lng":127.0626233,"totalSpaces":26,"isFree":false,"operatingDays":"평일+토요일+공휴일","weekdayOpen":"09:00","weekdayClose":"23:59","weekendOpen":"09:00","weekendClose":"23:59","holidayOpen":"09:00","holidayClose":"23:59","feeInfo":"기본 30분 600원 / 추가 10분당 200원","phone":"031-863-1234","updatedAt":"2025-07-31","sido":"경기도","sigungu":"양주시","dong":"덕정동"},{"name":"화물자동차 공영주차장","type":"공영","category":"노외","address":"경기도 양주시 덕정동 480-1","lat":37.85467455,"lng":127.0610092,"totalSpaces":26,"isFree":false,"operatingDays":"평일+토요일+공휴일","weekdayOpen":"09:00","weekdayClose":"23:59","weekendOpen":"09:00","weekendClose":"23:59","holidayOpen":"09:00","holidayClose":"23:59","feeInfo":"기본 30분 600원 / 추가 10분당 200원","phone":"031-828-9797","updatedAt":"2025-07-31","sido":"경기도","sigungu":"양주시","dong":"덕정동"},{"name":"옥정(3) 공영주차장","type":"공영","category":"노외","address":"경기도 양주시 옥정동 1041-7","lat":37.822238,"lng":127.0990697364,"totalSpaces":25,"isFree":false,"operatingDays":"평일+토요일+공휴일","weekdayOpen":"09:00","weekdayClose":"23:59","weekendOpen":"09:00","weekendClose":"23:59","holidayOpen":"09:00","holidayClose":"23:59","feeInfo":"기본 30분 600원 / 추가 10분당 200원","phone":"031-8082-6624","updatedAt":"2025-07-31","sido":"경기도","sigungu":"양주시","dong":"옥정동"},{"name":"봉양동주차장","type":"민영","category":"노외","address":"경기도 양주시 봉양동 894-1","lat":37.86129282,"lng":127.060939,"totalSpaces":24,"isFree":false,"operatingDays":"평일+토요일+공휴일","weekdayOpen":"09:00","weekdayClose":"23:59","weekendOpen":"09:00","weekendClose":"23:59","holidayOpen":"09:00","holidayClose":"23:59","feeInfo":"기본 30분 600원 / 추가 10분당 200원","phone":"031-8082-6624","updatedAt":"2025-07-31","sido":"경기도","sigungu":"양주시","dong":"봉양동"},{"name":"장흥면","type":"민영","category":"노외","address":"경기도 양주시 장흥면 울대리 423-3","lat":37.71707034,"lng":126.9778108,"totalSpaces":24,"isFree":false,"operatingDays":"평일+토요일+공휴일","weekdayOpen":"09:00","weekdayClose":"23:59","weekendOpen":"09:00","weekendClose":"23:59","holidayOpen":"09:00","holidayClose":"23:59","feeInfo":"기본 30분 600원 / 추가 10분당 200원","phone":"031-8082-6624","updatedAt":"2025-07-31","sido":"경기도","sigungu":"양주시","dong":"장흥면"},{"name":"붕붕주차장","type":"민영","category":"노외","address":"경기도 양주시 어둔동 267-6,8","lat":37.78047078,"lng":127.0135435,"totalSpaces":20,"isFree":false,"operatingDays":"평일+토요일+공휴일","weekdayOpen":"09:00","weekdayClose":"23:59","weekendOpen":"09:00","weekendClose":"23:59","holidayOpen":"09:00","holidayClose":"23:59","feeInfo":"기본 30분 600원 / 추가 10분당 200원","phone":"031-8082-6624","updatedAt":"2025-07-31","sido":"경기도","sigungu":"양주시","dong":"어둔동"},{"name":"장흥관광지(노상)","type":"공영","category":"노상","address":"경기도 양주시 장흥면 석현리 369-10","lat":37.73641716,"lng":126.9513804,"totalSpaces":20,"isFree":false,"operatingDays":"평일+토요일+공휴일","weekdayOpen":"09:00","weekdayClose":"23:59","weekendOpen":"09:00","weekendClose":"23:59","holidayOpen":"09:00","holidayClose":"23:59","feeInfo":"기본 0분 0원 / 추가 0분당 0원","phone":"031-828-9797","updatedAt":"2025-07-31","sido":"경기도","sigungu":"양주시","dong":"장흥면"},{"name":"신세대관광","type":"민영","category":"노외","address":"경기도 양주시 덕정동 350-30, 350-264","lat":37.84297075,"lng":127.0628316,"totalSpaces":18,"isFree":false,"operatingDays":"평일+토요일+공휴일","weekdayOpen":"09:00","weekdayClose":"23:59","weekendOpen":"09:00","weekendClose":"23:59","holidayOpen":"09:00","holidayClose":"23:59","feeInfo":"기본 30분 600원 / 추가 10분당 200원","phone":"031-8082-6624","updatedAt":"2025-07-31","sido":"경기도","sigungu":"양주시","dong":"덕정동"},{"name":"회정동","type":"민영","category":"노외","address":"경기도 양주시 회정동 454-23","lat":37.83228935,"lng":127.0527888,"totalSpaces":18,"isFree":false,"operatingDays":"평일+토요일+공휴일","weekdayOpen":"09:00","weekdayClose":"23:59","weekendOpen":"09:00","weekendClose":"23:59","holidayOpen":"09:00","holidayClose":"23:59","feeInfo":"기본 30분 600원 / 추가 10분당 200원","phone":"031-8082-6624","updatedAt":"2025-07-31","sido":"경기도","sigungu":"양주시","dong":"회정동"},{"name":"장흥관광지 제3주차장(효편의점)","type":"공영","category":"노외","address":"경기도 양주시 장흥면 석현리 394-15","lat":37.73154868,"lng":126.9494972,"totalSpaces":18,"isFree":false,"operatingDays":"평일+토요일+공휴일","weekdayOpen":"09:00","weekdayClose":"23:59","weekendOpen":"09:00","weekendClose":"23:59","holidayOpen":"09:00","holidayClose":"23:59","feeInfo":"기본 0분 0원 / 추가 0분당 0원","phone":"031-828-9797","updatedAt":"2025-07-31","sido":"경기도","sigungu":"양주시","dong":"장흥면"},{"name":"태정주차장","type":"민영","category":"노외","address":"경기도 양주시 만송동 295","lat":37.79378393,"lng":127.0884571,"totalSpaces":17,"isFree":false,"operatingDays":"평일+토요일+공휴일","weekdayOpen":"09:00","weekdayClose":"23:59","weekendOpen":"09:00","weekendClose":"23:59","holidayOpen":"09:00","holidayClose":"23:59","feeInfo":"기본 30분 600원 / 추가 10분당 200원","phone":"031-8082-6624","updatedAt":"2025-07-31","sido":"경기도","sigungu":"양주시","dong":"만송동"},{"name":"삼성주차장","type":"민영","category":"노외","address":"경기도 양주시 남면 경신리 180-10","lat":37.86078282,"lng":126.9839046,"totalSpaces":12,"isFree":false,"operatingDays":"평일+토요일+공휴일","weekdayOpen":"09:00","weekdayClose":"23:59","weekendOpen":"09:00","weekendClose":"23:59","holidayOpen":"09:00","holidayClose":"23:59","feeInfo":"기본 30분 600원 / 추가 10분당 200원","phone":"031-8082-6624","updatedAt":"2025-07-31","sido":"경기도","sigungu":"양주시","dong":"남면"},{"name":"현대화물로지스 주차장","type":"민영","category":"노외","address":"경기도 양주시 은현면 선암리 226-15","lat":37.86195532,"lng":127.0249236,"totalSpaces":12,"isFree":false,"operatingDays":"평일+토요일+공휴일","weekdayOpen":"09:00","weekdayClose":"23:59","weekendOpen":"09:00","weekendClose":"23:59","holidayOpen":"09:00","holidayClose":"23:59","feeInfo":"기본 30분 600원 / 추가 10분당 200원","phone":"031-8082-6624","updatedAt":"2025-07-31","sido":"경기도","sigungu":"양주시","dong":"은현면"},{"name":"경기화물","type":"민영","category":"노외","address":"경기도 양주시 은현면 운암리 132-8","lat":37.87018427,"lng":127.0165433,"totalSpaces":11,"isFree":false,"operatingDays":"평일+토요일+공휴일","weekdayOpen":"09:00","weekdayClose":"23:59","weekendOpen":"09:00","weekendClose":"23:59","holidayOpen":"09:00","holidayClose":"23:59","feeInfo":"기본 30분 600원 / 추가 10분당 200원","phone":"031-868-2424","updatedAt":"2025-07-31","sido":"경기도","sigungu":"양주시","dong":"은현면"},{"name":"우리주차장","type":"민영","category":"노외","address":"경기도 양주시 광적면 광석리 276","lat":37.82092323,"lng":126.9747509,"totalSpaces":10,"isFree":false,"operatingDays":"평일+토요일+공휴일","weekdayOpen":"09:00","weekdayClose":"23:59","weekendOpen":"09:00","weekendClose":"23:59","holidayOpen":"09:00","holidayClose":"23:59","feeInfo":"기본 30분 600원 / 추가 10분당 200원","phone":"031-8082-6624","updatedAt":"2025-07-31","sido":"경기도","sigungu":"양주시","dong":"광적면"},{"name":"라인물류주차장","type":"민영","category":"노외","address":"경기도 양주시 은현면 도하리 117-2","lat":37.85159601,"lng":127.0153711,"totalSpaces":10,"isFree":false,"operatingDays":"평일+토요일+공휴일","weekdayOpen":"09:00","weekdayClose":"23:59","weekendOpen":"09:00","weekendClose":"23:59","holidayOpen":"09:00","holidayClose":"23:59","feeInfo":"기본 30분 600원 / 추가 10분당 200원","phone":"031-863-7202","updatedAt":"2025-07-31","sido":"경기도","sigungu":"양주시","dong":"은현면"},{"name":"한산리","type":"민영","category":"노외","address":"경기도 양주시 남면 한산리 324-3","lat":37.9107064,"lng":126.9998544,"totalSpaces":10,"isFree":false,"operatingDays":"평일+토요일+공휴일","weekdayOpen":"09:00","weekdayClose":"23:59","weekendOpen":"09:00","weekendClose":"23:59","holidayOpen":"09:00","holidayClose":"23:59","feeInfo":"기본 30분 600원 / 추가 10분당 200원","phone":"031-866-0303","updatedAt":"2025-07-31","sido":"경기도","sigungu":"양주시","dong":"남면"}]}