{"sido":"경기도","sigungu":"연천군","totalCount":10,"validCount":10,"items":[{"name":"연천읍","type":"공영","category":"노상","address":"경기도 연천군 연천읍 차탄리 552-38","lat":38.0946473,"lng":127.0737354,"totalSpaces":286,"isFree":true,"operatingDays":"평일+토요일+공휴일","weekdayOpen":"00:00","weekdayClose":"23:59","weekendOpen":"00:00","weekendClose":"23:59","holidayOpen":"00:00","holidayClose":"23:59","feeInfo":"무료","phone":"031-839-2293","updatedAt":"2025-11-25","sido":"경기도","sigungu":"연천군","dong":"연천읍"},{"name":"(구)학소정 주차장","type":"공영","category":"노외","address":"경기도 연천군 전곡읍 은전로40번길 36-20","lat":38.02499485,"lng":127.0641667,"totalSpaces":117,"isFree":true,"operatingDays":"평일+토요일+공휴일","weekdayOpen":"00:00","weekdayClose":"23:59","weekendOpen":"00:00","weekendClose":"23:59","holidayOpen":"00:00","holidayClose":"23:59","feeInfo":"무료","phone":"031-839-2293","updatedAt":"2025-11-25","sido":"경기도","sigungu":"연천군","dong":"전곡읍"},{"name":"전곡노상공영주차장","type":"공영","category":"노상","address":"경기도 연천군 전곡읍 전곡리 659-4","lat":38.02604945,"lng":127.0678471,"totalSpaces":111,"isFree":true,"operatingDays":"평일+토요일+공휴일","weekdayOpen":"00:00","weekdayClose":"23:59","weekendOpen":"00:00","weekendClose":"23:59","holidayOpen":"00:00","holidayClose":"23:59","feeInfo":"무료","phone":"031-839-2293","updatedAt":"2025-11-25","sido":"경기도","sigungu":"연천군","dong":"전곡읍"},{"name":"전곡역 공영주차장","type":"공영","category":"노외","address":"경기도 연천군 전곡읍 전곡역로 74","lat":38.02425052,"lng":127.0710499,"totalSpaces":69,"isFree":true,"operatingDays":"평일+토요일+공휴일","weekdayOpen":"00:00","weekdayClose":"23:59","weekendOpen":"00:00","weekendClose":"23:59","holidayOpen":"00:00","holidayClose":"23:59","feeInfo":"무료","phone":"031-839-2293","updatedAt":"2025-11-25","sido":"경기도","sigungu":"연천군","dong":"전곡읍"},{"name":"전곡문화체육센터 주차장","type":"공영","category":"노외","address":"경기도 연천군 전곡읍 은대리 572-5","lat":38.02764828,"lng":127.0650982,"totalSpaces":58,"isFree":true,"operatingDays":"평일+토요일+공휴일","weekdayOpen":"00:00","weekdayClose":"23:59","weekendOpen":"00:00","weekendClose":"23:59","holidayOpen":"00:00","holidayClose":"23:59","feeInfo":"무료","phone":"031-839-2293","updatedAt":"2025-11-25","sido":"경기도","sigungu":"연천군","dong":"전곡읍"},{"name":"신서면 고대산 공영주차장","type":"공영","category":"노외","address":"경기도 연천군 신서면 대광리 137-16","lat":38.21225026,"lng":127.1414833,"totalSpaces":41,"isFree":true,"operatingDays":"평일+토요일+공휴일","weekdayOpen":"00:00","weekdayClose":"23:59","weekendOpen":"00:00","weekendClose":"23:59","holidayOpen":"00:00","holidayClose":"23:59","feeInfo":"무료","phone":"031-839-2293","updatedAt":"2025-11-25","sido":"경기도","sigungu":"연천군","dong":"신서면"},{"name":"(구)전곡읍사무소 주차장","type":"공영","category":"노외","address":"경기도 연천군 전곡읍 은대리 517-11","lat":38.03178308,"lng":127.0668,"totalSpaces":36,"isFree":true,"operatingDays":"평일+토요일+공휴일","weekdayOpen":"00:00","weekdayClose":"23:59","weekendOpen":"00:00","weekendClose":"23:59","holidayOpen":"00:00","holidayClose":"23:59","feeInfo":"무료","phone":"031-839-2293","updatedAt":"2025-11-25","sido":"경기도","sigungu":"연천군","dong":"전곡읍"},{"name":"(구)전곡읍민회관공영주차장","type":"공영","category":"노외","address":"경기도 연천군 전곡읍 전곡역로72번길 12","lat":38.02373521,"lng":127.0708536,"totalSpaces":10,"isFree":true,"operatingDays":"평일+토요일+공휴일","weekdayOpen":"00:00","weekdayClose":"23:59","weekendOpen":"00:00","weekendClose":"23:59","holidayOpen":"00:00","holidayClose":"23:59","feeInfo":"무료","phone":"031-839-2293","updatedAt":"2025-11-25","sido":"경기도","sigungu":"연천군","dong":"전곡읍"},{"name":"전곡 전통시장 공영주차장","type":"공영","category":"노외","address":"경기도 연천군 전곡읍 전곡로167번길 12","lat":38.02691167,"lng":127.0672149,"totalSpaces":125,"isFree":false,"operatingDays":"평일","weekdayOpen":"09:00","weekdayClose":"18:00","weekendOpen":"00:00","weekendClose":"00:00","holidayOpen":"00:00","holidayClose":"00:00","feeInfo":"기본 30분 400원 / 추가 10분당 100원","phone":"031-839-2903","updatedAt":"2025-11-25","sido":"경기도","sigungu":"연천군","dong":"전곡읍"},{"name":"전곡재래시장 주차장","type":"공영","category":"노외","address":"경기도 연천군 전곡읍 전곡리 458-6","lat":38.02894262,"lng":127.0680561,"totalSpaces":11,"isFree":false,"operatingDays":"평일","weekdayOpen":"09:00","weekdayClose":"18:00","weekendOpen":"00:00","weekendClose":"00:00","holidayOpen":"00:00","holidayClose":"00:00","feeInfo":"기본 30분 400원 / 추가 10분당 100원","phone":"031-839-2905","updatedAt":"2025-11-25","sido":"경기도","sigungu":"연천군","dong":"전곡읍"}]}