{"sido":"경기도","sigungu":"용인시","totalCount":214,"validCount":212,"items":[{"name":"미르스타디움","type":"공영","category":"부설","address":"경기도 용인시 처인구 동백죽전대로 61","lat":37.24963097,"lng":127.165158,"totalSpaces":972,"isFree":true,"operatingDays":"평일+토요일+공휴일","weekdayOpen":"00:00","weekdayClose":"23:59","weekendOpen":"00:00","weekendClose":"23:59","holidayOpen":"00:00","holidayClose":"23:59","feeInfo":"무료","phone":"","updatedAt":"2025-11-19","sido":"경기도","sigungu":"용인시","dong":""},{"name":"농서동 임시공영","type":"공영","category":"노외","address":"경기도 용인시 기흥구 농서동 427","lat":37.23464799,"lng":127.0716748,"totalSpaces":426,"isFree":true,"operatingDays":"평일+토요일+공휴일","weekdayOpen":"00:00","weekdayClose":"23:59","weekendOpen":"00:00","weekendClose":"23:59","holidayOpen":"00:00","holidayClose":"23:59","feeInfo":"무료","phone":"031-6193-6299","updatedAt":"2025-11-19","sido":"경기도","sigungu":"용인시","dong":""},{"name":"보정2공영","type":"공영","category":"노외","address":"경기도 용인시 기흥구 보정동 1090","lat":37.32121059,"lng":127.1080499,"totalSpaces":245,"isFree":true,"operatingDays":"평일+토요일+공휴일","weekdayOpen":"00:00","weekdayClose":"23:59","weekendOpen":"00:00","weekendClose":"23:59","holidayOpen":"00:00","holidayClose":"23:59","feeInfo":"무료","phone":"031-338-6581","updatedAt":"2025-11-19","sido":"경기도","sigungu":"용인시","dong":""},{"name":"백암시내 임시","type":"공영","category":"노외","address":"경기도 용인시 처인구 백암면 백암리 493-6","lat":37.1635545159,"lng":127.3764236543,"totalSpaces":231,"isFree":true,"operatingDays":"평일+토요일+공휴일","weekdayOpen":"00:00","weekdayClose":"23:59","weekendOpen":"00:00","weekendClose":"23:59","holidayOpen":"00:00","holidayClose":"23:59","feeInfo":"무료","phone":"031-6193-5391","updatedAt":"2025-11-19","sido":"경기도","sigungu":"용인시","dong":""},{"name":"영덕동 임시공영(2)","type":"공영","category":"노외","address":"경기도 용인시 기흥구 영덕동 965, 966","lat":37.2770309,"lng":127.0746317,"totalSpaces":190,"isFree":true,"operatingDays":"평일+토요일+공휴일","weekdayOpen":"00:00","weekdayClose":"23:59","weekendOpen":"00:00","weekendClose":"23:59","holidayOpen":"00:00","holidayClose":"23:59","feeInfo":"무료","phone":"031-6193-6299","updatedAt":"2025-11-19","sido":"경기도","sigungu":"용인시","dong":""},{"name":"기흥레스피아","type":"공영","category":"부설","address":"경기도 용인시 기흥구 하갈로 79","lat":37.25211139,"lng":127.0964578,"totalSpaces":183,"isFree":true,"operatingDays":"평일+토요일+공휴일","weekdayOpen":"00:00","weekdayClose":"23:59","weekendOpen":"00:00","weekendClose":"23:59","holidayOpen":"00:00","holidayClose":"23:59","feeInfo":"무료","phone":"","updatedAt":"2025-11-19","sido":"경기도","sigungu":"용인시","dong":""},{"name":"용인시청 제1공영","type":"공영","category":"노외","address":"경기도 용인시 처인구 삼가동 238-15","lat":37.23933743,"lng":127.1797661,"totalSpaces":180,"isFree":true,"operatingDays":"평일+토요일+공휴일","weekdayOpen":"00:00","weekdayClose":"23:59","weekendOpen":"00:00","weekendClose":"23:59","holidayOpen":"00:00","holidayClose":"23:59","feeInfo":"무료","phone":"031-6196-2166","updatedAt":"2025-11-19","sido":"경기도","sigungu":"용인시","dong":""},{"name":"용인테크노벨리","type":"공영","category":"노상","address":"경기도 용인시 처인구 이동읍 덕성산단2로6번길 29","lat":37.1723107924,"lng":127.2060446418,"totalSpaces":172,"isFree":true,"operatingDays":"평일+토요일+공휴일","weekdayOpen":"00:00","weekdayClose":"23:59","weekendOpen":"00:00","weekendClose":"23:59","holidayOpen":"00:00","holidayClose":"23:59","feeInfo":"무료","phone":"031-6193-5392","updatedAt":"2025-11-19","sido":"경기도","sigungu":"용인시","dong":""},{"name":"외대 진입로","type":"공영","category":"노상","address":"경기도 용인시 처인구 모현읍 왕산리 945-2","lat":37.33674389,"lng":127.2517873,"totalSpaces":168,"isFree":true,"operatingDays":"평일+토요일+공휴일","weekdayOpen":"00:00","weekdayClose":"23:59","weekendOpen":"00:00","weekendClose":"23:59","holidayOpen":"00:00","holidayClose":"23:59","feeInfo":"무료","phone":"031-6193-5392","updatedAt":"2025-11-19","sido":"경기도","sigungu":"용인시","dong":""},{"name":"죽전공영","type":"공영","category":"노외","address":"경기도 용인시 수지구 동천동 232, 죽전동 1124-1","lat":37.33837744,"lng":127.1039128,"totalSpaces":129,"isFree":true,"operatingDays":"평일+토요일+공휴일","weekdayOpen":"00:00","weekdayClose":"23:59","weekendOpen":"00:00","weekendClose":"23:59","holidayOpen":"00:00","holidayClose":"23:59","feeInfo":"무료","phone":"031-6193-8352","updatedAt":"2025-11-19","sido":"경기도","sigungu":"용인시","dong":""},{"name":"용인농촌테마파크","type":"공영","category":"부설","address":"경기도 용인시 처인구 원삼면 농촌파크로 80-1","lat":37.17101661,"lng":127.2971209,"totalSpaces":127,"isFree":true,"operatingDays":"평일+토요일+공휴일","weekdayOpen":"00:00","weekdayClose":"23:59","weekendOpen":"00:00","weekendClose":"23:59","holidayOpen":"00:00","holidayClose":"23:59","feeInfo":"무료","phone":"","updatedAt":"2025-11-19","sido":"경기도","sigungu":"용인시","dong":""},{"name":"보라동 임시공영","type":"공영","category":"노외","address":"경기도 용인시 기흥구 보라동 609-3","lat":37.25131849,"lng":127.1084951,"totalSpaces":120,"isFree":true,"operatingDays":"평일+토요일+공휴일","weekdayOpen":"00:00","weekdayClose":"23:59","weekendOpen":"00:00","weekendClose":"23:59","holidayOpen":"00:00","holidayClose":"23:59","feeInfo":"무료","phone":"031-6193-6299","updatedAt":"2025-11-19","sido":"경기도","sigungu":"용인시","dong":""},{"name":"용인시청 주변","type":"공영","category":"노상","address":"경기도 용인시 처인구 삼가동 559","lat":37.24107743,"lng":127.1754685,"totalSpaces":120,"isFree":true,"operatingDays":"평일+토요일+공휴일","weekdayOpen":"00:00","weekdayClose":"23:59","weekendOpen":"00:00","weekendClose":"23:59","holidayOpen":"00:00","holidayClose":"23:59","feeInfo":"무료","phone":"031-6193-5392","updatedAt":"2025-11-19","sido":"경기도","sigungu":"용인시","dong":""},{"name":"행정타운 주변","type":"공영","category":"노상","address":"경기도 용인시 처인구 중부대로 1199","lat":37.24086733,"lng":127.1779684,"totalSpaces":120,"isFree":true,"operatingDays":"평일+토요일+공휴일","weekdayOpen":"00:00","weekdayClose":"23:59","weekendOpen":"00:00","weekendClose":"23:59","holidayOpen":"00:00","holidayClose":"23:59","feeInfo":"무료","phone":"031-6193-3104","updatedAt":"2025-11-19","sido":"경기도","sigungu":"용인시","dong":""},{"name":"상현도서관","type":"공영","category":"부설","address":"경기도 용인시 수지구 법조로 232","lat":37.29996008,"lng":127.0742891,"totalSpaces":106,"isFree":true,"operatingDays":"평일+토요일+공휴일","weekdayOpen":"00:00","weekdayClose":"23:59","weekendOpen":"00:00","weekendClose":"23:59","holidayOpen":"00:00","holidayClose":"23:59","feeInfo":"무료","phone":"","updatedAt":"2025-11-19","sido":"경기도","sigungu":"용인시","dong":""},{"name":"금호어울림 주변","type":"공영","category":"노상","address":"경기도 용인시 처인구 김량장동 381","lat":37.23597526,"lng":127.1949762,"totalSpaces":105,"isFree":true,"operatingDays":"평일+토요일+공휴일","weekdayOpen":"00:00","weekdayClose":"23:59","weekendOpen":"00:00","weekendClose":"23:59","holidayOpen":"00:00","holidayClose":"23:59","feeInfo":"무료","phone":"031-6193-5392","updatedAt":"2025-11-19","sido":"경기도","sigungu":"용인시","dong":""},{"name":"동천동근린공원","type":"공영","category":"부설","address":"경기도 용인시 수지구 고기로 87","lat":37.34479499,"lng":127.092856,"totalSpaces":103,"isFree":true,"operatingDays":"평일+토요일+공휴일","weekdayOpen":"00:00","weekdayClose":"23:59","weekendOpen":"00:00","weekendClose":"23:59","holidayOpen":"00:00","holidayClose":"23:59","feeInfo":"무료","phone":"","updatedAt":"2025-11-19","sido":"경기도","sigungu":"용인시","dong":""},{"name":"용인시농업기술센터","type":"공영","category":"부설","address":"경기도 용인시 처인구 원삼면 농촌파크로 80","lat":37.17229221,"lng":127.2992797,"totalSpaces":103,"isFree":true,"operatingDays":"평일+토요일+공휴일","weekdayOpen":"00:00","weekdayClose":"23:59","weekendOpen":"00:00","weekendClose":"23:59","holidayOpen":"00:00","holidayClose":"23:59","feeInfo":"무료","phone":"","updatedAt":"2025-11-19","sido":"경기도","sigungu":"용인시","dong":""},{"name":"용인성당 주변","type":"공영","category":"노상","address":"경기도 용인시 처인구 중부대로1440번길 5","lat":37.2322959,"lng":127.2043545,"totalSpaces":96,"isFree":true,"operatingDays":"평일+토요일+공휴일","weekdayOpen":"00:00","weekdayClose":"23:59","weekendOpen":"00:00","weekendClose":"23:59","holidayOpen":"00:00","holidayClose":"23:59","feeInfo":"무료","phone":"031-6193-5392","updatedAt":"2025-11-19","sido":"경기도","sigungu":"용인시","dong":""},{"name":"양지근린공원","type":"공영","category":"부설","address":"경기도 용인시 처인구 양지면 양지리 산 32-6","lat":37.23578482,"lng":127.2873273,"totalSpaces":96,"isFree":true,"operatingDays":"평일+토요일+공휴일","weekdayOpen":"00:00","weekdayClose":"23:59","weekendOpen":"00:00","weekendClose":"23:59","holidayOpen":"00:00","holidayClose":"23:59","feeInfo":"무료","phone":"","updatedAt":"2025-11-19","sido":"경기도","sigungu":"용인시","dong":""},{"name":"남사읍","type":"공영","category":"부설","address":"경기도 용인시 처인구 남사읍 내기로 22","lat":37.11523295,"lng":127.1503514,"totalSpaces":92,"isFree":true,"operatingDays":"평일+토요일+공휴일","weekdayOpen":"00:00","weekdayClose":"23:59","weekendOpen":"00:00","weekendClose":"23:59","holidayOpen":"00:00","holidayClose":"23:59","feeInfo":"무료","phone":"031-6193-5642","updatedAt":"2025-11-19","sido":"경기도","sigungu":"용인시","dong":""},{"name":"기흥도서관","type":"공영","category":"부설","address":"경기도 용인시 기흥구 기흥로116번길 10","lat":37.28617851,"lng":127.1135998,"totalSpaces":91,"isFree":true,"operatingDays":"평일+토요일+공휴일","weekdayOpen":"00:00","weekdayClose":"23:59","weekendOpen":"00:00","weekendClose":"23:59","holidayOpen":"00:00","holidayClose":"23:59","feeInfo":"무료","phone":"","updatedAt":"2025-11-19","sido":"경기도","sigungu":"용인시","dong":""},{"name":"유방공영","type":"공영","category":"노외","address":"경기도 용인시 처인구 유방동 287","lat":37.25977459,"lng":127.2166797,"totalSpaces":88,"isFree":true,"operatingDays":"평일+토요일+공휴일","weekdayOpen":"00:00","weekdayClose":"23:59","weekendOpen":"00:00","weekendClose":"23:59","holidayOpen":"00:00","holidayClose":"23:59","feeInfo":"무료","phone":"031-6193-5392","updatedAt":"2025-11-19","sido":"경기도","sigungu":"용인시","dong":""},{"name":"용인중앙공원","type":"공영","category":"부설","address":"경기도 용인시 처인구 백옥대로1081번길 5-2","lat":37.23170555,"lng":127.2083756,"totalSpaces":86,"isFree":true,"operatingDays":"평일+토요일+공휴일","weekdayOpen":"00:00","weekdayClose":"23:59","weekendOpen":"00:00","weekendClose":"23:59","holidayOpen":"00:00","holidayClose":"23:59","feeInfo":"무료","phone":"","updatedAt":"2025-11-19","sido":"경기도","sigungu":"용인시","dong":""},{"name":"용인시청 제2공영","type":"공영","category":"노외","address":"경기도 용인시 처인구 삼가동 481-4","lat":37.23904357,"lng":127.1769084,"totalSpaces":86,"isFree":true,"operatingDays":"평일+토요일+공휴일","weekdayOpen":"00:00","weekdayClose":"23:59","weekendOpen":"00:00","weekendClose":"23:59","holidayOpen":"00:00","holidayClose":"23:59","feeInfo":"무료","phone":"031-6196-2166","updatedAt":"2025-11-19","sido":"경기도","sigungu":"용인시","dong":""},{"name":"고당로 주변","type":"공영","category":"노상","address":"경기도 용인시 처인구 원삼면 고당리 308-3","lat":37.16453038,"lng":127.3065958,"totalSpaces":85,"isFree":true,"operatingDays":"평일+토요일+공휴일","weekdayOpen":"00:00","weekdayClose":"23:59","weekendOpen":"00:00","weekendClose":"23:59","holidayOpen":"00:00","holidayClose":"23:59","feeInfo":"무료","phone":"031-6193-5392","updatedAt":"2025-11-19","sido":"경기도","sigungu":"용인시","dong":""},{"name":"전대리","type":"공영","category":"노상","address":"경기도 용인시 처인구 포곡읍 전대리 546-53","lat":37.28836619,"lng":127.215436,"totalSpaces":84,"isFree":true,"operatingDays":"평일+토요일+공휴일","weekdayOpen":"00:00","weekdayClose":"23:59","weekendOpen":"00:00","weekendClose":"23:59","holidayOpen":"00:00","holidayClose":"23:59","feeInfo":"무료","phone":"031-6193-5392","updatedAt":"2025-11-19","sido":"경기도","sigungu":"용인시","dong":""},{"name":"백암시내 주변","type":"공영","category":"노상","address":"경기도 용인시 처인구 백암면 백암리 364-5","lat":37.16640426,"lng":127.3742356,"totalSpaces":80,"isFree":true,"operatingDays":"평일+토요일+공휴일","weekdayOpen":"00:00","weekdayClose":"23:59","weekendOpen":"00:00","weekendClose":"23:59","holidayOpen":"00:00","holidayClose":"23:59","feeInfo":"무료","phone":"031-6193-5392","updatedAt":"2025-11-19","sido":"경기도","sigungu":"용인시","dong":""},{"name":"용인고등학교 주변","type":"공영","category":"노상","address":"경기도 용인시 처인구 역북동 484","lat":37.23868637,"lng":127.1911339,"totalSpaces":77,"isFree":true,"operatingDays":"평일+토요일+공휴일","weekdayOpen":"00:00","weekdayClose":"23:59","weekendOpen":"00:00","weekendClose":"23:59","holidayOpen":"00:00","holidayClose":"23:59","feeInfo":"무료","phone":"031-6193-5392","updatedAt":"2025-11-19","sido":"경기도","sigungu":"용인시","dong":""},{"name":"포곡읍","type":"공영","category":"부설","address":"경기도 용인시 처인구 포곡읍 포곡로 258","lat":37.27781781,"lng":127.2308231,"totalSpaces":77,"isFree":true,"operatingDays":"평일+토요일+공휴일","weekdayOpen":"00:00","weekdayClose":"23:59","weekendOpen":"00:00","weekendClose":"23:59","holidayOpen":"00:00","holidayClose":"23:59","feeInfo":"무료","phone":"031-6193-5532","updatedAt":"2025-11-19","sido":"경기도","sigungu":"용인시","dong":""},{"name":"신갈동 임시공영","type":"공영","category":"노외","address":"경기도 용인시 기흥구 신갈동 388-624","lat":37.2778995647,"lng":127.1050744011,"totalSpaces":76,"isFree":true,"operatingDays":"평일+토요일+공휴일","weekdayOpen":"00:00","weekdayClose":"23:59","weekendOpen":"00:00","weekendClose":"23:59","holidayOpen":"00:00","holidayClose":"23:59","feeInfo":"무료","phone":"031-6193-6299","updatedAt":"2025-11-19","sido":"경기도","sigungu":"용인시","dong":""},{"name":"국도 42호선 주변","type":"공영","category":"노상","address":"경기도 용인시 처인구 김량장동 380","lat":37.23395865,"lng":127.1971687,"totalSpaces":75,"isFree":true,"operatingDays":"평일+토요일+공휴일","weekdayOpen":"00:00","weekdayClose":"23:59","weekendOpen":"00:00","weekendClose":"23:59","holidayOpen":"00:00","holidayClose":"23:59","feeInfo":"무료","phone":"031-6193-5392","updatedAt":"2025-11-19","sido":"경기도","sigungu":"용인시","dong":""},{"name":"모현읍","type":"공영","category":"부설","address":"경기도 용인시 처인구 모현읍 독점로 31-6","lat":37.32953302,"lng":127.2423619,"totalSpaces":75,"isFree":true,"operatingDays":"평일+토요일+공휴일","weekdayOpen":"00:00","weekdayClose":"23:59","weekendOpen":"00:00","weekendClose":"23:59","holidayOpen":"00:00","holidayClose":"23:59","feeInfo":"무료","phone":"031-6193-5591","updatedAt":"2025-11-19","sido":"경기도","sigungu":"용인시","dong":""},{"name":"원삼면","type":"공영","category":"부설","address":"경기도 용인시 처인구 원삼면 원양로 64","lat":37.16658943,"lng":127.3132646,"totalSpaces":75,"isFree":true,"operatingDays":"평일+토요일+공휴일","weekdayOpen":"00:00","weekdayClose":"23:59","weekendOpen":"00:00","weekendClose":"23:59","holidayOpen":"00:00","holidayClose":"23:59","feeInfo":"무료","phone":"031-6193-5741","updatedAt":"2025-11-19","sido":"경기도","sigungu":"용인시","dong":""},{"name":"백암주민센터 주변","type":"공영","category":"노상","address":"경기도 용인시 처인구 백암면 백암리 634-5","lat":37.16672028,"lng":127.3747586,"totalSpaces":74,"isFree":true,"operatingDays":"평일+토요일+공휴일","weekdayOpen":"00:00","weekdayClose":"23:59","weekendOpen":"00:00","weekendClose":"23:59","holidayOpen":"00:00","holidayClose":"23:59","feeInfo":"무료","phone":"031-6193-5392","updatedAt":"2025-11-19","sido":"경기도","sigungu":"용인시","dong":""},{"name":"수지체육공원","type":"공영","category":"부설","address":"경기도 용인시 수지구 풍덕천동 35","lat":37.3279001,"lng":127.0971094,"totalSpaces":73,"isFree":true,"operatingDays":"평일+토요일+공휴일","weekdayOpen":"00:00","weekdayClose":"23:59","weekendOpen":"00:00","weekendClose":"23:59","holidayOpen":"00:00","holidayClose":"23:59","feeInfo":"무료","phone":"031-6193-4452","updatedAt":"2025-11-19","sido":"경기도","sigungu":"용인시","dong":""},{"name":"중앙도서관","type":"공영","category":"부설","address":"경기도 용인시 처인구 명지로 27","lat":37.23348159,"lng":127.1904024,"totalSpaces":69,"isFree":true,"operatingDays":"평일+토요일+공휴일","weekdayOpen":"00:00","weekdayClose":"23:59","weekendOpen":"00:00","weekendClose":"23:59","holidayOpen":"00:00","holidayClose":"23:59","feeInfo":"무료","phone":"","updatedAt":"2025-11-19","sido":"경기도","sigungu":"용인시","dong":""},{"name":"지곡천 보라동 공영(1)","type":"공영","category":"노외","address":"경기도 용인시 기흥구 보라동 409-13","lat":37.2544628897,"lng":127.1087915488,"totalSpaces":66,"isFree":true,"operatingDays":"평일+토요일+공휴일","weekdayOpen":"00:00","weekdayClose":"23:59","weekendOpen":"00:00","weekendClose":"23:59","holidayOpen":"00:00","holidayClose":"23:59","feeInfo":"무료","phone":"031-6193-6299","updatedAt":"2025-11-19","sido":"경기도","sigungu":"용인시","dong":""},{"name":"구갈레스피아","type":"공영","category":"부설","address":"경기도 용인시 기흥구 중부대로 640","lat":37.26682449,"lng":127.131244,"totalSpaces":65,"isFree":true,"operatingDays":"평일+토요일+공휴일","weekdayOpen":"00:00","weekdayClose":"23:59","weekendOpen":"00:00","weekendClose":"23:59","holidayOpen":"00:00","holidayClose":"23:59","feeInfo":"무료","phone":"","updatedAt":"2025-11-19","sido":"경기도","sigungu":"용인시","dong":""},{"name":"서수지IC 임시공영","type":"공영","category":"노외","address":"경기도 용인시 수지구 성복동 569-1","lat":37.32356908,"lng":127.0584003,"totalSpaces":64,"isFree":true,"operatingDays":"평일+토요일+공휴일","weekdayOpen":"00:00","weekdayClose":"23:59","weekendOpen":"00:00","weekendClose":"23:59","holidayOpen":"00:00","holidayClose":"23:59","feeInfo":"무료","phone":"031-6193-6299","updatedAt":"2025-11-19","sido":"경기도","sigungu":"용인시","dong":""},{"name":"양지천 노상주차장","type":"공영","category":"노상","address":"경기도 용인시 처인구 마평동 950","lat":37.23511874,"lng":127.2189632,"totalSpaces":62,"isFree":true,"operatingDays":"평일+토요일+공휴일","weekdayOpen":"00:00","weekdayClose":"23:59","weekendOpen":"00:00","weekendClose":"23:59","holidayOpen":"00:00","holidayClose":"23:59","feeInfo":"무료","phone":"031-6193-5392","updatedAt":"2025-11-19","sido":"경기도","sigungu":"용인시","dong":""},{"name":"처인구청 주변","type":"공영","category":"노상","address":"경기도 용인시 처인구 김량장동 383","lat":37.23390285,"lng":127.2022196,"totalSpaces":60,"isFree":true,"operatingDays":"평일+토요일+공휴일","weekdayOpen":"00:00","weekdayClose":"23:59","weekendOpen":"00:00","weekendClose":"23:59","holidayOpen":"00:00","holidayClose":"23:59","feeInfo":"무료","phone":"031-6193-5392","updatedAt":"2025-11-19","sido":"경기도","sigungu":"용인시","dong":""},{"name":"기흥동","type":"공영","category":"부설","address":"경기도 용인시 기흥구 고매로43번길 12-14","lat":37.23152688,"lng":127.1155323,"totalSpaces":58,"isFree":true,"operatingDays":"평일+토요일+공휴일","weekdayOpen":"00:00","weekdayClose":"23:59","weekendOpen":"00:00","weekendClose":"23:59","holidayOpen":"00:00","holidayClose":"23:59","feeInfo":"무료","phone":"031-6193-6671","updatedAt":"2025-11-19","sido":"경기도","sigungu":"용인시","dong":""},{"name":"기흥중학교 주변","type":"공영","category":"노상","address":"경기도 용인시 기흥구 신갈동 82","lat":37.27897365,"lng":127.1066696,"totalSpaces":56,"isFree":true,"operatingDays":"평일+토요일+공휴일","weekdayOpen":"00:00","weekdayClose":"23:59","weekendOpen":"00:00","weekendClose":"23:59","holidayOpen":"00:00","holidayClose":"23:59","feeInfo":"무료","phone":"031-6193-6299","updatedAt":"2025-11-19","sido":"경기도","sigungu":"용인시","dong":""},{"name":"금학천노상주차장","type":"공영","category":"노상","address":"경기도 용인시 처인구 김량장동 224-2","lat":37.23662651,"lng":127.2034895,"totalSpaces":55,"isFree":true,"operatingDays":"평일+토요일+공휴일","weekdayOpen":"00:00","weekdayClose":"23:59","weekendOpen":"00:00","weekendClose":"23:59","holidayOpen":"00:00","holidayClose":"23:59","feeInfo":"무료","phone":"031-6193-5392","updatedAt":"2025-11-19","sido":"경기도","sigungu":"용인시","dong":""},{"name":"산오름근린공원","type":"공영","category":"부설","address":"경기도 용인시 기흥구 동백7로 125","lat":37.27926372,"lng":127.1645326,"totalSpaces":55,"isFree":true,"operatingDays":"평일+토요일+공휴일","weekdayOpen":"00:00","weekdayClose":"23:59","weekendOpen":"00:00","weekendClose":"23:59","holidayOpen":"00:00","holidayClose":"23:59","feeInfo":"무료","phone":"","updatedAt":"2025-11-19","sido":"경기도","sigungu":"용인시","dong":""},{"name":"(구)용인교육청 앞","type":"공영","category":"노상","address":"경기도 용인시 처인구 김량장동 196-6","lat":37.2388321,"lng":127.2034081,"totalSpaces":53,"isFree":true,"operatingDays":"평일+토요일+공휴일","weekdayOpen":"00:00","weekdayClose":"23:59","weekendOpen":"00:00","weekendClose":"23:59","holidayOpen":"00:00","holidayClose":"23:59","feeInfo":"무료","phone":"031-6193-5392","updatedAt":"2025-11-19","sido":"경기도","sigungu":"용인시","dong":""},{"name":"처인성로 주변","type":"공영","category":"노상","address":"경기도 용인시 처인구 남사읍 봉무리 652-1","lat":37.1136358882,"lng":127.1512434,"totalSpaces":53,"isFree":true,"operatingDays":"평일+토요일+공휴일","weekdayOpen":"00:00","weekdayClose":"23:59","weekendOpen":"00:00","weekendClose":"23:59","holidayOpen":"00:00","holidayClose":"23:59","feeInfo":"무료","phone":"031-6193-5392","updatedAt":"2025-11-19","sido":"경기도","sigungu":"용인시","dong":""},{"name":"영덕레스피아","type":"공영","category":"부설","address":"경기도 용인시 기흥구 흥덕1로 43","lat":37.27218535,"lng":127.0669467,"totalSpaces":52,"isFree":true,"operatingDays":"평일+토요일+공휴일","weekdayOpen":"00:00","weekdayClose":"23:59","weekendOpen":"00:00","weekendClose":"23:59","holidayOpen":"00:00","holidayClose":"23:59","feeInfo":"무료","phone":"","updatedAt":"2025-11-19","sido":"경기도","sigungu":"용인시","dong":""},{"name":"지곡천 보라동 공영(2)","type":"공영","category":"노외","address":"경기도 용인시 기흥구 보라동 503-55","lat":37.25473473,"lng":127.1101288,"totalSpaces":51,"isFree":true,"operatingDays":"평일+토요일+공휴일","weekdayOpen":"00:00","weekdayClose":"23:59","weekendOpen":"00:00","weekendClose":"23:59","holidayOpen":"00:00","holidayClose":"23:59","feeInfo":"무료","phone":"031-6193-6299","updatedAt":"2025-11-19","sido":"경기도","sigungu":"용인시","dong":""},{"name":"역북지구 임시","type":"공영","category":"노외","address":"경기도 용인시 처인구 역북동 806","lat":37.23165306,"lng":127.1862325,"totalSpaces":51,"isFree":true,"operatingDays":"평일+토요일+공휴일","weekdayOpen":"00:00","weekdayClose":"23:59","weekendOpen":"00:00","weekendClose":"23:59","holidayOpen":"00:00","holidayClose":"23:59","feeInfo":"무료","phone":"031-6193-5391","updatedAt":"2025-11-19","sido":"경기도","sigungu":"용인시","dong":""},{"name":"죽전도서관","type":"공영","category":"부설","address":"경기도 용인시 수지구 대지로 89","lat":37.33043386,"lng":127.1186264,"totalSpaces":50,"isFree":true,"operatingDays":"평일+토요일+공휴일","weekdayOpen":"00:00","weekdayClose":"23:59","weekendOpen":"00:00","weekendClose":"23:59","holidayOpen":"00:00","holidayClose":"23:59","feeInfo":"무료","phone":"","updatedAt":"2025-11-19","sido":"경기도","sigungu":"용인시","dong":""},{"name":"풍덕천2동","type":"공영","category":"부설","address":"경기도 용인시 수지구 풍덕천로 51","lat":37.31946228,"lng":127.0887777,"totalSpaces":48,"isFree":true,"operatingDays":"평일+토요일+공휴일","weekdayOpen":"00:00","weekdayClose":"23:59","weekendOpen":"00:00","weekendClose":"23:59","holidayOpen":"00:00","holidayClose":"23:59","feeInfo":"무료","phone":"031-6193-8622","updatedAt":"2025-11-19","sido":"경기도","sigungu":"용인시","dong":""},{"name":"문예회관 주변","type":"공영","category":"노상","address":"경기도 용인시 처인구 중부대로1440번길 5","lat":37.2322959,"lng":127.2043545,"totalSpaces":46,"isFree":true,"operatingDays":"평일+토요일+공휴일","weekdayOpen":"00:00","weekdayClose":"23:59","weekendOpen":"00:00","weekendClose":"23:59","holidayOpen":"00:00","holidayClose":"23:59","feeInfo":"무료","phone":"031-6193-5392","updatedAt":"2025-11-19","sido":"경기도","sigungu":"용인시","dong":""},{"name":"신봉동","type":"공영","category":"부설","address":"경기도 용인시 수지구 수지로 215","lat":37.32066575,"lng":127.0836395,"totalSpaces":46,"isFree":true,"operatingDays":"평일+토요일+공휴일","weekdayOpen":"00:00","weekdayClose":"23:59","weekendOpen":"00:00","weekendClose":"23:59","holidayOpen":"00:00","holidayClose":"23:59","feeInfo":"무료","phone":"031-6193-8648","updatedAt":"2025-11-19","sido":"경기도","sigungu":"용인시","dong":""},{"name":"전대리 임시주차장","type":"공영","category":"노외","address":"경기도 용인시 처인구 포곡읍 전대리 546-57","lat":37.28243217,"lng":127.2215491,"totalSpaces":46,"isFree":true,"operatingDays":"평일+토요일+공휴일","weekdayOpen":"00:00","weekdayClose":"23:59","weekendOpen":"00:00","weekendClose":"23:59","holidayOpen":"00:00","holidayClose":"23:59","feeInfo":"무료","phone":"031-6193-5391","updatedAt":"2025-11-19","sido":"경기도","sigungu":"용인시","dong":""},{"name":"유림동","type":"공영","category":"부설","address":"경기도 용인시 처인구 백옥대로 1315","lat":37.25285779,"lng":127.21205,"totalSpaces":45,"isFree":true,"operatingDays":"평일+토요일+공휴일","weekdayOpen":"00:00","weekdayClose":"23:59","weekendOpen":"00:00","weekendClose":"23:59","holidayOpen":"00:00","holidayClose":"23:59","feeInfo":"무료","phone":"031-6193-5952","updatedAt":"2025-11-19","sido":"경기도","sigungu":"용인시","dong":""},{"name":"오성프라자 주변","type":"공영","category":"노상","address":"경기도 용인시 처인구 김량장동 382","lat":37.23595102,"lng":127.202335,"totalSpaces":44,"isFree":true,"operatingDays":"평일+토요일+공휴일","weekdayOpen":"00:00","weekdayClose":"23:59","weekendOpen":"00:00","weekendClose":"23:59","holidayOpen":"00:00","holidayClose":"23:59","feeInfo":"무료","phone":"031-6193-5392","updatedAt":"2025-11-19","sido":"경기도","sigungu":"용인시","dong":""},{"name":"구갈119안전센터 주변","type":"공영","category":"노상","address":"경기도 용인시 기흥구 신구로64번길 5","lat":37.27784711,"lng":127.1101044,"totalSpaces":44,"isFree":true,"operatingDays":"평일+토요일+공휴일","weekdayOpen":"00:00","weekdayClose":"23:59","weekendOpen":"00:00","weekendClose":"23:59","holidayOpen":"00:00","holidayClose":"23:59","feeInfo":"무료","phone":"031-6193-6299","updatedAt":"2025-11-19","sido":"경기도","sigungu":"용인시","dong":""},{"name":"청덕도서관","type":"공영","category":"부설","address":"경기도 용인시 기흥구 구성1로 44","lat":37.2927978,"lng":127.14743,"totalSpaces":44,"isFree":true,"operatingDays":"평일+토요일+공휴일","weekdayOpen":"00:00","weekdayClose":"23:59","weekendOpen":"00:00","weekendClose":"23:59","holidayOpen":"00:00","holidayClose":"23:59","feeInfo":"무료","phone":"","updatedAt":"2025-11-19","sido":"경기도","sigungu":"용인시","dong":""},{"name":"성복동","type":"공영","category":"부설","address":"경기도 용인시 수지구 성복1로 100","lat":37.31648737,"lng":127.0690037,"totalSpaces":44,"isFree":true,"operatingDays":"평일+토요일+공휴일","weekdayOpen":"00:00","weekdayClose":"23:59","weekendOpen":"00:00","weekendClose":"23:59","holidayOpen":"00:00","holidayClose":"23:59","feeInfo":"무료","phone":"031-6193-8762","updatedAt":"2025-11-19","sido":"경기도","sigungu":"용인시","dong":""},{"name":"양지리 공영","type":"공영","category":"노외","address":"경기도 용인시 처인구 양지면 양지리 445-1","lat":37.23458415,"lng":127.2872737,"totalSpaces":44,"isFree":true,"operatingDays":"평일+토요일+공휴일","weekdayOpen":"00:00","weekdayClose":"23:59","weekendOpen":"00:00","weekendClose":"23:59","holidayOpen":"00:00","holidayClose":"23:59","feeInfo":"무료","phone":"031-6193-5392","updatedAt":"2025-11-19","sido":"경기도","sigungu":"용인시","dong":""},{"name":"모현레스피아","type":"공영","category":"부설","address":"경기도 용인시 처인구 모현읍 문현로357번길 107","lat":37.34593218,"lng":127.2480902,"totalSpaces":43,"isFree":true,"operatingDays":"평일+토요일+공휴일","weekdayOpen":"00:00","weekdayClose":"23:59","weekendOpen":"00:00","weekendClose":"23:59","holidayOpen":"00:00","holidayClose":"23:59","feeInfo":"무료","phone":"","updatedAt":"2025-11-19","sido":"경기도","sigungu":"용인시","dong":""},{"name":"동백도서관","type":"공영","category":"부설","address":"경기도 용인시 기흥구 동백3로 80","lat":37.27414594,"lng":127.1580486,"totalSpaces":42,"isFree":true,"operatingDays":"평일+토요일+공휴일","weekdayOpen":"00:00","weekdayClose":"23:59","weekendOpen":"00:00","weekendClose":"23:59","holidayOpen":"00:00","holidayClose":"23:59","feeInfo":"무료","phone":"","updatedAt":"2025-11-19","sido":"경기도","sigungu":"용인시","dong":""},{"name":"만골근린공원","type":"공영","category":"부설","address":"경기도 용인시 기흥구 기흥로116번길 10","lat":37.28617851,"lng":127.1135998,"totalSpaces":42,"isFree":true,"operatingDays":"평일+토요일+공휴일","weekdayOpen":"00:00","weekdayClose":"23:59","weekendOpen":"00:00","weekendClose":"23:59","holidayOpen":"00:00","holidayClose":"23:59","feeInfo":"무료","phone":"","updatedAt":"2025-11-19","sido":"경기도","sigungu":"용인시","dong":""},{"name":"동부동","type":"공영","category":"부설","address":"경기도 용인시 처인구 중부대로 1574","lat":37.23277029,"lng":127.219174,"totalSpaces":42,"isFree":true,"operatingDays":"평일+토요일+공휴일","weekdayOpen":"00:00","weekdayClose":"23:59","weekendOpen":"00:00","weekendClose":"23:59","holidayOpen":"00:00","holidayClose":"23:59","feeInfo":"무료","phone":"031-6193-5981","updatedAt":"2025-11-19","sido":"경기도","sigungu":"용인시","dong":""},{"name":"기흥구 맛깔촌 주변","type":"공영","category":"노상","address":"경기도 용인시 기흥구 갈천로 76","lat":37.27004414,"lng":127.1076186,"totalSpaces":41,"isFree":true,"operatingDays":"평일+토요일+공휴일","weekdayOpen":"00:00","weekdayClose":"23:59","weekendOpen":"00:00","weekendClose":"23:59","holidayOpen":"00:00","holidayClose":"23:59","feeInfo":"무료","phone":"031-6193-6299","updatedAt":"2025-11-19","sido":"경기도","sigungu":"용인시","dong":""},{"name":"신갈중앙어린이공원 주변","type":"공영","category":"노상","address":"경기도 용인시 기흥구 신갈동 82-3","lat":37.27623731,"lng":127.1083549,"totalSpaces":41,"isFree":true,"operatingDays":"평일+토요일+공휴일","weekdayOpen":"00:00","weekdayClose":"23:59","weekendOpen":"00:00","weekendClose":"23:59","holidayOpen":"00:00","holidayClose":"23:59","feeInfo":"무료","phone":"031-6193-6299","updatedAt":"2025-11-19","sido":"경기도","sigungu":"용인시","dong":""},{"name":"동천도서관","type":"공영","category":"부설","address":"경기도 용인시 수지구 수풍로 57-14","lat":37.33014064,"lng":127.0901125,"totalSpaces":40,"isFree":true,"operatingDays":"평일+토요일+공휴일","weekdayOpen":"00:00","weekdayClose":"23:59","weekendOpen":"00:00","weekendClose":"23:59","holidayOpen":"00:00","holidayClose":"23:59","feeInfo":"무료","phone":"","updatedAt":"2025-11-19","sido":"경기도","sigungu":"용인시","dong":""},{"name":"구갈공원 주변","type":"공영","category":"노상","address":"경기도 용인시 기흥구 구갈동 280-3","lat":37.2817303,"lng":127.1128335,"totalSpaces":39,"isFree":true,"operatingDays":"평일+토요일+공휴일","weekdayOpen":"00:00","weekdayClose":"23:59","weekendOpen":"00:00","weekendClose":"23:59","holidayOpen":"00:00","holidayClose":"23:59","feeInfo":"무료","phone":"031-6193-6299","updatedAt":"2025-11-19","sido":"경기도","sigungu":"용인시","dong":""},{"name":"기흥노상","type":"공영","category":"노상","address":"경기도 용인시 기흥구 신갈동 83","lat":37.27272203,"lng":127.1085625,"totalSpaces":39,"isFree":true,"operatingDays":"평일+토요일+공휴일","weekdayOpen":"00:00","weekdayClose":"23:59","weekendOpen":"00:00","weekendClose":"23:59","holidayOpen":"00:00","holidayClose":"23:59","feeInfo":"무료","phone":"031-6193-6299","updatedAt":"2025-11-19","sido":"경기도","sigungu":"용인시","dong":""},{"name":"수지족구장 인근","type":"공영","category":"노상","address":"경기도 용인시 수지구 신봉동 524-6","lat":37.3349522856,"lng":127.0590123787,"totalSpaces":38,"isFree":true,"operatingDays":"평일+토요일+공휴일","weekdayOpen":"00:00","weekdayClose":"23:59","weekendOpen":"00:00","weekendClose":"23:59","holidayOpen":"00:00","holidayClose":"23:59","feeInfo":"무료","phone":"031-6193-8352","updatedAt":"2025-11-19","sido":"경기도","sigungu":"용인시","dong":""},{"name":"지곡동 자투리주차장","type":"공영","category":"노외","address":"경기도 용인시 기흥구 지곡동 656-16","lat":37.2401551665,"lng":127.1345905032,"totalSpaces":36,"isFree":true,"operatingDays":"평일+토요일+공휴일","weekdayOpen":"00:00","weekdayClose":"23:59","weekendOpen":"00:00","weekendClose":"23:59","holidayOpen":"00:00","holidayClose":"23:59","feeInfo":"무료","phone":"031-6193-6299","updatedAt":"2025-11-19","sido":"경기도","sigungu":"용인시","dong":""},{"name":"동백노상","type":"공영","category":"노상","address":"경기도 용인시 기흥구 중동 1058","lat":37.27382034,"lng":127.1508126,"totalSpaces":36,"isFree":true,"operatingDays":"평일+토요일+공휴일","weekdayOpen":"00:00","weekdayClose":"23:59","weekendOpen":"00:00","weekendClose":"23:59","holidayOpen":"00:00","holidayClose":"23:59","feeInfo":"무료","phone":"031-6193-6299","updatedAt":"2025-11-19","sido":"경기도","sigungu":"용인시","dong":""},{"name":"성복배수지 테니스장","type":"공영","category":"부설","address":"경기도 용인시 수지구 성복2로76번길 43","lat":37.31786988,"lng":127.0800496,"totalSpaces":35,"isFree":true,"operatingDays":"평일+토요일+공휴일","weekdayOpen":"00:00","weekdayClose":"23:59","weekendOpen":"00:00","weekendClose":"23:59","holidayOpen":"00:00","holidayClose":"23:59","feeInfo":"무료","phone":"","updatedAt":"2025-11-19","sido":"경기도","sigungu":"용인시","dong":""},{"name":"동천동","type":"공영","category":"부설","address":"경기도 용인시 수지구 신수로783번길 40","lat":37.34186011,"lng":127.099239,"totalSpaces":35,"isFree":true,"operatingDays":"평일+토요일+공휴일","weekdayOpen":"00:00","weekdayClose":"23:59","weekendOpen":"00:00","weekendClose":"23:59","holidayOpen":"00:00","holidayClose":"23:59","feeInfo":"무료","phone":"031-6193-8713","updatedAt":"2025-11-19","sido":"경기도","sigungu":"용인시","dong":""},{"name":"상현1동","type":"공영","category":"부설","address":"경기도 용인시 수지구 상현로 71","lat":37.30462736,"lng":127.0811467,"totalSpaces":35,"isFree":true,"operatingDays":"평일+토요일+공휴일","weekdayOpen":"00:00","weekdayClose":"23:59","weekendOpen":"00:00","weekendClose":"23:59","holidayOpen":"00:00","holidayClose":"23:59","feeInfo":"무료","phone":"031-6193-8722","updatedAt":"2025-11-19","sido":"경기도","sigungu":"용인시","dong":""},{"name":"구성동 주민센터 주변","type":"공영","category":"노상","address":"경기도 용인시 기흥구 언남동 342-26","lat":37.29612697,"lng":127.1187374,"totalSpaces":34,"isFree":true,"operatingDays":"평일+토요일+공휴일","weekdayOpen":"00:00","weekdayClose":"23:59","weekendOpen":"00:00","weekendClose":"23:59","holidayOpen":"00:00","holidayClose":"23:59","feeInfo":"무료","phone":"031-6193-6299","updatedAt":"2025-11-19","sido":"경기도","sigungu":"용인시","dong":""},{"name":"관곡초등학교 주변","type":"공영","category":"노상","address":"경기도 용인시 기흥구 구갈동 279-2","lat":37.2819097,"lng":127.114127,"totalSpaces":33,"isFree":true,"operatingDays":"평일+토요일+공휴일","weekdayOpen":"00:00","weekdayClose":"23:59","weekendOpen":"00:00","weekendClose":"23:59","holidayOpen":"00:00","holidayClose":"23:59","feeInfo":"무료","phone":"031-6193-6299","updatedAt":"2025-11-19","sido":"경기도","sigungu":"용인시","dong":""},{"name":"흥덕도서관","type":"공영","category":"부설","address":"경기도 용인시 기흥구 흥덕중앙로 153","lat":37.27498371,"lng":127.0839269,"totalSpaces":33,"isFree":true,"operatingDays":"평일+토요일+공휴일","weekdayOpen":"00:00","weekdayClose":"23:59","weekendOpen":"00:00","weekendClose":"23:59","holidayOpen":"00:00","holidayClose":"23:59","feeInfo":"무료","phone":"","updatedAt":"2025-11-19","sido":"경기도","sigungu":"용인시","dong":""},{"name":"기흥국민체육센터","type":"공영","category":"부설","address":"경기도 용인시 기흥구 흥덕2로 118번길 2","lat":37.27782133,"lng":127.0745334,"totalSpaces":33,"isFree":true,"operatingDays":"평일+토요일+공휴일","weekdayOpen":"00:00","weekdayClose":"23:59","weekendOpen":"00:00","weekendClose":"23:59","holidayOpen":"00:00","holidayClose":"23:59","feeInfo":"무료","phone":"","updatedAt":"2025-11-19","sido":"경기도","sigungu":"용인시","dong":""},{"name":"백암면","type":"공영","category":"부설","address":"경기도 용인시 처인구 백암면 백암로 191-1","lat":37.16384072,"lng":127.3751111,"totalSpaces":33,"isFree":true,"operatingDays":"평일+토요일+공휴일","weekdayOpen":"00:00","weekdayClose":"23:59","weekendOpen":"00:00","weekendClose":"23:59","holidayOpen":"00:00","holidayClose":"23:59","feeInfo":"무료","phone":"031-6193-5791","updatedAt":"2025-11-19","sido":"경기도","sigungu":"용인시","dong":""},{"name":"보라도서관","type":"공영","category":"부설","address":"경기도 용인시 기흥구 한보라2로 116","lat":37.24841567,"lng":127.1090237,"totalSpaces":32,"isFree":true,"operatingDays":"평일+토요일+공휴일","weekdayOpen":"00:00","weekdayClose":"23:59","weekendOpen":"00:00","weekendClose":"23:59","holidayOpen":"00:00","holidayClose":"23:59","feeInfo":"무료","phone":"","updatedAt":"2025-11-19","sido":"경기도","sigungu":"용인시","dong":""},{"name":"상하동","type":"공영","category":"부설","address":"경기도 용인시 기흥구 어정로 62-23","lat":37.27051314,"lng":127.1383972,"totalSpaces":32,"isFree":true,"operatingDays":"평일+토요일+공휴일","weekdayOpen":"00:00","weekdayClose":"23:59","weekendOpen":"00:00","weekendClose":"23:59","holidayOpen":"00:00","holidayClose":"23:59","feeInfo":"무료","phone":"031-6193-6782","updatedAt":"2025-11-19","sido":"경기도","sigungu":"용인시","dong":""},{"name":"왕산1리 마을회관 주변","type":"공영","category":"노상","address":"경기도 용인시 처인구 모현읍 왕산리 463-1","lat":37.3319149631,"lng":127.2487917062,"totalSpaces":31,"isFree":true,"operatingDays":"평일+토요일+공휴일","weekdayOpen":"00:00","weekdayClose":"23:59","weekendOpen":"00:00","weekendClose":"23:59","holidayOpen":"00:00","holidayClose":"23:59","feeInfo":"무료","phone":"031-6193-5392","updatedAt":"2025-11-19","sido":"경기도","sigungu":"용인시","dong":""},{"name":"행정타운 자투리주차장","type":"공영","category":"노외","address":"경기도 용인시 처인구 삼가동 557-3","lat":37.24321702,"lng":127.1803623,"totalSpaces":30,"isFree":true,"operatingDays":"평일+토요일+공휴일","weekdayOpen":"00:00","weekdayClose":"23:59","weekendOpen":"00:00","weekendClose":"23:59","holidayOpen":"00:00","holidayClose":"23:59","feeInfo":"무료","phone":"031-6193-5391","updatedAt":"2025-11-19","sido":"경기도","sigungu":"용인시","dong":""},{"name":"구갈동 자투리주차장(2)","type":"공영","category":"노외","address":"경기도 용인시 기흥구 구갈동 652","lat":37.2677921312,"lng":127.1329506876,"totalSpaces":29,"isFree":true,"operatingDays":"평일+토요일+공휴일","weekdayOpen":"00:00","weekdayClose":"23:59","weekendOpen":"00:00","weekendClose":"23:59","holidayOpen":"00:00","holidayClose":"23:59","feeInfo":"무료","phone":"031-6193-6299","updatedAt":"2025-11-19","sido":"경기도","sigungu":"용인시","dong":""},{"name":"상갈마을 제1공영","type":"공영","category":"노외","address":"경기도 용인시 기흥구 상갈동 100-5, 100-8","lat":37.26955748,"lng":127.1064325,"totalSpaces":29,"isFree":true,"operatingDays":"평일+토요일+공휴일","weekdayOpen":"00:00","weekdayClose":"23:59","weekendOpen":"00:00","weekendClose":"23:59","holidayOpen":"00:00","holidayClose":"23:59","feeInfo":"무료","phone":"031-6193-6299","updatedAt":"2025-11-19","sido":"경기도","sigungu":"용인시","dong":""},{"name":"청덕동 공영","type":"공영","category":"노외","address":"경기도 용인시 기흥구 청덕동 547-2","lat":37.29170451,"lng":127.1458104,"totalSpaces":29,"isFree":true,"operatingDays":"평일+토요일+공휴일","weekdayOpen":"00:00","weekdayClose":"23:59","weekendOpen":"00:00","weekendClose":"23:59","holidayOpen":"00:00","holidayClose":"23:59","feeInfo":"무료","phone":"031-6193-6299","updatedAt":"2025-11-19","sido":"경기도","sigungu":"용인시","dong":""},{"name":"모현삼거리 주변","type":"공영","category":"노상","address":"경기도 용인시 처인구 모현읍 왕산리 571-2","lat":37.3444292442,"lng":127.2522510351,"totalSpaces":28,"isFree":true,"operatingDays":"평일+토요일+공휴일","weekdayOpen":"00:00","weekdayClose":"23:59","weekendOpen":"00:00","weekendClose":"23:59","holidayOpen":"00:00","holidayClose":"23:59","feeInfo":"무료","phone":"031-6193-5392","updatedAt":"2025-11-19","sido":"경기도","sigungu":"용인시","dong":""},{"name":"수원교회 인근","type":"공영","category":"노상","address":"경기도 용인시 기흥구 영덕동 1180","lat":37.27004898,"lng":127.0815121,"totalSpaces":27,"isFree":true,"operatingDays":"평일+토요일+공휴일","weekdayOpen":"00:00","weekdayClose":"23:59","weekendOpen":"00:00","weekendClose":"23:59","holidayOpen":"00:00","holidayClose":"23:59","feeInfo":"무료","phone":"031-6193-6299","updatedAt":"2025-11-19","sido":"경기도","sigungu":"용인시","dong":""},{"name":"남사도서관","type":"공영","category":"부설","address":"경기도 용인시 처인구 남사읍 한숲로 61","lat":37.15437919,"lng":127.1698962,"totalSpaces":27,"isFree":true,"operatingDays":"평일+토요일+공휴일","weekdayOpen":"00:00","weekdayClose":"23:59","weekendOpen":"00:00","weekendClose":"23:59","holidayOpen":"00:00","holidayClose":"23:59","feeInfo":"무료","phone":"","updatedAt":"2025-11-19","sido":"경기도","sigungu":"용인시","dong":""},{"name":"마평동 공영(3)","type":"공영","category":"노외","address":"경기도 용인시 처인구 마평동 663-23","lat":37.23651098,"lng":127.2124319,"totalSpaces":27,"isFree":true,"operatingDays":"평일+토요일+공휴일","weekdayOpen":"00:00","weekdayClose":"23:59","weekendOpen":"00:00","weekendClose":"23:59","holidayOpen":"00:00","holidayClose":"23:59","feeInfo":"무료","phone":"031-6193-5392","updatedAt":"2025-11-19","sido":"경기도","sigungu":"용인시","dong":""},{"name":"영덕동 공영","type":"공영","category":"노외","address":"경기도 용인시 기흥구 영덕동 937-1","lat":37.2677109,"lng":127.0754749,"totalSpaces":26,"isFree":true,"operatingDays":"평일+토요일+공휴일","weekdayOpen":"00:00","weekdayClose":"23:59","weekendOpen":"00:00","weekendClose":"23:59","holidayOpen":"00:00","holidayClose":"23:59","feeInfo":"무료","phone":"031-6193-6299","updatedAt":"2025-11-19","sido":"경기도","sigungu":"용인시","dong":""},{"name":"상갈동 임시공영","type":"공영","category":"노외","address":"경기도 용인시 기흥구 상갈동 294-4","lat":37.2673864509,"lng":127.101859145,"totalSpaces":26,"isFree":true,"operatingDays":"평일+토요일+공휴일","weekdayOpen":"00:00","weekdayClose":"23:59","weekendOpen":"00:00","weekendClose":"23:59","holidayOpen":"00:00","holidayClose":"23:59","feeInfo":"무료","phone":"031-6193-6299","updatedAt":"2025-11-19","sido":"경기도","sigungu":"용인시","dong":""},{"name":"유방동 임시공영","type":"공영","category":"노외","address":"경기도 용인시 처인구 유방동78-22","lat":37.25873668,"lng":127.2035207,"totalSpaces":26,"isFree":true,"operatingDays":"평일+토요일+공휴일","weekdayOpen":"00:00","weekdayClose":"23:59","weekendOpen":"00:00","weekendClose":"23:59","holidayOpen":"00:00","holidayClose":"23:59","feeInfo":"무료","phone":"031-6193-5391","updatedAt":"2025-11-19","sido":"경기도","sigungu":"용인시","dong":""},{"name":"우림소공원 주변","type":"공영","category":"노상","address":"경기도 용인시 기흥구 구갈동 537-3","lat":37.27617761,"lng":127.1102513,"totalSpaces":25,"isFree":true,"operatingDays":"평일+토요일+공휴일","weekdayOpen":"00:00","weekdayClose":"23:59","weekendOpen":"00:00","weekendClose":"23:59","holidayOpen":"00:00","holidayClose":"23:59","feeInfo":"무료","phone":"031-6193-6299","updatedAt":"2025-11-19","sido":"경기도","sigungu":"용인시","dong":""},{"name":"기흥역 주변 도로","type":"공영","category":"노상","address":"경기도 용인시 기흥구 구갈동 370-8","lat":37.27800189,"lng":127.1159379,"totalSpaces":25,"isFree":true,"operatingDays":"평일+토요일+공휴일","weekdayOpen":"00:00","weekdayClose":"23:59","weekendOpen":"00:00","weekendClose":"23:59","holidayOpen":"00:00","holidayClose":"23:59","feeInfo":"무료","phone":"031-6193-6299","updatedAt":"2025-11-19","sido":"경기도","sigungu":"용인시","dong":""},{"name":"비발디근린공원","type":"공영","category":"부설","address":"경기도 용인시 수지구 죽전로168번길 9","lat":37.32544816,"lng":127.1264739,"totalSpaces":25,"isFree":true,"operatingDays":"평일+토요일+공휴일","weekdayOpen":"00:00","weekdayClose":"23:59","weekendOpen":"00:00","weekendClose":"23:59","holidayOpen":"00:00","holidayClose":"23:59","feeInfo":"무료","phone":"","updatedAt":"2025-11-19","sido":"경기도","sigungu":"용인시","dong":""},{"name":"성복도서관","type":"공영","category":"부설","address":"경기도 용인시 수지구 성복1로164번길 6","lat":37.31681598,"lng":127.0634835,"totalSpaces":25,"isFree":true,"operatingDays":"평일+토요일+공휴일","weekdayOpen":"00:00","weekdayClose":"23:59","weekendOpen":"00:00","weekendClose":"23:59","holidayOpen":"00:00","holidayClose":"23:59","feeInfo":"무료","phone":"","updatedAt":"2025-11-19","sido":"경기도","sigungu":"용인시","dong":""},{"name":"한숲하늘근린공원","type":"공영","category":"부설","address":"경기도 용인시 처인구 남사읍 한숲로57번길 30-1","lat":37.15593879,"lng":127.1676607,"totalSpaces":25,"isFree":true,"operatingDays":"평일+토요일+공휴일","weekdayOpen":"00:00","weekdayClose":"23:59","weekendOpen":"00:00","weekendClose":"23:59","holidayOpen":"00:00","holidayClose":"23:59","feeInfo":"무료","phone":"","updatedAt":"2025-11-19","sido":"경기도","sigungu":"용인시","dong":""},{"name":"역북동 임시공영","type":"공영","category":"노외","address":"경기도 용인시 처인구 역북동 391-23","lat":37.23758005,"lng":127.1850899,"totalSpaces":25,"isFree":true,"operatingDays":"평일+토요일+공휴일","weekdayOpen":"00:00","weekdayClose":"23:59","weekendOpen":"00:00","weekendClose":"23:59","holidayOpen":"00:00","holidayClose":"23:59","feeInfo":"무료","phone":"031-6193-5391","updatedAt":"2025-11-19","sido":"경기도","sigungu":"용인시","dong":""},{"name":"관아어린이공원 주변","type":"공영","category":"노상","address":"경기도 용인시 기흥구 구갈동 537-1","lat":37.27757709,"lng":127.1102845,"totalSpaces":24,"isFree":true,"operatingDays":"평일+토요일+공휴일","weekdayOpen":"00:00","weekdayClose":"23:59","weekendOpen":"00:00","weekendClose":"23:59","holidayOpen":"00:00","holidayClose":"23:59","feeInfo":"무료","phone":"031-6193-6299","updatedAt":"2025-11-19","sido":"경기도","sigungu":"용인시","dong":""},{"name":"안마을공원 주변","type":"공영","category":"노상","address":"경기도 용인시 기흥구 구갈동 370-16","lat":37.2774728,"lng":127.1167385,"totalSpaces":24,"isFree":true,"operatingDays":"평일+토요일+공휴일","weekdayOpen":"00:00","weekdayClose":"23:59","weekendOpen":"00:00","weekendClose":"23:59","holidayOpen":"00:00","holidayClose":"23:59","feeInfo":"무료","phone":"031-6193-6299","updatedAt":"2025-11-19","sido":"경기도","sigungu":"용인시","dong":""},{"name":"명지대사거리 주변","type":"공영","category":"노상","address":"경기도 용인시 처인구 용문로 42","lat":37.23735983,"lng":127.190373,"totalSpaces":24,"isFree":true,"operatingDays":"평일+토요일+공휴일","weekdayOpen":"00:00","weekdayClose":"23:59","weekendOpen":"00:00","weekendClose":"23:59","holidayOpen":"00:00","holidayClose":"23:59","feeInfo":"무료","phone":"031-6193-5392","updatedAt":"2025-11-19","sido":"경기도","sigungu":"용인시","dong":""},{"name":"아곡레스피아","type":"공영","category":"부설","address":"경기도 용인시 처인구 남사읍 완장천로 142-1","lat":37.13622397,"lng":127.1729527,"totalSpaces":24,"isFree":true,"operatingDays":"평일+토요일+공휴일","weekdayOpen":"00:00","weekdayClose":"23:59","weekendOpen":"00:00","weekendClose":"23:59","holidayOpen":"00:00","holidayClose":"23:59","feeInfo":"무료","phone":"","updatedAt":"2025-11-19","sido":"경기도","sigungu":"용인시","dong":""},{"name":"상갈동","type":"공영","category":"부설","address":"경기도 용인시 기흥구 상갈로 2","lat":37.26657957,"lng":127.1076939,"totalSpaces":24,"isFree":true,"operatingDays":"평일+토요일+공휴일","weekdayOpen":"00:00","weekdayClose":"23:59","weekendOpen":"00:00","weekendClose":"23:59","holidayOpen":"00:00","holidayClose":"23:59","feeInfo":"무료","phone":"031-6193-6842","updatedAt":"2025-11-19","sido":"경기도","sigungu":"용인시","dong":""},{"name":"모현도서관","type":"공영","category":"부설","address":"경기도 용인시 처인구 모현읍 백옥대로 2378","lat":37.33570489,"lng":127.2496431,"totalSpaces":23,"isFree":true,"operatingDays":"평일+토요일+공휴일","weekdayOpen":"00:00","weekdayClose":"23:59","weekendOpen":"00:00","weekendClose":"23:59","holidayOpen":"00:00","holidayClose":"23:59","feeInfo":"무료","phone":"","updatedAt":"2025-11-19","sido":"경기도","sigungu":"용인시","dong":""},{"name":"공세동 공영","type":"공영","category":"노외","address":"경기도 용인시 기흥구 공세동 390-57","lat":37.24249751,"lng":127.1037811,"totalSpaces":22,"isFree":true,"operatingDays":"평일+토요일+공휴일","weekdayOpen":"00:00","weekdayClose":"23:59","weekendOpen":"00:00","weekendClose":"23:59","holidayOpen":"00:00","holidayClose":"23:59","feeInfo":"무료","phone":"031-6193-6299","updatedAt":"2025-11-19","sido":"경기도","sigungu":"용인시","dong":""},{"name":"동진원 2공원 노상주차장","type":"공영","category":"노상","address":"경기도 용인시 기흥구 중동 1121","lat":37.2825405107,"lng":127.1433314575,"totalSpaces":22,"isFree":true,"operatingDays":"평일+토요일+공휴일","weekdayOpen":"00:00","weekdayClose":"23:59","weekendOpen":"00:00","weekendClose":"23:59","holidayOpen":"00:00","holidayClose":"23:59","feeInfo":"무료","phone":"031-6193-6299","updatedAt":"2025-11-19","sido":"경기도","sigungu":"용인시","dong":""},{"name":"포곡도서관","type":"공영","category":"부설","address":"경기도 용인시 처인구 포곡읍 포곡로278번길 8","lat":37.27891565,"lng":127.2325645,"totalSpaces":22,"isFree":true,"operatingDays":"평일+토요일+공휴일","weekdayOpen":"00:00","weekdayClose":"23:59","weekendOpen":"00:00","weekendClose":"23:59","holidayOpen":"00:00","holidayClose":"23:59","feeInfo":"무료","phone":"","updatedAt":"2025-11-19","sido":"경기도","sigungu":"용인시","dong":""},{"name":"농서근린공원","type":"공영","category":"부설","address":"경기도 용인시 기흥구 서천동로 77","lat":37.23371966,"lng":127.0741319,"totalSpaces":22,"isFree":true,"operatingDays":"평일+토요일+공휴일","weekdayOpen":"00:00","weekdayClose":"23:59","weekendOpen":"00:00","weekendClose":"23:59","holidayOpen":"00:00","holidayClose":"23:59","feeInfo":"무료","phone":"","updatedAt":"2025-11-19","sido":"경기도","sigungu":"용인시","dong":""},{"name":"마평동 공영(2)","type":"공영","category":"노외","address":"경기도 용인시 처인구 마평동 688-2","lat":37.23681541,"lng":127.2118133,"totalSpaces":22,"isFree":true,"operatingDays":"평일+토요일+공휴일","weekdayOpen":"00:00","weekdayClose":"23:59","weekendOpen":"00:00","weekendClose":"23:59","holidayOpen":"00:00","holidayClose":"23:59","feeInfo":"무료","phone":"031-6193-5392","updatedAt":"2025-11-19","sido":"경기도","sigungu":"용인시","dong":""},{"name":"마평동 공영(4)","type":"공영","category":"노외","address":"경기도 용인시 처인구 마평동 668-7","lat":37.23655984,"lng":127.2130856,"totalSpaces":21,"isFree":true,"operatingDays":"평일+토요일+공휴일","weekdayOpen":"00:00","weekdayClose":"23:59","weekendOpen":"00:00","weekendClose":"23:59","holidayOpen":"00:00","holidayClose":"23:59","feeInfo":"무료","phone":"031-6193-5392","updatedAt":"2025-11-19","sido":"경기도","sigungu":"용인시","dong":""},{"name":"역북어린이공원","type":"공영","category":"노외","address":"경기도 용인시 처인구 역북동 725-1","lat":37.23438457,"lng":127.190069,"totalSpaces":20,"isFree":true,"operatingDays":"평일+토요일+공휴일","weekdayOpen":"00:00","weekdayClose":"23:59","weekendOpen":"00:00","weekendClose":"23:59","holidayOpen":"00:00","holidayClose":"23:59","feeInfo":"무료","phone":"031-6193-5392","updatedAt":"2025-11-19","sido":"경기도","sigungu":"용인시","dong":""},{"name":"지곡동 노상주차장","type":"공영","category":"노상","address":"경기도 용인시 기흥구 지곡동 294-4","lat":37.2380361697,"lng":127.1358192245,"totalSpaces":20,"isFree":true,"operatingDays":"평일+토요일+공휴일","weekdayOpen":"00:00","weekdayClose":"23:59","weekendOpen":"00:00","weekendClose":"23:59","holidayOpen":"00:00","holidayClose":"23:59","feeInfo":"무료","phone":"031-6193-6299","updatedAt":"2025-11-19","sido":"경기도","sigungu":"용인시","dong":""},{"name":"영덕도서관","type":"공영","category":"부설","address":"경기도 용인시 기흥구 덕영대로2077번길 7","lat":37.26755638,"lng":127.0969496,"totalSpaces":20,"isFree":true,"operatingDays":"평일+토요일+공휴일","weekdayOpen":"00:00","weekdayClose":"23:59","weekendOpen":"00:00","weekendClose":"23:59","holidayOpen":"00:00","holidayClose":"23:59","feeInfo":"무료","phone":"","updatedAt":"2025-11-19","sido":"경기도","sigungu":"용인시","dong":""},{"name":"풍덕천동 임시공영","type":"공영","category":"노외","address":"경기도 용인시 수지구 풍덕천동 69-48","lat":37.32455512,"lng":127.1013529,"totalSpaces":20,"isFree":true,"operatingDays":"평일+토요일+공휴일","weekdayOpen":"00:00","weekdayClose":"23:59","weekendOpen":"00:00","weekendClose":"23:59","holidayOpen":"00:00","holidayClose":"23:59","feeInfo":"무료","phone":"031-6193-6299","updatedAt":"2025-11-19","sido":"경기도","sigungu":"용인시","dong":""},{"name":"신갈중학교 주변","type":"공영","category":"노상","address":"경기도 용인시 기흥구 신정로 79","lat":37.27811538,"lng":127.1023417,"totalSpaces":19,"isFree":true,"operatingDays":"평일+토요일+공휴일","weekdayOpen":"00:00","weekdayClose":"23:59","weekendOpen":"00:00","weekendClose":"23:59","holidayOpen":"00:00","holidayClose":"23:59","feeInfo":"무료","phone":"031-6193-6299","updatedAt":"2025-11-19","sido":"경기도","sigungu":"용인시","dong":""},{"name":"용동중학교 주변","type":"공영","category":"노상","address":"경기도 용인시 처인구 양지면 남곡리 167-3","lat":37.2318513,"lng":127.2850734,"totalSpaces":19,"isFree":true,"operatingDays":"평일+토요일+공휴일","weekdayOpen":"00:00","weekdayClose":"23:59","weekendOpen":"00:00","weekendClose":"23:59","holidayOpen":"00:00","holidayClose":"23:59","feeInfo":"무료","phone":"031-6193-5392","updatedAt":"2025-11-19","sido":"경기도","sigungu":"용인시","dong":""},{"name":"수지도서관","type":"공영","category":"부설","address":"경기도 용인시 수지구 문정로7번길 23","lat":37.32027656,"lng":127.0946856,"totalSpaces":19,"isFree":true,"operatingDays":"평일+토요일+공휴일","weekdayOpen":"00:00","weekdayClose":"23:59","weekendOpen":"00:00","weekendClose":"23:59","holidayOpen":"00:00","holidayClose":"23:59","feeInfo":"무료","phone":"","updatedAt":"2025-11-19","sido":"경기도","sigungu":"용인시","dong":""},{"name":"풍덕천1동","type":"공영","category":"부설","address":"경기도 용인시 수지구 수지로342번길 3","lat":37.32795741,"lng":127.0950287,"totalSpaces":19,"isFree":true,"operatingDays":"평일+토요일+공휴일","weekdayOpen":"00:00","weekdayClose":"23:59","weekendOpen":"00:00","weekendClose":"23:59","holidayOpen":"00:00","holidayClose":"23:59","feeInfo":"무료","phone":"031-6193-8783","updatedAt":"2025-11-19","sido":"경기도","sigungu":"용인시","dong":""},{"name":"김량장동 임시공영","type":"공영","category":"노외","address":"경기도 용인시 처인구 김량장동 330-3, 330-14","lat":37.23421384,"lng":127.1991316,"totalSpaces":19,"isFree":true,"operatingDays":"평일+토요일+공휴일","weekdayOpen":"00:00","weekdayClose":"23:59","weekendOpen":"00:00","weekendClose":"23:59","holidayOpen":"00:00","holidayClose":"23:59","feeInfo":"무료","phone":"031-6193-5391","updatedAt":"2025-11-19","sido":"경기도","sigungu":"용인시","dong":""},{"name":"죽전동 임시공영","type":"공영","category":"노외","address":"경기도 용인시 수지구 죽전동 1174-3","lat":37.33176348,"lng":127.1189539,"totalSpaces":19,"isFree":true,"operatingDays":"평일+토요일+공휴일","weekdayOpen":"00:00","weekdayClose":"23:59","weekendOpen":"00:00","weekendClose":"23:59","holidayOpen":"00:00","holidayClose":"23:59","feeInfo":"무료","phone":"031-6193-6299","updatedAt":"2025-11-19","sido":"경기도","sigungu":"용인시","dong":""},{"name":"용인시국민체육센터","type":"공영","category":"부설","address":"경기도 용인시 수지구 신봉1로 181","lat":37.32893441,"lng":127.0671418,"totalSpaces":18,"isFree":true,"operatingDays":"평일+토요일+공휴일","weekdayOpen":"00:00","weekdayClose":"23:59","weekendOpen":"00:00","weekendClose":"23:59","holidayOpen":"00:00","holidayClose":"23:59","feeInfo":"무료","phone":"","updatedAt":"2025-11-19","sido":"경기도","sigungu":"용인시","dong":""},{"name":"구갈동 자투리주차장(1)","type":"공영","category":"노외","address":"경기도 용인시 기흥구 구갈동 277-3,277-5","lat":37.2794718,"lng":127.1188349,"totalSpaces":17,"isFree":true,"operatingDays":"평일+토요일+공휴일","weekdayOpen":"00:00","weekdayClose":"23:59","weekendOpen":"00:00","weekendClose":"23:59","holidayOpen":"00:00","holidayClose":"23:59","feeInfo":"무료","phone":"031-6193-6299","updatedAt":"2025-11-19","sido":"경기도","sigungu":"용인시","dong":""},{"name":"마평동 공영(1)","type":"공영","category":"노외","address":"경기도 용인시 처인구 마평동 735-12","lat":37.23436625,"lng":127.2113022,"totalSpaces":17,"isFree":true,"operatingDays":"평일+토요일+공휴일","weekdayOpen":"00:00","weekdayClose":"23:59","weekendOpen":"00:00","weekendClose":"23:59","holidayOpen":"00:00","holidayClose":"23:59","feeInfo":"무료","phone":"031-6193-5392","updatedAt":"2025-11-19","sido":"경기도","sigungu":"용인시","dong":""},{"name":"동천동 임시공영","type":"공영","category":"노외","address":"경기도 용인시 수지구 동천동 883","lat":37.33375032,"lng":127.0955069,"totalSpaces":17,"isFree":true,"operatingDays":"평일+토요일+공휴일","weekdayOpen":"00:00","weekdayClose":"23:59","weekendOpen":"00:00","weekendClose":"23:59","holidayOpen":"00:00","holidayClose":"23:59","feeInfo":"무료","phone":"031-6193-6299","updatedAt":"2025-11-19","sido":"경기도","sigungu":"용인시","dong":""},{"name":"전대에버랜드역","type":"공영","category":"노외","address":"경기도 용인시 처인구 포곡읍 에버랜드로 143","lat":37.2855461,"lng":127.2196457,"totalSpaces":16,"isFree":true,"operatingDays":"평일+토요일+공휴일","weekdayOpen":"00:00","weekdayClose":"23:59","weekendOpen":"00:00","weekendClose":"23:59","holidayOpen":"00:00","holidayClose":"23:59","feeInfo":"무료","phone":"031-6193-5392","updatedAt":"2025-11-19","sido":"경기도","sigungu":"용인시","dong":""},{"name":"관곡어린이공원 주변","type":"공영","category":"노상","address":"경기도 용인시 기흥구 구갈동 537-6","lat":37.27462281,"lng":127.1111654,"totalSpaces":16,"isFree":true,"operatingDays":"평일+토요일+공휴일","weekdayOpen":"00:00","weekdayClose":"23:59","weekendOpen":"00:00","weekendClose":"23:59","holidayOpen":"00:00","holidayClose":"23:59","feeInfo":"무료","phone":"031-6193-6299","updatedAt":"2025-11-19","sido":"경기도","sigungu":"용인시","dong":""},{"name":"패키징일반산업단지","type":"공영","category":"노외","address":"경기도 용인시 처인구 유방동 1101","lat":37.25897462,"lng":127.1959743,"totalSpaces":16,"isFree":true,"operatingDays":"평일+토요일+공휴일","weekdayOpen":"00:00","weekdayClose":"23:59","weekendOpen":"00:00","weekendClose":"23:59","holidayOpen":"00:00","holidayClose":"23:59","feeInfo":"무료","phone":"031-6193-5392","updatedAt":"2025-11-19","sido":"경기도","sigungu":"용인시","dong":""},{"name":"천리 임시공영","type":"공영","category":"노외","address":"경기도 용인시 처인구 이동읍 천리 237-19, 240","lat":37.19233766,"lng":127.2073915,"totalSpaces":15,"isFree":true,"operatingDays":"평일+토요일+공휴일","weekdayOpen":"00:00","weekdayClose":"23:59","weekendOpen":"00:00","weekendClose":"23:59","holidayOpen":"00:00","holidayClose":"23:59","feeInfo":"무료","phone":"031-6193-5391","updatedAt":"2025-11-19","sido":"경기도","sigungu":"용인시","dong":""},{"name":"김량장 공영","type":"공영","category":"노외","address":"경기도 용인시 처인구 김량장동 505-1","lat":37.2325411,"lng":127.1984058,"totalSpaces":15,"isFree":true,"operatingDays":"평일+토요일+공휴일","weekdayOpen":"00:00","weekdayClose":"23:59","weekendOpen":"00:00","weekendClose":"23:59","holidayOpen":"00:00","holidayClose":"23:59","feeInfo":"무료","phone":"031-6193-5392","updatedAt":"2025-11-19","sido":"경기도","sigungu":"용인시","dong":""},{"name":"지역난방공사 동백열원 주변","type":"공영","category":"노상","address":"경기도 용인시 기흥구 중동 1078","lat":37.2563653006,"lng":127.1667029278,"totalSpaces":15,"isFree":true,"operatingDays":"평일+토요일+공휴일","weekdayOpen":"00:00","weekdayClose":"23:59","weekendOpen":"00:00","weekendClose":"23:59","holidayOpen":"00:00","holidayClose":"23:59","feeInfo":"무료","phone":"031-6193-6299","updatedAt":"2025-11-19","sido":"경기도","sigungu":"용인시","dong":""},{"name":"상현레스피아","type":"공영","category":"부설","address":"경기도 용인시 수지구 광교마을로 128","lat":37.29483246,"lng":127.0773894,"totalSpaces":15,"isFree":true,"operatingDays":"평일+토요일+공휴일","weekdayOpen":"00:00","weekdayClose":"23:59","weekendOpen":"00:00","weekendClose":"23:59","holidayOpen":"00:00","holidayClose":"23:59","feeInfo":"무료","phone":"","updatedAt":"2025-11-19","sido":"경기도","sigungu":"용인시","dong":""},{"name":"상갈마을 제2공영","type":"공영","category":"노외","address":"경기도 용인시 기흥구 상갈로 13","lat":37.26779936,"lng":127.1072359,"totalSpaces":15,"isFree":true,"operatingDays":"평일+토요일+공휴일","weekdayOpen":"00:00","weekdayClose":"23:59","weekendOpen":"00:00","weekendClose":"23:59","holidayOpen":"00:00","holidayClose":"23:59","feeInfo":"무료","phone":"031-6193-6299","updatedAt":"2025-11-19","sido":"경기도","sigungu":"용인시","dong":""},{"name":"광교산체육공원","type":"공영","category":"부설","address":"경기도 용인시 수지구 동천로 557","lat":37.35278578,"lng":127.0516701,"totalSpaces":14,"isFree":true,"operatingDays":"평일+토요일+공휴일","weekdayOpen":"00:00","weekdayClose":"23:59","weekendOpen":"00:00","weekendClose":"23:59","holidayOpen":"00:00","holidayClose":"23:59","feeInfo":"무료","phone":"","updatedAt":"2025-11-19","sido":"경기도","sigungu":"용인시","dong":""},{"name":"고림동 자투리주차장","type":"공영","category":"노외","address":"경기도 용인시 처인구 고림동 389-1","lat":37.25145552,"lng":127.226013,"totalSpaces":14,"isFree":true,"operatingDays":"평일+토요일+공휴일","weekdayOpen":"00:00","weekdayClose":"23:59","weekendOpen":"00:00","weekendClose":"23:59","holidayOpen":"00:00","holidayClose":"23:59","feeInfo":"무료","phone":"031-6193-5391","updatedAt":"2025-11-19","sido":"경기도","sigungu":"용인시","dong":""},{"name":"신갈마을 제1공영","type":"공영","category":"노외","address":"경기도 용인시 기흥구 신갈동 43-6","lat":37.2747685744,"lng":127.1081990064,"totalSpaces":13,"isFree":true,"operatingDays":"평일+토요일+공휴일","weekdayOpen":"00:00","weekdayClose":"23:59","weekendOpen":"00:00","weekendClose":"23:59","holidayOpen":"00:00","holidayClose":"23:59","feeInfo":"무료","phone":"031-6193-6299","updatedAt":"2025-11-19","sido":"경기도","sigungu":"용인시","dong":""},{"name":"도사마을 진입로","type":"공영","category":"노상","address":"경기도 용인시 처인구 포곡읍 삼계리 607-1","lat":37.29504352,"lng":127.2345612,"totalSpaces":13,"isFree":true,"operatingDays":"평일+토요일+공휴일","weekdayOpen":"00:00","weekdayClose":"23:59","weekendOpen":"00:00","weekendClose":"23:59","holidayOpen":"00:00","holidayClose":"23:59","feeInfo":"무료","phone":"031-6193-5392","updatedAt":"2025-11-19","sido":"경기도","sigungu":"용인시","dong":""},{"name":"신갈마을 제3공영","type":"공영","category":"노외","address":"경기도 용인시 기흥구 신갈동 34-3","lat":37.27674307,"lng":127.1082447,"totalSpaces":13,"isFree":true,"operatingDays":"평일+토요일+공휴일","weekdayOpen":"00:00","weekdayClose":"23:59","weekendOpen":"00:00","weekendClose":"23:59","holidayOpen":"00:00","holidayClose":"23:59","feeInfo":"무료","phone":"031-6193-6299","updatedAt":"2025-11-19","sido":"경기도","sigungu":"용인시","dong":""},{"name":"구갈동 임시공영","type":"공영","category":"노외","address":"경기도 용인시 기흥구 구갈동 402-17","lat":37.2763090108,"lng":127.110117726,"totalSpaces":12,"isFree":true,"operatingDays":"평일+토요일+공휴일","weekdayOpen":"00:00","weekdayClose":"23:59","weekendOpen":"00:00","weekendClose":"23:59","holidayOpen":"00:00","holidayClose":"23:59","feeInfo":"무료","phone":"031-6193-6299","updatedAt":"2025-11-19","sido":"경기도","sigungu":"용인시","dong":""},{"name":"새물근린공원","type":"공영","category":"부설","address":"경기도 용인시 기흥구 동백동 657","lat":37.28128998,"lng":127.1559389,"totalSpaces":12,"isFree":true,"operatingDays":"평일+토요일+공휴일","weekdayOpen":"00:00","weekdayClose":"23:59","weekendOpen":"00:00","weekendClose":"23:59","holidayOpen":"00:00","holidayClose":"23:59","feeInfo":"무료","phone":"","updatedAt":"2025-11-19","sido":"경기도","sigungu":"용인시","dong":""},{"name":"남사읍 임시공영","type":"공영","category":"노외","address":"경기도 용인시 처인구 남사읍 봉무리 445-5","lat":37.11432237,"lng":127.1510931,"totalSpaces":11,"isFree":true,"operatingDays":"평일+토요일+공휴일","weekdayOpen":"00:00","weekdayClose":"23:59","weekendOpen":"00:00","weekendClose":"23:59","holidayOpen":"00:00","holidayClose":"23:59","feeInfo":"무료","phone":"031-6193-5391","updatedAt":"2025-11-19","sido":"경기도","sigungu":"용인시","dong":""},{"name":"새천년로16번길 주변","type":"공영","category":"노상","address":"경기도 용인시 기흥구 새천년로16번길 3-10","lat":37.28859166,"lng":127.1115249,"totalSpaces":10,"isFree":true,"operatingDays":"평일+토요일+공휴일","weekdayOpen":"00:00","weekdayClose":"23:59","weekendOpen":"00:00","weekendClose":"23:59","holidayOpen":"00:00","holidayClose":"23:59","feeInfo":"무료","phone":"031-6193-6299","updatedAt":"2025-11-19","sido":"경기도","sigungu":"용인시","dong":""},{"name":"송전초등학교 주변","type":"공영","category":"노상","address":"경기도 용인시 처인구 이동읍 송전리 605-3","lat":37.13821385,"lng":127.1975319,"totalSpaces":10,"isFree":true,"operatingDays":"평일+토요일+공휴일","weekdayOpen":"00:00","weekdayClose":"23:59","weekendOpen":"00:00","weekendClose":"23:59","holidayOpen":"00:00","holidayClose":"23:59","feeInfo":"무료","phone":"031-6193-5392","updatedAt":"2025-11-19","sido":"경기도","sigungu":"용인시","dong":""},{"name":"백암레스피아","type":"공영","category":"부설","address":"경기도 용인시 처인구 백암면 근창로35번길 176","lat":37.1508488,"lng":127.3733541,"totalSpaces":10,"isFree":true,"operatingDays":"평일+토요일+공휴일","weekdayOpen":"00:00","weekdayClose":"23:59","weekendOpen":"00:00","weekendClose":"23:59","holidayOpen":"00:00","holidayClose":"23:59","feeInfo":"무료","phone":"","updatedAt":"2025-11-19","sido":"경기도","sigungu":"용인시","dong":""},{"name":"전대리 자투리주차장","type":"공영","category":"노외","address":"경기도 용인시 처인구 포곡읍 전대리 184-2","lat":37.28355594,"lng":127.2182041,"totalSpaces":8,"isFree":true,"operatingDays":"평일+토요일+공휴일","weekdayOpen":"00:00","weekdayClose":"23:59","weekendOpen":"00:00","weekendClose":"23:59","holidayOpen":"00:00","holidayClose":"23:59","feeInfo":"무료","phone":"031-6193-5392","updatedAt":"2025-11-19","sido":"경기도","sigungu":"용인시","dong":""},{"name":"동부레스피아","type":"공영","category":"부설","address":"경기도 용인시 처인구 동부로162번길 14","lat":37.222622,"lng":127.2228402,"totalSpaces":8,"isFree":true,"operatingDays":"평일+토요일+공휴일","weekdayOpen":"00:00","weekdayClose":"23:59","weekendOpen":"00:00","weekendClose":"23:59","holidayOpen":"00:00","holidayClose":"23:59","feeInfo":"무료","phone":"","updatedAt":"2025-11-19","sido":"경기도","sigungu":"용인시","dong":""},{"name":"남산근린공원","type":"공영","category":"부설","address":"경기도 용인시 기흥구 서천동 802","lat":37.23532362,"lng":127.0728929,"totalSpaces":8,"isFree":true,"operatingDays":"평일+토요일+공휴일","weekdayOpen":"00:00","weekdayClose":"23:59","weekendOpen":"00:00","weekendClose":"23:59","holidayOpen":"00:00","holidayClose":"23:59","feeInfo":"무료","phone":"","updatedAt":"2025-11-19","sido":"경기도","sigungu":"용인시","dong":""},{"name":"신갈마을 제2공영","type":"공영","category":"노외","address":"경기도 용인시 기흥구 신갈동 32-14","lat":37.27647881,"lng":127.1091145,"totalSpaces":8,"isFree":true,"operatingDays":"평일+토요일+공휴일","weekdayOpen":"00:00","weekdayClose":"23:59","weekendOpen":"00:00","weekendClose":"23:59","holidayOpen":"00:00","holidayClose":"23:59","feeInfo":"무료","phone":"031-6193-6299","updatedAt":"2025-11-19","sido":"경기도","sigungu":"용인시","dong":""},{"name":"신갈동 공영","type":"공영","category":"노외","address":"경기도 용인시 기흥구 신갈동 407-3","lat":37.27604789,"lng":127.1012647,"totalSpaces":7,"isFree":true,"operatingDays":"평일+토요일+공휴일","weekdayOpen":"00:00","weekdayClose":"23:59","weekendOpen":"00:00","weekendClose":"23:59","holidayOpen":"00:00","holidayClose":"23:59","feeInfo":"무료","phone":"031-6193-6299","updatedAt":"2025-11-19","sido":"경기도","sigungu":"용인시","dong":""},{"name":"신갈초등학교 주변","type":"공영","category":"노상","address":"경기도 용인시 기흥구 신갈동 82-6","lat":37.27327145,"lng":127.1082084,"totalSpaces":7,"isFree":true,"operatingDays":"평일+토요일+공휴일","weekdayOpen":"00:00","weekdayClose":"23:59","weekendOpen":"00:00","weekendClose":"23:59","holidayOpen":"00:00","holidayClose":"23:59","feeInfo":"무료","phone":"031-6193-6299","updatedAt":"2025-11-19","sido":"경기도","sigungu":"용인시","dong":""},{"name":"토월체육공원","type":"공영","category":"부설","address":"경기도 용인시 수지구 수풍로23번길 36","lat":37.32823032,"lng":127.0837278,"totalSpaces":7,"isFree":true,"operatingDays":"평일+토요일+공휴일","weekdayOpen":"00:00","weekdayClose":"23:59","weekendOpen":"00:00","weekendClose":"23:59","holidayOpen":"00:00","holidayClose":"23:59","feeInfo":"무료","phone":"","updatedAt":"2025-11-19","sido":"경기도","sigungu":"용인시","dong":""},{"name":"천리레스피아","type":"공영","category":"부설","address":"경기도 용인시 처인구 이동읍 덕성로 125-65","lat":37.17846171,"lng":127.1985737,"totalSpaces":7,"isFree":true,"operatingDays":"평일+토요일+공휴일","weekdayOpen":"00:00","weekdayClose":"23:59","weekendOpen":"00:00","weekendClose":"23:59","holidayOpen":"00:00","holidayClose":"23:59","feeInfo":"무료","phone":"","updatedAt":"2025-11-19","sido":"경기도","sigungu":"용인시","dong":""},{"name":"신갈동 자투리주차장(2)","type":"공영","category":"노외","address":"경기도 용인시 기흥구 신갈동 426-22","lat":37.2744215662,"lng":127.1007548898,"totalSpaces":6,"isFree":true,"operatingDays":"평일+토요일+공휴일","weekdayOpen":"00:00","weekdayClose":"23:59","weekendOpen":"00:00","weekendClose":"23:59","holidayOpen":"00:00","holidayClose":"23:59","feeInfo":"무료","phone":"031-6193-6299","updatedAt":"2025-11-19","sido":"경기도","sigungu":"용인시","dong":""},{"name":"고매레스피아","type":"공영","category":"부설","address":"경기도 용인시 기흥구 삼성2로 140","lat":37.22147234,"lng":127.0882131,"totalSpaces":6,"isFree":true,"operatingDays":"평일+토요일+공휴일","weekdayOpen":"00:00","weekdayClose":"23:59","weekendOpen":"00:00","weekendClose":"23:59","holidayOpen":"00:00","holidayClose":"23:59","feeInfo":"무료","phone":"","updatedAt":"2025-11-19","sido":"경기도","sigungu":"용인시","dong":""},{"name":"길마재민속공원(광교역사공원)","type":"공영","category":"부설","address":"경기도 용인시 수지구 포은대로 37","lat":37.29946291,"lng":127.0647442,"totalSpaces":6,"isFree":true,"operatingDays":"평일+토요일+공휴일","weekdayOpen":"00:00","weekdayClose":"23:59","weekendOpen":"00:00","weekendClose":"23:59","holidayOpen":"00:00","holidayClose":"23:59","feeInfo":"무료","phone":"","updatedAt":"2025-11-19","sido":"경기도","sigungu":"용인시","dong":""},{"name":"남사레스피아","type":"공영","category":"부설","address":"경기도 용인시 처인구 남사읍 천덕산로 190-28","lat":37.10590362,"lng":127.1251309,"totalSpaces":6,"isFree":true,"operatingDays":"평일+토요일+공휴일","weekdayOpen":"00:00","weekdayClose":"23:59","weekendOpen":"00:00","weekendClose":"23:59","holidayOpen":"00:00","holidayClose":"23:59","feeInfo":"무료","phone":"","updatedAt":"2025-11-19","sido":"경기도","sigungu":"용인시","dong":""},{"name":"동백호수근린공원","type":"공영","category":"부설","address":"경기도 용인시 기흥구 동백5로 12","lat":37.27670429,"lng":127.150849,"totalSpaces":6,"isFree":true,"operatingDays":"평일+토요일+공휴일","weekdayOpen":"00:00","weekdayClose":"23:59","weekendOpen":"00:00","weekendClose":"23:59","holidayOpen":"00:00","holidayClose":"23:59","feeInfo":"무료","phone":"","updatedAt":"2025-11-19","sido":"경기도","sigungu":"용인시","dong":""},{"name":"신갈동 자투리주차장(1)","type":"공영","category":"노외","address":"경기도 용인시 기흥구 신갈동426-71","lat":37.2750358362,"lng":127.1013694352,"totalSpaces":5,"isFree":true,"operatingDays":"평일+토요일+공휴일","weekdayOpen":"00:00","weekdayClose":"23:59","weekendOpen":"00:00","weekendClose":"23:59","holidayOpen":"00:00","holidayClose":"23:59","feeInfo":"무료","phone":"031-6193-6299","updatedAt":"2025-11-19","sido":"경기도","sigungu":"용인시","dong":""},{"name":"이례장로교회 주변","type":"공영","category":"노상","address":"경기도 용인시 기흥구 상갈동 153-2","lat":37.26704056,"lng":127.106382,"totalSpaces":5,"isFree":true,"operatingDays":"평일+토요일+공휴일","weekdayOpen":"00:00","weekdayClose":"23:59","weekendOpen":"00:00","weekendClose":"23:59","holidayOpen":"00:00","holidayClose":"23:59","feeInfo":"무료","phone":"031-6193-6299","updatedAt":"2025-11-19","sido":"경기도","sigungu":"용인시","dong":""},{"name":"송전레스피아","type":"공영","category":"부설","address":"경기도 용인시 처인구 이동읍 경기동로 752-19","lat":37.13361021,"lng":127.1993969,"totalSpaces":5,"isFree":true,"operatingDays":"평일+토요일+공휴일","weekdayOpen":"00:00","weekdayClose":"23:59","weekendOpen":"00:00","weekendClose":"23:59","holidayOpen":"00:00","holidayClose":"23:59","feeInfo":"무료","phone":"","updatedAt":"2025-11-19","sido":"경기도","sigungu":"용인시","dong":""},{"name":"둔전리 임시공영","type":"공영","category":"노외","address":"경기도 용인시 처인구 포곡읍 둔전리 137-10","lat":37.26756887,"lng":127.2199262,"totalSpaces":5,"isFree":true,"operatingDays":"평일+토요일+공휴일","weekdayOpen":"00:00","weekdayClose":"23:59","weekendOpen":"00:00","weekendClose":"23:59","holidayOpen":"00:00","holidayClose":"23:59","feeInfo":"무료","phone":"031-6193-5391","updatedAt":"2025-11-19","sido":"경기도","sigungu":"용인시","dong":""},{"name":"천리 자투리주차장","type":"공영","category":"노외","address":"경기도 용인시 처인구 이동읍 천리 1065-5","lat":37.20454215,"lng":127.206613,"totalSpaces":5,"isFree":true,"operatingDays":"평일+토요일+공휴일","weekdayOpen":"00:00","weekdayClose":"23:59","weekendOpen":"00:00","weekendClose":"23:59","holidayOpen":"00:00","holidayClose":"23:59","feeInfo":"무료","phone":"031-6193-5392","updatedAt":"2025-11-19","sido":"경기도","sigungu":"용인시","dong":""},{"name":"소실봉근린공원","type":"공영","category":"부설","address":"경기도 용인시 수지구 만현로67번길 34-17","lat":37.30765137,"lng":127.092408,"totalSpaces":4,"isFree":true,"operatingDays":"평일+토요일+공휴일","weekdayOpen":"00:00","weekdayClose":"23:59","weekendOpen":"00:00","weekendClose":"23:59","holidayOpen":"00:00","holidayClose":"23:59","feeInfo":"무료","phone":"","updatedAt":"2025-11-19","sido":"경기도","sigungu":"용인시","dong":""},{"name":"용인레스피아","type":"공영","category":"부설","address":"경기도 용인시 처인구 포곡읍 옥현로 58","lat":37.30273506,"lng":127.2280332,"totalSpaces":0,"isFree":true,"operatingDays":"평일+토요일+공휴일","weekdayOpen":"00:00","weekdayClose":"23:59","weekendOpen":"00:00","weekendClose":"23:59","holidayOpen":"00:00","holidayClose":"23:59","feeInfo":"무료","phone":"","updatedAt":"2025-11-19","sido":"경기도","sigungu":"용인시","dong":""},{"name":"행정타운(용인시청)","type":"공영","category":"부설","address":"경기도 용인시 처인구 중부대로 1199","lat":37.24086733,"lng":127.1779684,"totalSpaces":1177,"isFree":false,"operatingDays":"평일+토요일+공휴일","weekdayOpen":"00:00","weekdayClose":"23:59","weekendOpen":"00:00","weekendClose":"23:59","holidayOpen":"00:00","holidayClose":"23:59","feeInfo":"기본 30분 600원 / 추가 15분당 300원","phone":"031-338-6581","updatedAt":"2025-11-19","sido":"경기도","sigungu":"용인시","dong":""},{"name":"수지구청","type":"공영","category":"부설","address":"경기도 용인시 수지구 포은대로 435","lat":37.3222219,"lng":127.0974474,"totalSpaces":568,"isFree":false,"operatingDays":"평일+토요일+공휴일","weekdayOpen":"00:00","weekdayClose":"23:59","weekendOpen":"00:00","weekendClose":"23:59","holidayOpen":"00:00","holidayClose":"23:59","feeInfo":"기본 30분 600원 / 추가 10분당 300원","phone":"031-338-6581","updatedAt":"2025-11-19","sido":"경기도","sigungu":"용인시","dong":""},{"name":"평생학습관(구여성회관)","type":"공영","category":"부설","address":"경기도 용인시 수지구 문정로7번길 15","lat":37.32052477,"lng":127.095499,"totalSpaces":518,"isFree":false,"operatingDays":"평일+토요일+공휴일","weekdayOpen":"00:00","weekdayClose":"23:59","weekendOpen":"00:00","weekendClose":"23:59","holidayOpen":"00:00","holidayClose":"23:59","feeInfo":"기본 30분 600원 / 추가 10분당 300원","phone":"031-338-6581","updatedAt":"2025-11-19","sido":"경기도","sigungu":"용인시","dong":""},{"name":"수지아르피아(죽전2동)","type":"공영","category":"부설","address":"경기도 용인시 수지구 죽전동 1003-586","lat":37.32613651,"lng":127.1059081,"totalSpaces":507,"isFree":false,"operatingDays":"평일+토요일+공휴일","weekdayOpen":"00:00","weekdayClose":"23:59","weekendOpen":"00:00","weekendClose":"23:59","holidayOpen":"00:00","holidayClose":"23:59","feeInfo":"기본 30분 600원 / 추가 10분당 300원","phone":"031-338-6581","updatedAt":"2025-11-19","sido":"경기도","sigungu":"용인시","dong":""},{"name":"중앙공영","type":"공영","category":"노외","address":"경기도 용인시 처인구 백옥대로 1103","lat":37.23409332,"lng":127.208483,"totalSpaces":328,"isFree":false,"operatingDays":"평일+토요일+공휴일","weekdayOpen":"00:00","weekdayClose":"23:59","weekendOpen":"00:00","weekendClose":"23:59","holidayOpen":"00:00","holidayClose":"23:59","feeInfo":"기본 10분 600원 / 추가 10분당 300원","phone":"031-338-6581","updatedAt":"2025-11-19","sido":"경기도","sigungu":"용인시","dong":""},{"name":"구)용인종합운동장 실내체육관","type":"공영","category":"부설","address":"경기도 용인시 처인구 경안천로 76","lat":37.2385462,"lng":127.212483,"totalSpaces":298,"isFree":false,"operatingDays":"평일+토요일+공휴일","weekdayOpen":"00:00","weekdayClose":"23:59","weekendOpen":"00:00","weekendClose":"23:59","holidayOpen":"00:00","holidayClose":"23:59","feeInfo":"기본 30분 1,000원 / 추가 240분당 300원","phone":"031-338-6581","updatedAt":"2025-11-19","sido":"경기도","sigungu":"용인시","dong":""},{"name":"용인시민체육센터","type":"공영","category":"부설","address":"경기도 용인시 처인구 포곡읍 금어로 317","lat":37.27638286,"lng":127.2457929,"totalSpaces":267,"isFree":false,"operatingDays":"평일+토요일+공휴일","weekdayOpen":"00:00","weekdayClose":"23:59","weekendOpen":"00:00","weekendClose":"23:59","holidayOpen":"00:00","holidayClose":"23:59","feeInfo":"기본 30분 1,000원 / 추가 240분당 300원","phone":"","updatedAt":"2025-11-19","sido":"경기도","sigungu":"용인시","dong":""},{"name":"신갈IC공영","type":"공영","category":"노외","address":"경기도 용인시 기흥구 신갈동 605-9","lat":37.27009438,"lng":127.1029967,"totalSpaces":256,"isFree":false,"operatingDays":"평일+토요일+공휴일","weekdayOpen":"00:00","weekdayClose":"23:59","weekendOpen":"00:00","weekendClose":"23:59","holidayOpen":"00:00","holidayClose":"23:59","feeInfo":"기본 10분 500원 / 추가 10분당 200원","phone":"031-338-6581","updatedAt":"2025-11-19","sido":"경기도","sigungu":"용인시","dong":""},{"name":"풍덕천공영","type":"공영","category":"노외","address":"경기도 용인시 수지구 풍덕천로171번길 9-2","lat":37.32708332,"lng":127.0997294,"totalSpaces":250,"isFree":false,"operatingDays":"평일+토요일+공휴일","weekdayOpen":"00:00","weekdayClose":"23:59","weekendOpen":"00:00","weekendClose":"23:59","holidayOpen":"00:00","holidayClose":"23:59","feeInfo":"기본 10분 400원 / 추가 10분당 100원","phone":"031-338-6581","updatedAt":"2025-11-19","sido":"경기도","sigungu":"용인시","dong":""},{"name":"기흥구청","type":"공영","category":"부설","address":"경기도 용인시 기흥구 관곡로 95","lat":37.28044712,"lng":127.114689,"totalSpaces":238,"isFree":false,"operatingDays":"평일+토요일+공휴일","weekdayOpen":"00:00","weekdayClose":"23:59","weekendOpen":"00:00","weekendClose":"23:59","holidayOpen":"00:00","holidayClose":"23:59","feeInfo":"기본 30분 600원 / 추가 10분당 300원","phone":"031-338-6581","updatedAt":"2025-11-19","sido":"경기도","sigungu":"용인시","dong":""},{"name":"상갈공영","type":"공영","category":"노외","address":"경기도 용인시 기흥구 금화로105번길 3","lat":37.26584933,"lng":127.106739,"totalSpaces":185,"isFree":false,"operatingDays":"평일+토요일+공휴일","weekdayOpen":"00:00","weekdayClose":"23:59","weekendOpen":"00:00","weekendClose":"23:59","holidayOpen":"00:00","holidayClose":"23:59","feeInfo":"기본 10분 400원 / 추가 10분당 100원","phone":"031-338-6581","updatedAt":"2025-11-19","sido":"경기도","sigungu":"용인시","dong":""},{"name":"상현2동(상현공영)","type":"공영","category":"부설","address":"경기도 용인시 수지구 만현로 48","lat":37.3103604398,"lng":127.0865294033,"totalSpaces":162,"isFree":false,"operatingDays":"평일+토요일+공휴일","weekdayOpen":"00:00","weekdayClose":"23:59","weekendOpen":"00:00","weekendClose":"23:59","holidayOpen":"00:00","holidayClose":"23:59","feeInfo":"기본 30분 600원 / 추가 15분당 300원","phone":"031-338-6581","updatedAt":"2025-11-19","sido":"경기도","sigungu":"용인시","dong":""},{"name":"신갈 제2공영","type":"공영","category":"노외","address":"경기도 용인시 기흥구 신갈동 473-1","lat":37.27066223,"lng":127.1043196,"totalSpaces":143,"isFree":false,"operatingDays":"평일+토요일+공휴일","weekdayOpen":"00:00","weekdayClose":"23:59","weekendOpen":"00:00","weekendClose":"23:59","holidayOpen":"00:00","holidayClose":"23:59","feeInfo":"기본 10분 600원 / 추가 10분당 300원","phone":"031-338-6581","updatedAt":"2025-11-19","sido":"경기도","sigungu":"용인시","dong":""},{"name":"금학공영","type":"공영","category":"노외","address":"경기도 용인시 처인구 용문로 140","lat":37.23613047,"lng":127.201254,"totalSpaces":132,"isFree":false,"operatingDays":"평일+토요일+공휴일","weekdayOpen":"00:00","weekdayClose":"23:59","weekendOpen":"00:00","weekendClose":"23:59","holidayOpen":"00:00","holidayClose":"23:59","feeInfo":"기본 10분 600원 / 추가 10분당 300원","phone":"031-338-6581","updatedAt":"2025-11-19","sido":"경기도","sigungu":"용인시","dong":""},{"name":"서농동 서농도서관","type":"공영","category":"부설","address":"경기도 용인시 기흥구 서천서로 79, 83","lat":37.23797804,"lng":127.0683832,"totalSpaces":130,"isFree":false,"operatingDays":"평일+토요일+공휴일","weekdayOpen":"00:00","weekdayClose":"23:59","weekendOpen":"00:00","weekendClose":"23:59","holidayOpen":"00:00","holidayClose":"23:59","feeInfo":"기본 30분 600원 / 추가 10분당 300원","phone":"031-6193-6691","updatedAt":"2025-11-19","sido":"경기도","sigungu":"용인시","dong":""},{"name":"조정경기장","type":"공영","category":"부설","address":"경기도 용인시 기흥구 동탄기흥로 923","lat":37.24081271,"lng":127.1003992,"totalSpaces":126,"isFree":false,"operatingDays":"평일+토요일+공휴일","weekdayOpen":"00:00","weekdayClose":"23:59","weekendOpen":"00:00","weekendClose":"23:59","holidayOpen":"00:00","holidayClose":"23:59","feeInfo":"기본 30분 1,000원 / 추가 240분당 300원","phone":"031-338-6581","updatedAt":"2025-11-19","sido":"경기도","sigungu":"용인시","dong":""},{"name":"신갈동(기흥구보건소)","type":"공영","category":"부설","address":"경기도 용인시 기흥구 신갈로58번길 11","lat":37.27260603,"lng":127.1067678,"totalSpaces":119,"isFree":false,"operatingDays":"평일+토요일+공휴일","weekdayOpen":"00:00","weekdayClose":"23:59","weekendOpen":"00:00","weekendClose":"23:59","holidayOpen":"00:00","holidayClose":"23:59","feeInfo":"기본 30분 600원 / 추가 15분당 300원","phone":"031-338-6581","updatedAt":"2025-11-19","sido":"경기도","sigungu":"용인시","dong":""},{"name":"신갈 제1공영","type":"공영","category":"노외","address":"경기도 용인시 기흥구 갈천로7번길 69","lat":37.2708642,"lng":127.1068933,"totalSpaces":117,"isFree":false,"operatingDays":"평일+토요일+공휴일","weekdayOpen":"00:00","weekdayClose":"23:59","weekendOpen":"00:00","weekendClose":"23:59","holidayOpen":"00:00","holidayClose":"23:59","feeInfo":"기본 10분 600원 / 추가 10분당 300원","phone":"031-338-6581","updatedAt":"2025-11-19","sido":"경기도","sigungu":"용인시","dong":""},{"name":"처인구청","type":"공영","category":"부설","address":"경기도 용인시 처인구 금령로 50","lat":37.23437996,"lng":127.2013372,"totalSpaces":113,"isFree":false,"operatingDays":"평일+토요일+공휴일","weekdayOpen":"00:00","weekdayClose":"23:59","weekendOpen":"00:00","weekendClose":"23:59","holidayOpen":"00:00","holidayClose":"23:59","feeInfo":"기본 30분 600원 / 추가 10분당 300원","phone":"031-338-6581","updatedAt":"2025-11-19","sido":"경기도","sigungu":"용인시","dong":""},{"name":"전통시장 제2공영","type":"공영","category":"노외","address":"경기도 용인시 처인구 금령로107번길 13","lat":37.23671447,"lng":127.2078585,"totalSpaces":97,"isFree":false,"operatingDays":"평일+토요일+공휴일","weekdayOpen":"00:00","weekdayClose":"23:59","weekendOpen":"00:00","weekendClose":"23:59","holidayOpen":"00:00","holidayClose":"23:59","feeInfo":"기본 30분 600원 / 추가 10분당 300원","phone":"031-6193-3841","updatedAt":"2025-11-19","sido":"경기도","sigungu":"용인시","dong":""},{"name":"전통시장 제1공영","type":"공영","category":"노외","address":"경기도 용인시 처인구 금령로71번길 12-29","lat":37.23663279,"lng":127.2052506,"totalSpaces":94,"isFree":false,"operatingDays":"평일+토요일+공휴일","weekdayOpen":"00:00","weekdayClose":"23:59","weekendOpen":"00:00","weekendClose":"23:59","holidayOpen":"00:00","holidayClose":"23:59","feeInfo":"기본 30분 600원 / 추가 10분당 300원","phone":"031-6193-3841","updatedAt":"2025-11-19","sido":"경기도","sigungu":"용인시","dong":""},{"name":"동백2동","type":"공영","category":"부설","address":"경기도 용인시 기흥구 동백중앙로 214","lat":37.27253257,"lng":127.1516873,"totalSpaces":85,"isFree":false,"operatingDays":"평일+토요일+공휴일","weekdayOpen":"00:00","weekdayClose":"23:59","weekendOpen":"00:00","weekendClose":"23:59","holidayOpen":"00:00","holidayClose":"23:59","feeInfo":"기본 30분 600원 / 추가 10분당 300원","phone":"031-338-6581","updatedAt":"2025-11-19","sido":"경기도","sigungu":"용인시","dong":""},{"name":"유방동2공영","type":"공영","category":"노외","address":"경기도 용인시 처인구 유방동 287","lat":37.25977459,"lng":127.2166797,"totalSpaces":82,"isFree":false,"operatingDays":"평일+토요일+공휴일","weekdayOpen":"00:00","weekdayClose":"23:59","weekendOpen":"00:00","weekendClose":"23:59","holidayOpen":"00:00","holidayClose":"23:59","feeInfo":"기본 10분 400원 / 추가 10분당 100원","phone":"031-338-6581","updatedAt":"2025-11-19","sido":"경기도","sigungu":"용인시","dong":""},{"name":"둔전리 공영주차장","type":"공영","category":"노외","address":"경기도 용인시 처인구 포곡읍 포곡로108번길 13-7","lat":37.268934,"lng":127.2187625,"totalSpaces":82,"isFree":false,"operatingDays":"평일+토요일+공휴일","weekdayOpen":"00:00","weekdayClose":"23:59","weekendOpen":"00:00","weekendClose":"23:59","holidayOpen":"00:00","holidayClose":"23:59","feeInfo":"기본 10분 500원 / 추가 10분당 200원","phone":"031-338-6581","updatedAt":"2025-11-19","sido":"경기도","sigungu":"용인시","dong":""},{"name":"수지 노상","type":"공영","category":"노상","address":"경기도 용인시 수지구 풍덕천동 789","lat":37.32517597,"lng":127.0992336,"totalSpaces":81,"isFree":false,"operatingDays":"평일+토요일+공휴일","weekdayOpen":"00:00","weekdayClose":"23:59","weekendOpen":"00:00","weekendClose":"23:59","holidayOpen":"00:00","holidayClose":"23:59","feeInfo":"기본 10분 900원 / 추가 10분당 300원","phone":"031-338-6581","updatedAt":"2025-11-19","sido":"경기도","sigungu":"용인시","dong":""},{"name":"마북동","type":"공영","category":"부설","address":"경기도 용인시 기흥구 구교동로118번길 16","lat":37.3015797,"lng":127.117447,"totalSpaces":80,"isFree":false,"operatingDays":"평일+토요일+공휴일","weekdayOpen":"00:00","weekdayClose":"23:59","weekendOpen":"00:00","weekendClose":"23:59","holidayOpen":"00:00","holidayClose":"23:59","feeInfo":"기본 30분 600원 / 추가 10분당 300원","phone":"031-338-6581","updatedAt":"2025-11-19","sido":"경기도","sigungu":"용인시","dong":""},{"name":"유방동1공영","type":"공영","category":"노외","address":"경기도 용인시 처인구 유방동 288-3","lat":37.25980818,"lng":127.2156012,"totalSpaces":79,"isFree":false,"operatingDays":"평일+토요일+공휴일","weekdayOpen":"00:00","weekdayClose":"23:59","weekendOpen":"00:00","weekendClose":"23:59","holidayOpen":"00:00","holidayClose":"23:59","feeInfo":"기본 10분 400원 / 추가 10분당 100원","phone":"031-338-6581","updatedAt":"2025-11-19","sido":"경기도","sigungu":"용인시","dong":""},{"name":"이동읍","type":"공영","category":"부설","address":"경기도 용인시 처인구 이동읍 경기동로 673","lat":37.14112038,"lng":127.1961973,"totalSpaces":77,"isFree":false,"operatingDays":"평일+토요일+공휴일","weekdayOpen":"00:00","weekdayClose":"23:59","weekendOpen":"00:00","weekendClose":"23:59","holidayOpen":"00:00","holidayClose":"23:59","feeInfo":"기본 30분 600원 / 추가 10분당 300원","phone":"031-338-6581","updatedAt":"2025-11-19","sido":"경기도","sigungu":"용인시","dong":""},{"name":"죽전로(누리에뜰) 노상","type":"공영","category":"노상","address":"경기도 용인시 기흥구 보정동 1353","lat":37.32062435,"lng":127.1124653,"totalSpaces":75,"isFree":false,"operatingDays":"평일+토요일+공휴일","weekdayOpen":"00:00","weekdayClose":"23:59","weekendOpen":"00:00","weekendClose":"23:59","holidayOpen":"00:00","holidayClose":"23:59","feeInfo":"기본 10분 900원 / 추가 10분당 300원","phone":"031-338-6581","updatedAt":"2025-11-19","sido":"경기도","sigungu":"용인시","dong":""},{"name":"구성동","type":"공영","category":"부설","address":"경기도 용인시 기흥구 구성로77번길 17","lat":37.29676402,"lng":127.1189815,"totalSpaces":74,"isFree":false,"operatingDays":"평일+토요일+공휴일","weekdayOpen":"00:00","weekdayClose":"23:59","weekendOpen":"00:00","weekendClose":"23:59","holidayOpen":"00:00","holidayClose":"23:59","feeInfo":"기본 30분 600원 / 추가 10분당 300원","phone":"031-338-6581","updatedAt":"2025-11-19","sido":"경기도","sigungu":"용인시","dong":""},{"name":"중앙동행정","type":"공영","category":"부설","address":"경기도 용인시 처인구 금령로 90번길 3-20","lat":37.23506858,"lng":127.2072649,"totalSpaces":72,"isFree":false,"operatingDays":"평일+토요일+공휴일","weekdayOpen":"00:00","weekdayClose":"23:59","weekendOpen":"00:00","weekendClose":"23:59","holidayOpen":"00:00","holidayClose":"23:59","feeInfo":"기본 30분 600원 / 추가 10분당 300원","phone":"031-338-6581","updatedAt":"2025-11-19","sido":"경기도","sigungu":"용인시","dong":""},{"name":"풍덕천3공영","type":"공영","category":"노외","address":"경기도 용인시 수지구 문인로3번길 7","lat":37.3317849685,"lng":127.1024817713,"totalSpaces":67,"isFree":false,"operatingDays":"평일+토요일+공휴일","weekdayOpen":"00:00","weekdayClose":"23:59","weekendOpen":"00:00","weekendClose":"23:59","holidayOpen":"00:00","holidayClose":"23:59","feeInfo":"기본 10분 500원 / 추가 10분당 200원","phone":"031-338-6581","updatedAt":"2025-11-19","sido":"경기도","sigungu":"용인시","dong":""},{"name":"용인시민체육공원","type":"공영","category":"부설","address":"경기도 용인시 처인구 포곡읍 금어리 699-2","lat":37.2772443,"lng":127.2481301,"totalSpaces":64,"isFree":false,"operatingDays":"평일+토요일+공휴일","weekdayOpen":"00:00","weekdayClose":"23:59","weekendOpen":"00:00","weekendClose":"23:59","holidayOpen":"00:00","holidayClose":"23:59","feeInfo":"기본 30분 1,000원 / 추가 240분당 300원","phone":"","updatedAt":"2025-11-19","sido":"경기도","sigungu":"용인시","dong":""},{"name":"구갈동","type":"공영","category":"부설","address":"경기도 용인시 기흥구 강남로 23","lat":37.27242458,"lng":127.1275882,"totalSpaces":64,"isFree":false,"operatingDays":"평일+토요일+공휴일","weekdayOpen":"00:00","weekdayClose":"23:59","weekendOpen":"00:00","weekendClose":"23:59","holidayOpen":"00:00","holidayClose":"23:59","feeInfo":"기본 30분 600원 / 추가 15분당 300원","phone":"031-6193-6633","updatedAt":"2025-11-19","sido":"경기도","sigungu":"용인시","dong":""},{"name":"양지면","type":"공영","category":"부설","address":"경기도 용인시 처인구 양지면 양지리 701-9","lat":37.2354868979,"lng":127.2798389183,"totalSpaces":61,"isFree":false,"operatingDays":"평일+토요일+공휴일","weekdayOpen":"00:00","weekdayClose":"23:59","weekendOpen":"00:00","weekendClose":"23:59","holidayOpen":"00:00","holidayClose":"23:59","feeInfo":"기본 30분 600원 / 추가 10분당 300원","phone":"031-338-6581","updatedAt":"2025-11-19","sido":"경기도","sigungu":"용인시","dong":""},{"name":"마평동 노상","type":"공영","category":"노상","address":"경기도 용인시 처인구 마평동 881","lat":37.23476491,"lng":127.2102498,"totalSpaces":54,"isFree":false,"operatingDays":"평일+토요일+공휴일","weekdayOpen":"00:00","weekdayClose":"23:59","weekendOpen":"00:00","weekendClose":"23:59","holidayOpen":"00:00","holidayClose":"23:59","feeInfo":"기본 10분 900원 / 추가 10분당 300원","phone":"031-338-6581","updatedAt":"2025-11-19","sido":"경기도","sigungu":"용인시","dong":""},{"name":"보정1공영","type":"공영","category":"노외","address":"경기도 용인시 기흥구 보정동 1180","lat":37.32340738,"lng":127.1105839,"totalSpaces":53,"isFree":false,"operatingDays":"평일+토요일+공휴일","weekdayOpen":"00:00","weekdayClose":"23:59","weekendOpen":"00:00","weekendClose":"23:59","holidayOpen":"00:00","holidayClose":"23:59","feeInfo":"기본 10분 500원 / 추가 10분당 200원","phone":"031-338-6581","updatedAt":"2025-11-19","sido":"경기도","sigungu":"용인시","dong":""},{"name":"현암로 노상","type":"공영","category":"노상","address":"경기도 용인시 수지구 죽전동 1398","lat":37.33255749,"lng":127.1178964,"totalSpaces":52,"isFree":false,"operatingDays":"평일+토요일+공휴일","weekdayOpen":"00:00","weekdayClose":"23:59","weekendOpen":"00:00","weekendClose":"23:59","holidayOpen":"00:00","holidayClose":"23:59","feeInfo":"기본 10분 900원 / 추가 10분당 300원","phone":"031-338-6581","updatedAt":"2025-11-19","sido":"경기도","sigungu":"용인시","dong":""},{"name":"죽전1동","type":"공영","category":"부설","address":"경기도 용인시 수지구 대지로15번길 50","lat":37.33105012,"lng":127.1139969,"totalSpaces":52,"isFree":false,"operatingDays":"평일+토요일+공휴일","weekdayOpen":"00:00","weekdayClose":"23:59","weekendOpen":"00:00","weekendClose":"23:59","holidayOpen":"00:00","holidayClose":"23:59","feeInfo":"기본 30분 600원 / 추가 10분당 300원","phone":"031-338-6581","updatedAt":"2025-11-19","sido":"경기도","sigungu":"용인시","dong":""},{"name":"보정동","type":"공영","category":"부설","address":"경기도 용인시 기흥구 죽전로 40","lat":37.32018859,"lng":127.1130928,"totalSpaces":50,"isFree":false,"operatingDays":"평일+토요일+공휴일","weekdayOpen":"00:00","weekdayClose":"23:59","weekendOpen":"00:00","weekendClose":"23:59","holidayOpen":"00:00","holidayClose":"23:59","feeInfo":"기본 30분 600원 / 추가 15분당 300원","phone":"031-338-6581","updatedAt":"2025-11-19","sido":"경기도","sigungu":"용인시","dong":""},{"name":"역북동행정","type":"공영","category":"부설","address":"경기도 용인시 처인구 명지로 16","lat":37.23455978,"lng":127.1881482,"totalSpaces":50,"isFree":false,"operatingDays":"평일+토요일+공휴일","weekdayOpen":"00:00","weekdayClose":"23:59","weekendOpen":"00:00","weekendClose":"23:59","holidayOpen":"00:00","holidayClose":"23:59","feeInfo":"기본 30분 600원 / 추가 10분당 300원","phone":"031-338-6581","updatedAt":"2025-11-19","sido":"경기도","sigungu":"용인시","dong":""},{"name":"구갈로 노상","type":"공영","category":"노상","address":"경기도 용인시 기흥구 구갈동 280-4","lat":37.28033395,"lng":127.1120946,"totalSpaces":40,"isFree":false,"operatingDays":"평일+토요일+공휴일","weekdayOpen":"00:00","weekdayClose":"23:59","weekendOpen":"00:00","weekendClose":"23:59","holidayOpen":"00:00","holidayClose":"23:59","feeInfo":"기본 10분 900원 / 추가 10분당 300원","phone":"031-338-6581","updatedAt":"2025-11-19","sido":"경기도","sigungu":"용인시","dong":""},{"name":"수지로 노상","type":"공영","category":"노상","address":"경기도 용인시 수지구 풍덕천동 782","lat":37.32628345,"lng":127.0964155,"totalSpaces":24,"isFree":false,"operatingDays":"평일+토요일+공휴일","weekdayOpen":"00:00","weekdayClose":"23:59","weekendOpen":"00:00","weekendClose":"23:59","holidayOpen":"00:00","holidayClose":"23:59","feeInfo":"기본 10분 900원 / 추가 10분당 300원","phone":"031-338-6581","updatedAt":"2025-11-19","sido":"경기도","sigungu":"용인시","dong":""},{"name":"수지노외","type":"공영","category":"노외","address":"경기도 용인시 수지구 풍덕천동 1080-17","lat":37.32161769,"lng":127.0942639,"totalSpaces":22,"isFree":false,"operatingDays":"평일+토요일+공휴일","weekdayOpen":"00:00","weekdayClose":"23:59","weekendOpen":"00:00","weekendClose":"23:59","holidayOpen":"00:00","holidayClose":"23:59","feeInfo":"기본 10분 500원 / 추가 10분당 200원","phone":"031-338-6581","updatedAt":"2025-11-19","sido":"경기도","sigungu":"용인시","dong":""},{"name":"김량장동 임시공영","type":"공영","category":"노외","address":"경기도 용인시 처인구 김량장동 94-1","lat":37.23524994,"lng":127.207471,"totalSpaces":16,"isFree":false,"operatingDays":"평일+토요일+공휴일","weekdayOpen":"00:00","weekdayClose":"23:59","weekendOpen":"00:00","weekendClose":"23:59","holidayOpen":"00:00","holidayClose":"23:59","feeInfo":"기본 10분 600원 / 추가 10분당 300원","phone":"031-338-6581","updatedAt":"2025-11-19","sido":"경기도","sigungu":"용인시","dong":""}]}