{"sido":"경기도","sigungu":"평택시","totalCount":161,"validCount":161,"items":[{"name":"포승공단 노상 제3(대성스틸삼거리~연암교사거리","type":"공영","category":"노상","address":"경기도 평택시 포승읍 도곡리 1197","lat":36.987067,"lng":126.849988,"totalSpaces":352,"isFree":true,"operatingDays":"평일+토요일+공휴일","weekdayOpen":"00:00","weekdayClose":"23:59","weekendOpen":"00:00","weekendClose":"23:59","holidayOpen":"00:00","holidayClose":"23:59","feeInfo":"무료","phone":"031-8024-4993","updatedAt":"2025-07-01","sido":"경기도","sigungu":"평택시","dong":"포승읍"},{"name":"포승공단 노상 제6(대우공업삼거리~포승소방서)","type":"공영","category":"노상","address":"경기도 평택시 포승읍 만호리 603","lat":36.97427,"lng":126.847295,"totalSpaces":247,"isFree":true,"operatingDays":"평일+토요일+공휴일","weekdayOpen":"00:00","weekdayClose":"23:59","weekendOpen":"00:00","weekendClose":"23:59","holidayOpen":"00:00","holidayClose":"23:59","feeInfo":"무료","phone":"031-8024-4993","updatedAt":"2025-07-01","sido":"경기도","sigungu":"평택시","dong":"포승읍"},{"name":"포승공단 노상 제5(현대모비스사거리~㈜피제이알텍)","type":"공영","category":"노상","address":"경기도 평택시 포승읍 내기리 681","lat":36.974836,"lng":126.851524,"totalSpaces":212,"isFree":true,"operatingDays":"평일+토요일+공휴일","weekdayOpen":"00:00","weekdayClose":"23:59","weekendOpen":"00:00","weekendClose":"23:59","holidayOpen":"00:00","holidayClose":"23:59","feeInfo":"무료","phone":"031-8024-4993","updatedAt":"2025-07-01","sido":"경기도","sigungu":"평택시","dong":"포승읍"},{"name":"포승공단 노상 제2(여술공원사거리~현대모비스사거리)","type":"공영","category":"노상","address":"경기도 평택시 포승읍 도곡리 1164","lat":36.98862,"lng":126.841843,"totalSpaces":203,"isFree":true,"operatingDays":"평일+토요일+공휴일","weekdayOpen":"00:00","weekdayClose":"23:59","weekendOpen":"00:00","weekendClose":"23:59","holidayOpen":"00:00","holidayClose":"23:59","feeInfo":"무료","phone":"031-8024-4993","updatedAt":"2025-07-01","sido":"경기도","sigungu":"평택시","dong":"포승읍"},{"name":"부대정문～팽성주유소","type":"공영","category":"노상","address":"경기도 평택시 팽성읍 안정리 141-7","lat":36.958763,"lng":127.046395,"totalSpaces":156,"isFree":true,"operatingDays":"평일+토요일+공휴일","weekdayOpen":"00:00","weekdayClose":"23:59","weekendOpen":"00:00","weekendClose":"23:59","holidayOpen":"00:00","holidayClose":"23:59","feeInfo":"무료","phone":"031-8024-4993","updatedAt":"2025-07-01","sido":"경기도","sigungu":"평택시","dong":"팽성읍"},{"name":"세교산단","type":"공영","category":"노상","address":"경기도 평택시 세교동 548","lat":37.011794,"lng":127.082363,"totalSpaces":149,"isFree":true,"operatingDays":"평일+토요일+공휴일","weekdayOpen":"00:00","weekdayClose":"23:59","weekendOpen":"00:00","weekendClose":"23:59","holidayOpen":"00:00","holidayClose":"23:59","feeInfo":"무료","phone":"031-8024-4993","updatedAt":"2025-07-01","sido":"경기도","sigungu":"평택시","dong":"세교동"},{"name":"송탄임시화물 공영주차장","type":"공영","category":"노외","address":"경기도 평택시 신장동 502","lat":37.087265,"lng":127.060358,"totalSpaces":145,"isFree":true,"operatingDays":"평일+토요일+공휴일","weekdayOpen":"00:00","weekdayClose":"23:59","weekendOpen":"00:00","weekendClose":"23:59","holidayOpen":"00:00","holidayClose":"23:59","feeInfo":"무료","phone":"031-8024-4993","updatedAt":"2025-07-01","sido":"경기도","sigungu":"평택시","dong":"신장동"},{"name":"포승공단 노상 제4(케이엠제약㈜~㈜한국기업)","type":"공영","category":"노상","address":"경기도 평택시 포승읍 도곡리 1212","lat":36.984516,"lng":126.851185,"totalSpaces":135,"isFree":true,"operatingDays":"평일+토요일+공휴일","weekdayOpen":"00:00","weekdayClose":"23:59","weekendOpen":"00:00","weekendClose":"23:59","holidayOpen":"00:00","holidayClose":"23:59","feeInfo":"무료","phone":"031-8024-4993","updatedAt":"2025-07-01","sido":"경기도","sigungu":"평택시","dong":"포승읍"},{"name":"진위 2산단","type":"공영","category":"노상","address":"경기도 평택시 진위면 갈곶리 761","lat":37.122896,"lng":127.075803,"totalSpaces":131,"isFree":true,"operatingDays":"평일+토요일+공휴일","weekdayOpen":"00:00","weekdayClose":"23:59","weekendOpen":"00:00","weekendClose":"23:59","holidayOpen":"00:00","holidayClose":"23:59","feeInfo":"무료","phone":"031-8024-4993","updatedAt":"2025-07-01","sido":"경기도","sigungu":"평택시","dong":"진위면"},{"name":"현곡산단 내","type":"공영","category":"노상","address":"경기도 평택시 청북읍 현곡리 475","lat":37.034154,"lng":126.943132,"totalSpaces":128,"isFree":true,"operatingDays":"평일+토요일+공휴일","weekdayOpen":"00:00","weekdayClose":"23:59","weekendOpen":"00:00","weekendClose":"23:59","holidayOpen":"00:00","holidayClose":"23:59","feeInfo":"무료","phone":"031-8024-4993","updatedAt":"2025-07-01","sido":"경기도","sigungu":"평택시","dong":"청북읍"},{"name":"서정충혼탑 공영주차장","type":"공영","category":"노외","address":"경기도 평택시 서정동 1134","lat":37.0698784901,"lng":127.0597550948,"totalSpaces":127,"isFree":true,"operatingDays":"평일+토요일+공휴일","weekdayOpen":"00:00","weekdayClose":"23:59","weekendOpen":"00:00","weekendClose":"23:59","holidayOpen":"00:00","holidayClose":"23:59","feeInfo":"무료","phone":"031-8024-4993","updatedAt":"2025-07-01","sido":"경기도","sigungu":"평택시","dong":"서정동"},{"name":"포승공단 노상 제1(포승옥~메트로카운티)","type":"공영","category":"노상","address":"경기도 평택시 포승읍 도곡리 1174","lat":36.988275,"lng":126.844828,"totalSpaces":109,"isFree":true,"operatingDays":"평일+토요일+공휴일","weekdayOpen":"00:00","weekdayClose":"23:59","weekendOpen":"00:00","weekendClose":"23:59","holidayOpen":"00:00","holidayClose":"23:59","feeInfo":"무료","phone":"031-8024-4993","updatedAt":"2025-07-01","sido":"경기도","sigungu":"평택시","dong":"포승읍"},{"name":"안중 제1공영주차장","type":"공영","category":"노외","address":"경기도 평택시 안중읍 안중리 302-1","lat":36.984987,"lng":126.92965,"totalSpaces":78,"isFree":true,"operatingDays":"평일+토요일+공휴일","weekdayOpen":"00:00","weekdayClose":"23:59","weekendOpen":"00:00","weekendClose":"23:59","holidayOpen":"00:00","holidayClose":"23:59","feeInfo":"무료","phone":"031-8024-4993","updatedAt":"2025-07-01","sido":"경기도","sigungu":"평택시","dong":"안중읍"},{"name":"고덕 1-3 노상","type":"공영","category":"노상","address":"경기도 평택시 고덕동 2197","lat":37.038515,"lng":127.045625,"totalSpaces":72,"isFree":true,"operatingDays":"평일+토요일+공휴일","weekdayOpen":"00:00","weekdayClose":"23:59","weekendOpen":"00:00","weekendClose":"23:59","holidayOpen":"00:00","holidayClose":"23:59","feeInfo":"무료","phone":"031-8024-4993","updatedAt":"2025-07-01","sido":"경기도","sigungu":"평택시","dong":"고덕동"},{"name":"합정동(조개터)","type":"공영","category":"노상","address":"경기도 평택시 합정동 954","lat":36.989014,"lng":127.102267,"totalSpaces":68,"isFree":true,"operatingDays":"평일+토요일+공휴일","weekdayOpen":"00:00","weekdayClose":"23:59","weekendOpen":"00:00","weekendClose":"23:59","holidayOpen":"00:00","holidayClose":"23:59","feeInfo":"무료","phone":"031-8024-4993","updatedAt":"2025-07-01","sido":"경기도","sigungu":"평택시","dong":"합정동"},{"name":"KT～충혼탑 입구","type":"공영","category":"노상","address":"경기도 평택시 비전동 251-1","lat":36.995095,"lng":127.101603,"totalSpaces":66,"isFree":true,"operatingDays":"평일+토요일+공휴일","weekdayOpen":"00:00","weekdayClose":"23:59","weekendOpen":"00:00","weekendClose":"23:59","holidayOpen":"00:00","holidayClose":"23:59","feeInfo":"무료","phone":"031-8024-4993","updatedAt":"2025-07-01","sido":"경기도","sigungu":"평택시","dong":"비전동"},{"name":"현화택지 제1공영주차장","type":"공영","category":"노외","address":"경기도 평택시 안중읍 현화리 852","lat":36.983541,"lng":126.927551,"totalSpaces":63,"isFree":true,"operatingDays":"평일+토요일+공휴일","weekdayOpen":"00:00","weekdayClose":"23:59","weekendOpen":"00:00","weekendClose":"23:59","holidayOpen":"00:00","holidayClose":"23:59","feeInfo":"무료","phone":"031-8024-4993","updatedAt":"2025-07-01","sido":"경기도","sigungu":"평택시","dong":"안중읍"},{"name":"안중오거리 공영주차장","type":"공영","category":"노외","address":"경기도 평택시 안중읍 안중리 245-55","lat":36.9907,"lng":126.928235,"totalSpaces":62,"isFree":true,"operatingDays":"평일+토요일+공휴일","weekdayOpen":"00:00","weekdayClose":"23:59","weekendOpen":"00:00","weekendClose":"23:59","holidayOpen":"00:00","holidayClose":"23:59","feeInfo":"무료","phone":"031-8024-4993","updatedAt":"2025-07-01","sido":"경기도","sigungu":"평택시","dong":"안중읍"},{"name":"이충고등학교 인근","type":"공영","category":"노상","address":"경기도 평택시 이충동 648","lat":37.057385,"lng":127.063612,"totalSpaces":60,"isFree":true,"operatingDays":"평일+토요일+공휴일","weekdayOpen":"00:00","weekdayClose":"23:59","weekendOpen":"00:00","weekendClose":"23:59","holidayOpen":"00:00","holidayClose":"23:59","feeInfo":"무료","phone":"031-8024-4993","updatedAt":"2025-07-01","sido":"경기도","sigungu":"평택시","dong":"이충동"},{"name":"현화택지 제4공영주차장","type":"공영","category":"노외","address":"경기도 평택시 안중읍 현화리 833-1","lat":36.978633,"lng":126.920088,"totalSpaces":60,"isFree":true,"operatingDays":"평일+토요일+공휴일","weekdayOpen":"00:00","weekdayClose":"23:59","weekendOpen":"00:00","weekendClose":"23:59","holidayOpen":"00:00","holidayClose":"23:59","feeInfo":"무료","phone":"031-8024-4993","updatedAt":"2025-07-01","sido":"경기도","sigungu":"평택시","dong":"안중읍"},{"name":"외인(아) 뒤～세경,동산(아) 사이","type":"공영","category":"노상","address":"경기도 평택시 서정동 624","lat":37.069602,"lng":127.061685,"totalSpaces":56,"isFree":true,"operatingDays":"평일+토요일+공휴일","weekdayOpen":"00:00","weekdayClose":"23:59","weekendOpen":"00:00","weekendClose":"23:59","holidayOpen":"00:00","holidayClose":"23:59","feeInfo":"무료","phone":"031-8024-4993","updatedAt":"2025-07-01","sido":"경기도","sigungu":"평택시","dong":"서정동"},{"name":"고덕 1-6 노상","type":"공영","category":"노상","address":"경기도 평택시 고덕동 2097","lat":37.04279,"lng":127.051824,"totalSpaces":56,"isFree":true,"operatingDays":"평일+토요일+공휴일","weekdayOpen":"00:00","weekdayClose":"23:59","weekendOpen":"00:00","weekendClose":"23:59","holidayOpen":"00:00","holidayClose":"23:59","feeInfo":"무료","phone":"031-8024-4993","updatedAt":"2025-07-01","sido":"경기도","sigungu":"평택시","dong":"고덕동"},{"name":"고덕 1-7 노상","type":"공영","category":"노상","address":"경기도 평택시 고덕동 2087","lat":37.042138,"lng":127.052722,"totalSpaces":56,"isFree":true,"operatingDays":"평일+토요일+공휴일","weekdayOpen":"00:00","weekdayClose":"23:59","weekendOpen":"00:00","weekendClose":"23:59","holidayOpen":"00:00","holidayClose":"23:59","feeInfo":"무료","phone":"031-8024-4993","updatedAt":"2025-07-01","sido":"경기도","sigungu":"평택시","dong":"고덕동"},{"name":"고덕 1766노상","type":"공영","category":"노상","address":"경기도 평택시 고덕동 1766 일원","lat":37.042138,"lng":127.052722,"totalSpaces":56,"isFree":true,"operatingDays":"평일+토요일+공휴일","weekdayOpen":"00:00","weekdayClose":"23:59","weekendOpen":"00:00","weekendClose":"23:59","holidayOpen":"00:00","holidayClose":"23:59","feeInfo":"무료","phone":"031-8024-4993","updatedAt":"2025-07-01","sido":"경기도","sigungu":"평택시","dong":"고덕동"},{"name":"평택종합불교사~서광자동차공업사","type":"공영","category":"노상","address":"경기도 평택시 평택동 80-1","lat":36.992312,"lng":127.082044,"totalSpaces":55,"isFree":true,"operatingDays":"평일+토요일+공휴일","weekdayOpen":"00:00","weekdayClose":"23:59","weekendOpen":"00:00","weekendClose":"23:59","holidayOpen":"00:00","holidayClose":"23:59","feeInfo":"무료","phone":"031-8024-4993","updatedAt":"2025-07-01","sido":"경기도","sigungu":"평택시","dong":"평택동"},{"name":"안중송담 제1공영주차장","type":"공영","category":"노외","address":"경기도 평택시 안중읍 송담리 853-7","lat":36.977006,"lng":126.9266,"totalSpaces":52,"isFree":true,"operatingDays":"평일+토요일+공휴일","weekdayOpen":"00:00","weekdayClose":"23:59","weekendOpen":"00:00","weekendClose":"23:59","holidayOpen":"00:00","holidayClose":"23:59","feeInfo":"무료","phone":"031-8024-4993","updatedAt":"2025-07-01","sido":"경기도","sigungu":"평택시","dong":"안중읍"},{"name":"일신가든～캐피탈호텔","type":"공영","category":"노상","address":"경기도 평택시 신장동 269-111","lat":37.073468,"lng":127.048653,"totalSpaces":51,"isFree":true,"operatingDays":"평일+토요일+공휴일","weekdayOpen":"00:00","weekdayClose":"23:59","weekendOpen":"00:00","weekendClose":"23:59","holidayOpen":"00:00","holidayClose":"23:59","feeInfo":"무료","phone":"031-8024-4993","updatedAt":"2025-07-01","sido":"경기도","sigungu":"평택시","dong":"신장동"},{"name":"현화택지 제5공영주차장","type":"공영","category":"노외","address":"경기도 평택시 안중읍 현화리 832-1","lat":36.979281,"lng":126.919939,"totalSpaces":51,"isFree":true,"operatingDays":"평일+토요일+공휴일","weekdayOpen":"00:00","weekdayClose":"23:59","weekendOpen":"00:00","weekendClose":"23:59","holidayOpen":"00:00","holidayClose":"23:59","feeInfo":"무료","phone":"031-8024-4993","updatedAt":"2025-07-01","sido":"경기도","sigungu":"평택시","dong":"안중읍"},{"name":"고잔공영주차장","type":"공영","category":"노외","address":"경기도 평택시 신대동 418-2","lat":36.995436,"lng":127.067058,"totalSpaces":50,"isFree":true,"operatingDays":"평일+토요일+공휴일","weekdayOpen":"00:00","weekdayClose":"23:59","weekendOpen":"00:00","weekendClose":"23:59","holidayOpen":"00:00","holidayClose":"23:59","feeInfo":"무료","phone":"031-8024-4993","updatedAt":"2025-07-01","sido":"경기도","sigungu":"평택시","dong":"신대동"},{"name":"시장로터리～통복동사무소 앞","type":"공영","category":"노상","address":"경기도 평택시 통복동 16-1(통복시장로 47번길)","lat":36.997576,"lng":127.088225,"totalSpaces":47,"isFree":true,"operatingDays":"평일+토요일+공휴일","weekdayOpen":"00:00","weekdayClose":"23:59","weekendOpen":"00:00","weekendClose":"23:59","holidayOpen":"00:00","holidayClose":"23:59","feeInfo":"무료","phone":"031-8024-4993","updatedAt":"2025-07-01","sido":"경기도","sigungu":"평택시","dong":"통복동"},{"name":"이충동 공영주차장","type":"공영","category":"노외","address":"경기도 평택시 이충동 591-1","lat":37.064403,"lng":127.067464,"totalSpaces":47,"isFree":true,"operatingDays":"평일+토요일+공휴일","weekdayOpen":"00:00","weekdayClose":"23:59","weekendOpen":"00:00","weekendClose":"23:59","holidayOpen":"00:00","holidayClose":"23:59","feeInfo":"무료","phone":"031-8024-4993","updatedAt":"2025-07-01","sido":"경기도","sigungu":"평택시","dong":"이충동"},{"name":"서두물공영～충혼탑공영","type":"공영","category":"노상","address":"경기도 평택시 서정동 932","lat":37.064345,"lng":127.060748,"totalSpaces":45,"isFree":true,"operatingDays":"평일+토요일+공휴일","weekdayOpen":"00:00","weekdayClose":"23:59","weekendOpen":"00:00","weekendClose":"23:59","holidayOpen":"00:00","holidayClose":"23:59","feeInfo":"무료","phone":"031-8024-4993","updatedAt":"2025-07-01","sido":"경기도","sigungu":"평택시","dong":"서정동"},{"name":"신안당안경～신장육교","type":"공영","category":"노상","address":"경기도 평택시 신장동 204-84","lat":37.080116,"lng":127.054001,"totalSpaces":43,"isFree":true,"operatingDays":"평일+토요일+공휴일","weekdayOpen":"00:00","weekdayClose":"23:59","weekendOpen":"00:00","weekendClose":"23:59","holidayOpen":"00:00","holidayClose":"23:59","feeInfo":"무료","phone":"031-8024-4993","updatedAt":"2025-07-01","sido":"경기도","sigungu":"평택시","dong":"신장동"},{"name":"지제역 서측","type":"공영","category":"노상","address":"경기도 평택시 지제동 37-5","lat":37.018689,"lng":127.068472,"totalSpaces":43,"isFree":true,"operatingDays":"평일+토요일+공휴일","weekdayOpen":"00:00","weekdayClose":"23:59","weekendOpen":"00:00","weekendClose":"23:59","holidayOpen":"00:00","holidayClose":"23:59","feeInfo":"무료","phone":"031-8024-4993","updatedAt":"2025-07-01","sido":"경기도","sigungu":"평택시","dong":"지제동"},{"name":"한신탕앞사거리~주공3단지사거리","type":"공영","category":"노상","address":"경기도 평택시 평택동 305","lat":36.990412,"lng":127.088125,"totalSpaces":43,"isFree":true,"operatingDays":"평일+토요일+공휴일","weekdayOpen":"00:00","weekdayClose":"23:59","weekendOpen":"00:00","weekendClose":"23:59","holidayOpen":"00:00","holidayClose":"23:59","feeInfo":"무료","phone":"031-8024-4993","updatedAt":"2025-07-01","sido":"경기도","sigungu":"평택시","dong":"평택동"},{"name":"K-55 정문 앞～미도아파트","type":"공영","category":"노상","address":"경기도 평택시 신장동 306-248","lat":37.082085,"lng":127.049461,"totalSpaces":42,"isFree":true,"operatingDays":"평일+토요일+공휴일","weekdayOpen":"00:00","weekdayClose":"23:59","weekendOpen":"00:00","weekendClose":"23:59","holidayOpen":"00:00","holidayClose":"23:59","feeInfo":"무료","phone":"031-8024-4993","updatedAt":"2025-07-01","sido":"경기도","sigungu":"평택시","dong":"신장동"},{"name":"고덕 1-1 노상","type":"공영","category":"노상","address":"경기도 평택시 고덕동 2250","lat":37.036688,"lng":127.043009,"totalSpaces":42,"isFree":true,"operatingDays":"평일+토요일+공휴일","weekdayOpen":"00:00","weekdayClose":"23:59","weekendOpen":"00:00","weekendClose":"23:59","holidayOpen":"00:00","holidayClose":"23:59","feeInfo":"무료","phone":"031-8024-4993","updatedAt":"2025-07-01","sido":"경기도","sigungu":"평택시","dong":"고덕동"},{"name":"비전성당～동부공원 앞","type":"공영","category":"노상","address":"경기도 평택시 비전동 882-1","lat":36.993315,"lng":127.118342,"totalSpaces":41,"isFree":true,"operatingDays":"평일+토요일+공휴일","weekdayOpen":"00:00","weekdayClose":"23:59","weekendOpen":"00:00","weekendClose":"23:59","holidayOpen":"00:00","holidayClose":"23:59","feeInfo":"무료","phone":"031-8024-4993","updatedAt":"2025-07-01","sido":"경기도","sigungu":"평택시","dong":"비전동"},{"name":"BYC 건물～시청 후문","type":"공영","category":"노상","address":"경기도 평택시 비전동 862","lat":36.993361,"lng":127.113042,"totalSpaces":39,"isFree":true,"operatingDays":"평일+토요일+공휴일","weekdayOpen":"00:00","weekdayClose":"23:59","weekendOpen":"00:00","weekendClose":"23:59","holidayOpen":"00:00","holidayClose":"23:59","feeInfo":"무료","phone":"031-8024-4993","updatedAt":"2025-07-01","sido":"경기도","sigungu":"평택시","dong":"비전동"},{"name":"장미타운 앞","type":"공영","category":"노상","address":"경기도 평택시 세교동 433-26","lat":37.008076,"lng":127.077378,"totalSpaces":39,"isFree":true,"operatingDays":"평일+토요일+공휴일","weekdayOpen":"00:00","weekdayClose":"23:59","weekendOpen":"00:00","weekendClose":"23:59","holidayOpen":"00:00","holidayClose":"23:59","feeInfo":"무료","phone":"031-8024-4993","updatedAt":"2025-07-01","sido":"경기도","sigungu":"평택시","dong":"세교동"},{"name":"고덕 1-2 노상","type":"공영","category":"노상","address":"경기도 평택시 고덕동 2244","lat":37.036396,"lng":127.043831,"totalSpaces":39,"isFree":true,"operatingDays":"평일+토요일+공휴일","weekdayOpen":"00:00","weekdayClose":"23:59","weekendOpen":"00:00","weekendClose":"23:59","holidayOpen":"00:00","holidayClose":"23:59","feeInfo":"무료","phone":"031-8024-4993","updatedAt":"2025-07-01","sido":"경기도","sigungu":"평택시","dong":"고덕동"},{"name":"하나로마트 앞","type":"공영","category":"노상","address":"경기도 평택시 세교동 255","lat":37.004466,"lng":127.080547,"totalSpaces":38,"isFree":true,"operatingDays":"평일+토요일+공휴일","weekdayOpen":"00:00","weekdayClose":"23:59","weekendOpen":"00:00","weekendClose":"23:59","holidayOpen":"00:00","holidayClose":"23:59","feeInfo":"무료","phone":"031-8024-4993","updatedAt":"2025-07-01","sido":"경기도","sigungu":"평택시","dong":"세교동"},{"name":"고덕 1-5 노상","type":"공영","category":"노상","address":"경기도 평택시 고덕동 2144","lat":37.041456,"lng":127.049807,"totalSpaces":38,"isFree":true,"operatingDays":"평일+토요일+공휴일","weekdayOpen":"00:00","weekdayClose":"23:59","weekendOpen":"00:00","weekendClose":"23:59","holidayOpen":"00:00","holidayClose":"23:59","feeInfo":"무료","phone":"031-8024-4993","updatedAt":"2025-07-01","sido":"경기도","sigungu":"평택시","dong":"고덕동"},{"name":"안중송담 제2공영주차장","type":"공영","category":"노외","address":"경기도 평택시 안중읍 송담리 843-6","lat":36.979092,"lng":126.9270249093,"totalSpaces":37,"isFree":true,"operatingDays":"평일+토요일+공휴일","weekdayOpen":"00:00","weekdayClose":"23:59","weekendOpen":"00:00","weekendClose":"23:59","holidayOpen":"00:00","holidayClose":"23:59","feeInfo":"무료","phone":"031-8024-4993","updatedAt":"2025-07-01","sido":"경기도","sigungu":"평택시","dong":"안중읍"},{"name":"안중노상(경기물류고 옆)","type":"공영","category":"노상","address":"경기도 평택시 안중읍 안중리 266-22","lat":36.987763,"lng":126.929645,"totalSpaces":36,"isFree":true,"operatingDays":"평일+토요일+공휴일","weekdayOpen":"00:00","weekdayClose":"23:59","weekendOpen":"00:00","weekendClose":"23:59","holidayOpen":"00:00","holidayClose":"23:59","feeInfo":"무료","phone":"031-8024-4993","updatedAt":"2025-07-01","sido":"경기도","sigungu":"평택시","dong":"안중읍"},{"name":"충혼탑 입구～한광고 앞 사거리","type":"공영","category":"노상","address":"경기도 평택시 비전동 775","lat":36.994625,"lng":127.098455,"totalSpaces":34,"isFree":true,"operatingDays":"평일+토요일+공휴일","weekdayOpen":"00:00","weekdayClose":"23:59","weekendOpen":"00:00","weekendClose":"23:59","holidayOpen":"00:00","holidayClose":"23:59","feeInfo":"무료","phone":"031-8024-4993","updatedAt":"2025-07-01","sido":"경기도","sigungu":"평택시","dong":"비전동"},{"name":"평택항 임시화물공영주차장","type":"공영","category":"노상","address":"경기도 평택시 포승읍 만호리 340-21","lat":36.953164,"lng":126.8533996326,"totalSpaces":34,"isFree":true,"operatingDays":"평일+토요일+공휴일","weekdayOpen":"00:00","weekdayClose":"23:59","weekendOpen":"00:00","weekendClose":"23:59","holidayOpen":"00:00","holidayClose":"23:59","feeInfo":"무료","phone":"031-8024-4993","updatedAt":"2025-07-01","sido":"경기도","sigungu":"평택시","dong":"포승읍"},{"name":"안중송담 제3공영주차장","type":"공영","category":"노외","address":"경기도 평택시 안중읍 안중리 463-5","lat":36.983331,"lng":126.932936,"totalSpaces":34,"isFree":true,"operatingDays":"평일+토요일+공휴일","weekdayOpen":"00:00","weekdayClose":"23:59","weekendOpen":"00:00","weekendClose":"23:59","holidayOpen":"00:00","holidayClose":"23:59","feeInfo":"무료","phone":"031-8024-4993","updatedAt":"2025-07-01","sido":"경기도","sigungu":"평택시","dong":"안중읍"},{"name":"외기노조A지구 아파트 인근","type":"공영","category":"노상","address":"경기도 평택시 비전동 272-34","lat":36.996802,"lng":127.105011,"totalSpaces":32,"isFree":true,"operatingDays":"평일+토요일+공휴일","weekdayOpen":"00:00","weekdayClose":"23:59","weekendOpen":"00:00","weekendClose":"23:59","holidayOpen":"00:00","holidayClose":"23:59","feeInfo":"무료","phone":"031-8024-4993","updatedAt":"2025-07-01","sido":"경기도","sigungu":"평택시","dong":"비전동"},{"name":"신대 노상 1-183호선(8면), 2-358호선(24면)","type":"공영","category":"노상","address":"경기도 평택시 신대동 128-6","lat":37.001385,"lng":127.075591,"totalSpaces":32,"isFree":true,"operatingDays":"평일+토요일+공휴일","weekdayOpen":"00:00","weekdayClose":"23:59","weekendOpen":"00:00","weekendClose":"23:59","holidayOpen":"00:00","holidayClose":"23:59","feeInfo":"무료","phone":"031-8024-4993","updatedAt":"2025-07-01","sido":"경기도","sigungu":"평택시","dong":"신대동"},{"name":"팽성읍농성공영주차장","type":"공영","category":"노외","address":"경기도 평택시 팽성읍 안정리 42-14","lat":36.964495,"lng":127.045635,"totalSpaces":32,"isFree":true,"operatingDays":"평일+토요일+공휴일","weekdayOpen":"00:00","weekdayClose":"23:59","weekendOpen":"00:00","weekendClose":"23:59","holidayOpen":"00:00","holidayClose":"23:59","feeInfo":"무료","phone":"031-8024-4993","updatedAt":"2025-07-01","sido":"경기도","sigungu":"평택시","dong":"팽성읍"},{"name":"안중 제2공영주차장","type":"공영","category":"노외","address":"경기도 평택시 안중읍 안중리 245-9","lat":36.989646,"lng":126.926015,"totalSpaces":31,"isFree":true,"operatingDays":"평일+토요일+공휴일","weekdayOpen":"00:00","weekdayClose":"23:59","weekendOpen":"00:00","weekendClose":"23:59","holidayOpen":"00:00","holidayClose":"23:59","feeInfo":"무료","phone":"031-8024-4993","updatedAt":"2025-07-01","sido":"경기도","sigungu":"평택시","dong":"안중읍"},{"name":"송탄서점~우정사우나","type":"공영","category":"노상","address":"경기도 평택시 서정동 924","lat":37.069025,"lng":127.063456,"totalSpaces":30,"isFree":true,"operatingDays":"평일+토요일+공휴일","weekdayOpen":"00:00","weekdayClose":"23:59","weekendOpen":"00:00","weekendClose":"23:59","holidayOpen":"00:00","holidayClose":"23:59","feeInfo":"무료","phone":"031-8024-4993","updatedAt":"2025-07-01","sido":"경기도","sigungu":"평택시","dong":"서정동"},{"name":"성세병원 앞","type":"공영","category":"노상","address":"경기도 평택시 서정동 946","lat":37.070564,"lng":127.057077,"totalSpaces":30,"isFree":true,"operatingDays":"평일+토요일+공휴일","weekdayOpen":"00:00","weekdayClose":"23:59","weekendOpen":"00:00","weekendClose":"23:59","holidayOpen":"00:00","holidayClose":"23:59","feeInfo":"무료","phone":"031-8024-4993","updatedAt":"2025-07-01","sido":"경기도","sigungu":"평택시","dong":"서정동"},{"name":"송탄역 고가 밑(지산동)","type":"공영","category":"노상","address":"경기도 평택시 신장동 224-13","lat":37.079042,"lng":127.054367,"totalSpaces":30,"isFree":true,"operatingDays":"평일+토요일+공휴일","weekdayOpen":"00:00","weekdayClose":"23:59","weekendOpen":"00:00","weekendClose":"23:59","holidayOpen":"00:00","holidayClose":"23:59","feeInfo":"무료","phone":"031-8024-4993","updatedAt":"2025-07-01","sido":"경기도","sigungu":"평택시","dong":"신장동"},{"name":"합정3-5공영주차장","type":"공영","category":"노외","address":"경기도 평택시 합정동 868-4","lat":36.989609,"lng":127.115718,"totalSpaces":30,"isFree":true,"operatingDays":"평일+토요일+공휴일","weekdayOpen":"00:00","weekdayClose":"23:59","weekendOpen":"00:00","weekendClose":"23:59","holidayOpen":"00:00","holidayClose":"23:59","feeInfo":"무료","phone":"031-8024-4993","updatedAt":"2025-07-01","sido":"경기도","sigungu":"평택시","dong":"합정동"},{"name":"쌍용기숙사 입구","type":"공영","category":"노상","address":"경기도 평택시 칠괴동 산14-20","lat":37.034034,"lng":127.097013,"totalSpaces":27,"isFree":true,"operatingDays":"평일+토요일+공휴일","weekdayOpen":"00:00","weekdayClose":"23:59","weekendOpen":"00:00","weekendClose":"23:59","holidayOpen":"00:00","holidayClose":"23:59","feeInfo":"무료","phone":"031-8024-4993","updatedAt":"2025-07-01","sido":"경기도","sigungu":"평택시","dong":"칠괴동"},{"name":"배미 노상(합정동 979, 983)","type":"공영","category":"노상","address":"경기도 평택시 합정동 979","lat":36.989763,"lng":127.113627,"totalSpaces":26,"isFree":true,"operatingDays":"평일+토요일+공휴일","weekdayOpen":"00:00","weekdayClose":"23:59","weekendOpen":"00:00","weekendClose":"23:59","holidayOpen":"00:00","holidayClose":"23:59","feeInfo":"무료","phone":"031-8024-4993","updatedAt":"2025-07-01","sido":"경기도","sigungu":"평택시","dong":"합정동"},{"name":"현화택지 제2공영주차장","type":"공영","category":"노외","address":"경기도 평택시 안중읍 현화리 835-6","lat":36.978432,"lng":126.922439,"totalSpaces":26,"isFree":true,"operatingDays":"평일+토요일+공휴일","weekdayOpen":"00:00","weekdayClose":"23:59","weekendOpen":"00:00","weekendClose":"23:59","holidayOpen":"00:00","holidayClose":"23:59","feeInfo":"무료","phone":"031-8024-4993","updatedAt":"2025-07-01","sido":"경기도","sigungu":"평택시","dong":"안중읍"},{"name":"한광고 앞 사거리～재랭이고개 사거리","type":"공영","category":"노상","address":"경기도 평택시 비전동 608-21","lat":36.996621,"lng":127.092871,"totalSpaces":25,"isFree":true,"operatingDays":"평일+토요일+공휴일","weekdayOpen":"00:00","weekdayClose":"23:59","weekendOpen":"00:00","weekendClose":"23:59","holidayOpen":"00:00","holidayClose":"23:59","feeInfo":"무료","phone":"031-8024-4993","updatedAt":"2025-07-01","sido":"경기도","sigungu":"평택시","dong":"비전동"},{"name":"충혼탑~제창당한의원","type":"공영","category":"노상","address":"경기도 평택시 비전동 743-11","lat":36.994807,"lng":127.098416,"totalSpaces":25,"isFree":true,"operatingDays":"평일+토요일+공휴일","weekdayOpen":"00:00","weekdayClose":"23:59","weekendOpen":"00:00","weekendClose":"23:59","holidayOpen":"00:00","holidayClose":"23:59","feeInfo":"무료","phone":"031-8024-4993","updatedAt":"2025-07-01","sido":"경기도","sigungu":"평택시","dong":"비전동"},{"name":"고덕 2348 노상","type":"공영","category":"노상","address":"경기도 평택시 고덕동 2348 일원","lat":37.042138,"lng":127.052722,"totalSpaces":25,"isFree":true,"operatingDays":"평일+토요일+공휴일","weekdayOpen":"00:00","weekdayClose":"23:59","weekendOpen":"00:00","weekendClose":"23:59","holidayOpen":"00:00","holidayClose":"23:59","feeInfo":"무료","phone":"031-8024-4993","updatedAt":"2025-07-01","sido":"경기도","sigungu":"평택시","dong":"고덕동"},{"name":"군문동 공영주차장","type":"공영","category":"노외","address":"경기도 평택시 군문동 353","lat":36.987539,"lng":127.087415,"totalSpaces":25,"isFree":true,"operatingDays":"평일+토요일+공휴일","weekdayOpen":"00:00","weekdayClose":"23:59","weekendOpen":"00:00","weekendClose":"23:59","holidayOpen":"00:00","holidayClose":"23:59","feeInfo":"무료","phone":"031-8024-4993","updatedAt":"2025-07-01","sido":"경기도","sigungu":"평택시","dong":"군문동"},{"name":"세교지구 공영주차장","type":"공영","category":"노외","address":"경기도 평택시 세교동 14-3","lat":37.0066,"lng":127.0884,"totalSpaces":25,"isFree":true,"operatingDays":"평일+토요일+공휴일","weekdayOpen":"00:00","weekdayClose":"23:59","weekendOpen":"00:00","weekendClose":"23:59","holidayOpen":"00:00","holidayClose":"23:59","feeInfo":"무료","phone":"031-8024-4993","updatedAt":"2025-07-01","sido":"경기도","sigungu":"평택시","dong":"세교동"},{"name":"적봉지구 공영주차장","type":"공영","category":"노외","address":"경기도 평택시 서정동 973","lat":37.077785,"lng":127.042234,"totalSpaces":25,"isFree":true,"operatingDays":"평일+토요일+공휴일","weekdayOpen":"00:00","weekdayClose":"23:59","weekendOpen":"00:00","weekendClose":"23:59","holidayOpen":"00:00","holidayClose":"23:59","feeInfo":"무료","phone":"031-8024-4993","updatedAt":"2025-07-01","sido":"경기도","sigungu":"평택시","dong":"서정동"},{"name":"신대동공영주차장","type":"공영","category":"노외","address":"경기도 평택시 신대동 125-4","lat":37.000651,"lng":127.076797,"totalSpaces":25,"isFree":true,"operatingDays":"평일+토요일+공휴일","weekdayOpen":"00:00","weekdayClose":"23:59","weekendOpen":"00:00","weekendClose":"23:59","holidayOpen":"00:00","holidayClose":"23:59","feeInfo":"무료","phone":"031-8024-4993","updatedAt":"2025-07-01","sido":"경기도","sigungu":"평택시","dong":"신대동"},{"name":"기계공고사거리～시장로터리","type":"공영","category":"노상","address":"경기도 평택시 통복동 16-1(중앙1로)","lat":36.997576,"lng":127.088225,"totalSpaces":24,"isFree":true,"operatingDays":"평일+토요일+공휴일","weekdayOpen":"00:00","weekdayClose":"23:59","weekendOpen":"00:00","weekendClose":"23:59","holidayOpen":"00:00","holidayClose":"23:59","feeInfo":"무료","phone":"031-8024-4993","updatedAt":"2025-07-01","sido":"경기도","sigungu":"평택시","dong":"통복동"},{"name":"화촌공영주차장","type":"공영","category":"노외","address":"경기도 평택시 통복동 242-5","lat":36.992356,"lng":127.072721,"totalSpaces":24,"isFree":true,"operatingDays":"평일+토요일+공휴일","weekdayOpen":"00:00","weekdayClose":"23:59","weekendOpen":"00:00","weekendClose":"23:59","holidayOpen":"00:00","holidayClose":"23:59","feeInfo":"무료","phone":"031-8024-4993","updatedAt":"2025-07-01","sido":"경기도","sigungu":"평택시","dong":"통복동"},{"name":"남산이주단지 공영주차장","type":"공영","category":"노외","address":"경기도 평택시 팽성읍 남산리 563-5","lat":36.9537577232,"lng":127.0638291517,"totalSpaces":24,"isFree":true,"operatingDays":"평일+토요일+공휴일","weekdayOpen":"00:00","weekdayClose":"23:59","weekendOpen":"00:00","weekendClose":"23:59","holidayOpen":"00:00","holidayClose":"23:59","feeInfo":"무료","phone":"031-8024-4993","updatedAt":"2025-07-01","sido":"경기도","sigungu":"평택시","dong":"팽성읍"},{"name":"벽산아파트 뒤","type":"공영","category":"노상","address":"경기도 평택시 비전동 913","lat":36.992804,"lng":127.118704,"totalSpaces":23,"isFree":true,"operatingDays":"평일+토요일+공휴일","weekdayOpen":"00:00","weekdayClose":"23:59","weekendOpen":"00:00","weekendClose":"23:59","holidayOpen":"00:00","holidayClose":"23:59","feeInfo":"무료","phone":"031-8024-4993","updatedAt":"2025-07-01","sido":"경기도","sigungu":"평택시","dong":"비전동"},{"name":"현화택지 제3공영주차장","type":"공영","category":"노외","address":"경기도 평택시 안중읍 현화리 836-1","lat":36.979127,"lng":126.922469,"totalSpaces":23,"isFree":true,"operatingDays":"평일+토요일+공휴일","weekdayOpen":"00:00","weekdayClose":"23:59","weekendOpen":"00:00","weekendClose":"23:59","holidayOpen":"00:00","holidayClose":"23:59","feeInfo":"무료","phone":"031-8024-4993","updatedAt":"2025-07-01","sido":"경기도","sigungu":"평택시","dong":"안중읍"},{"name":"안중상업지역 공영주차장","type":"공영","category":"노외","address":"경기도 평택시 안중읍 안중리 245-3","lat":36.989171,"lng":126.927549,"totalSpaces":23,"isFree":true,"operatingDays":"평일+토요일+공휴일","weekdayOpen":"00:00","weekdayClose":"23:59","weekendOpen":"00:00","weekendClose":"23:59","holidayOpen":"00:00","holidayClose":"23:59","feeInfo":"무료","phone":"031-8024-4993","updatedAt":"2025-07-01","sido":"경기도","sigungu":"평택시","dong":"안중읍"},{"name":"동산(아)～세경(아) 사이길","type":"공영","category":"노상","address":"경기도 평택시 서정동 924","lat":37.069013,"lng":127.063449,"totalSpaces":22,"isFree":true,"operatingDays":"평일+토요일+공휴일","weekdayOpen":"00:00","weekdayClose":"23:59","weekendOpen":"00:00","weekendClose":"23:59","holidayOpen":"00:00","holidayClose":"23:59","feeInfo":"무료","phone":"031-8024-4993","updatedAt":"2025-07-01","sido":"경기도","sigungu":"평택시","dong":"서정동"},{"name":"고덕 2351 노상","type":"공영","category":"노상","address":"경기도 평택시 고덕동 2351 일원","lat":37.042138,"lng":127.052722,"totalSpaces":22,"isFree":true,"operatingDays":"평일+토요일+공휴일","weekdayOpen":"00:00","weekdayClose":"23:59","weekendOpen":"00:00","weekendClose":"23:59","holidayOpen":"00:00","holidayClose":"23:59","feeInfo":"무료","phone":"031-8024-4993","updatedAt":"2025-07-01","sido":"경기도","sigungu":"평택시","dong":"고덕동"},{"name":"서정동 축협～타이마사지 앞","type":"공영","category":"노상","address":"경기도 평택시 서정동 924","lat":37.069025,"lng":127.063473,"totalSpaces":21,"isFree":true,"operatingDays":"평일+토요일+공휴일","weekdayOpen":"00:00","weekdayClose":"23:59","weekendOpen":"00:00","weekendClose":"23:59","holidayOpen":"00:00","holidayClose":"23:59","feeInfo":"무료","phone":"031-8024-4993","updatedAt":"2025-07-01","sido":"경기도","sigungu":"평택시","dong":"서정동"},{"name":"한전사거리～주공2단지 정문","type":"공영","category":"노상","address":"경기도 평택시 비전동 190-19","lat":36.99237,"lng":127.1074,"totalSpaces":21,"isFree":true,"operatingDays":"평일+토요일+공휴일","weekdayOpen":"00:00","weekdayClose":"23:59","weekendOpen":"00:00","weekendClose":"23:59","holidayOpen":"00:00","holidayClose":"23:59","feeInfo":"무료","phone":"031-8024-4993","updatedAt":"2025-07-01","sido":"경기도","sigungu":"평택시","dong":"비전동"},{"name":"주공3단지사거리～태양탕","type":"공영","category":"노상","address":"경기도 평택시 합정동 548-4","lat":36.990513,"lng":127.098496,"totalSpaces":21,"isFree":true,"operatingDays":"평일+토요일+공휴일","weekdayOpen":"00:00","weekdayClose":"23:59","weekendOpen":"00:00","weekendClose":"23:59","holidayOpen":"00:00","holidayClose":"23:59","feeInfo":"무료","phone":"031-8024-4993","updatedAt":"2025-07-01","sido":"경기도","sigungu":"평택시","dong":"합정동"},{"name":"진위(신리) 공영주차장","type":"공영","category":"노외","address":"경기도 평택시 오성면 신리 110-1","lat":37.006265,"lng":127.015626,"totalSpaces":21,"isFree":true,"operatingDays":"평일+토요일+공휴일","weekdayOpen":"00:00","weekdayClose":"23:59","weekendOpen":"00:00","weekendClose":"23:59","holidayOpen":"00:00","holidayClose":"23:59","feeInfo":"무료","phone":"031-8024-4993","updatedAt":"2025-07-01","sido":"경기도","sigungu":"평택시","dong":"오성면"},{"name":"칠괴공영주차장","type":"공영","category":"노외","address":"경기도 평택시 칠괴동 55-1","lat":37.034182,"lng":127.096951,"totalSpaces":21,"isFree":true,"operatingDays":"평일+토요일+공휴일","weekdayOpen":"00:00","weekdayClose":"23:59","weekendOpen":"00:00","weekendClose":"23:59","holidayOpen":"00:00","holidayClose":"23:59","feeInfo":"무료","phone":"031-8024-4993","updatedAt":"2025-07-01","sido":"경기도","sigungu":"평택시","dong":"칠괴동"},{"name":"고덕 1-4 노상","type":"공영","category":"노상","address":"경기도 평택시 고덕동 2166","lat":37.040402,"lng":127.048309,"totalSpaces":18,"isFree":true,"operatingDays":"평일+토요일+공휴일","weekdayOpen":"00:00","weekdayClose":"23:59","weekendOpen":"00:00","weekendClose":"23:59","holidayOpen":"00:00","holidayClose":"23:59","feeInfo":"무료","phone":"031-8024-4993","updatedAt":"2025-07-01","sido":"경기도","sigungu":"평택시","dong":"고덕동"},{"name":"봉림카센터～삼호하이츠빌라","type":"공영","category":"노상","address":"경기도 평택시 합정동 522-5","lat":36.990935,"lng":127.095641,"totalSpaces":17,"isFree":true,"operatingDays":"평일+토요일+공휴일","weekdayOpen":"00:00","weekdayClose":"23:59","weekendOpen":"00:00","weekendClose":"23:59","holidayOpen":"00:00","holidayClose":"23:59","feeInfo":"무료","phone":"031-8024-4993","updatedAt":"2025-07-01","sido":"경기도","sigungu":"평택시","dong":"합정동"},{"name":"용궁암~송탄공원 뒤 옹벽길","type":"공영","category":"노상","address":"경기도 평택시 지산동 783-11","lat":37.077722,"lng":127.058481,"totalSpaces":16,"isFree":true,"operatingDays":"평일+토요일+공휴일","weekdayOpen":"00:00","weekdayClose":"23:59","weekendOpen":"00:00","weekendClose":"23:59","holidayOpen":"00:00","holidayClose":"23:59","feeInfo":"무료","phone":"031-8024-4993","updatedAt":"2025-07-01","sido":"경기도","sigungu":"평택시","dong":"지산동"},{"name":"세븐일레븐(평택용이원룸점~에스빌리지)","type":"공영","category":"노상","address":"경기도 평택시 용이동 528","lat":36.996583,"lng":127.137809,"totalSpaces":16,"isFree":true,"operatingDays":"평일+토요일+공휴일","weekdayOpen":"00:00","weekdayClose":"23:59","weekendOpen":"00:00","weekendClose":"23:59","holidayOpen":"00:00","holidayClose":"23:59","feeInfo":"무료","phone":"031-8024-4993","updatedAt":"2025-07-01","sido":"경기도","sigungu":"평택시","dong":"용이동"},{"name":"고덕 1774노상","type":"공영","category":"노상","address":"경기도 평택시 고덕동 1774 일원","lat":37.042138,"lng":127.052722,"totalSpaces":16,"isFree":true,"operatingDays":"평일+토요일+공휴일","weekdayOpen":"00:00","weekdayClose":"23:59","weekendOpen":"00:00","weekendClose":"23:59","holidayOpen":"00:00","holidayClose":"23:59","feeInfo":"무료","phone":"031-8024-4993","updatedAt":"2025-07-01","sido":"경기도","sigungu":"평택시","dong":"고덕동"},{"name":"목천지구 공영주차장","type":"공영","category":"노외","address":"경기도 평택시 신장동 327-26","lat":37.083646,"lng":127.054256,"totalSpaces":16,"isFree":true,"operatingDays":"평일+토요일+공휴일","weekdayOpen":"00:00","weekdayClose":"23:59","weekendOpen":"00:00","weekendClose":"23:59","holidayOpen":"00:00","holidayClose":"23:59","feeInfo":"무료","phone":"031-8024-4993","updatedAt":"2025-07-01","sido":"경기도","sigungu":"평택시","dong":"신장동"},{"name":"송탄역 고가 밑(신장동)","type":"공영","category":"노상","address":"경기도 평택시 신장동 262-80","lat":37.074524,"lng":127.053986,"totalSpaces":15,"isFree":true,"operatingDays":"평일+토요일+공휴일","weekdayOpen":"00:00","weekdayClose":"23:59","weekendOpen":"00:00","weekendClose":"23:59","holidayOpen":"00:00","holidayClose":"23:59","feeInfo":"무료","phone":"031-8024-4993","updatedAt":"2025-07-01","sido":"경기도","sigungu":"평택시","dong":"신장동"},{"name":"재랭이고개 사거리～기계공고 사거리","type":"공영","category":"노상","address":"경기도 평택시 비전동 626-11","lat":36.997128,"lng":127.090351,"totalSpaces":15,"isFree":true,"operatingDays":"평일+토요일+공휴일","weekdayOpen":"00:00","weekdayClose":"23:59","weekendOpen":"00:00","weekendClose":"23:59","holidayOpen":"00:00","holidayClose":"23:59","feeInfo":"무료","phone":"031-8024-4993","updatedAt":"2025-07-01","sido":"경기도","sigungu":"평택시","dong":"비전동"},{"name":"용이동 1호 근린공원 옆","type":"공영","category":"노상","address":"경기도 평택시 용이동 496","lat":36.999517,"lng":127.151223,"totalSpaces":15,"isFree":true,"operatingDays":"평일+토요일+공휴일","weekdayOpen":"00:00","weekdayClose":"23:59","weekendOpen":"00:00","weekendClose":"23:59","holidayOpen":"00:00","holidayClose":"23:59","feeInfo":"무료","phone":"031-8024-4993","updatedAt":"2025-07-01","sido":"경기도","sigungu":"평택시","dong":"용이동"},{"name":"송탄역 근교 노상","type":"공영","category":"노상","address":"경기도 평택시 신장동 279-10","lat":37.0771833578,"lng":127.0536548568,"totalSpaces":14,"isFree":true,"operatingDays":"평일+토요일+공휴일","weekdayOpen":"00:00","weekdayClose":"23:59","weekendOpen":"00:00","weekendClose":"23:59","holidayOpen":"00:00","holidayClose":"23:59","feeInfo":"무료","phone":"031-8024-4993","updatedAt":"2025-07-01","sido":"경기도","sigungu":"평택시","dong":"신장동"},{"name":"미각정～신장육교","type":"공영","category":"노상","address":"경기도 평택시 신장동 292-31","lat":37.079936,"lng":127.053591,"totalSpaces":14,"isFree":true,"operatingDays":"평일+토요일+공휴일","weekdayOpen":"00:00","weekdayClose":"23:59","weekendOpen":"00:00","weekendClose":"23:59","holidayOpen":"00:00","holidayClose":"23:59","feeInfo":"무료","phone":"031-8024-4993","updatedAt":"2025-07-01","sido":"경기도","sigungu":"평택시","dong":"신장동"},{"name":"신장파출소 옆～송신초교후문","type":"공영","category":"노상","address":"경기도 평택시 신장동 263-176","lat":37.072469,"lng":127.051371,"totalSpaces":14,"isFree":true,"operatingDays":"평일+토요일+공휴일","weekdayOpen":"00:00","weekdayClose":"23:59","weekendOpen":"00:00","weekendClose":"23:59","holidayOpen":"00:00","holidayClose":"23:59","feeInfo":"무료","phone":"031-8024-4993","updatedAt":"2025-07-01","sido":"경기도","sigungu":"평택시","dong":"신장동"},{"name":"GS더프레시 일원","type":"공영","category":"노상","address":"경기도 평택시 이충동 666","lat":37.059748,"lng":127.066301,"totalSpaces":14,"isFree":true,"operatingDays":"평일+토요일+공휴일","weekdayOpen":"00:00","weekdayClose":"23:59","weekendOpen":"00:00","weekendClose":"23:59","holidayOpen":"00:00","holidayClose":"23:59","feeInfo":"무료","phone":"031-8024-4993","updatedAt":"2025-07-01","sido":"경기도","sigungu":"평택시","dong":"이충동"},{"name":"송서성당～두리슈퍼","type":"공영","category":"노상","address":"경기도 평택시 서정동 590-135","lat":37.073539,"lng":127.048084,"totalSpaces":14,"isFree":true,"operatingDays":"평일+토요일+공휴일","weekdayOpen":"00:00","weekdayClose":"23:59","weekendOpen":"00:00","weekendClose":"23:59","holidayOpen":"00:00","holidayClose":"23:59","feeInfo":"무료","phone":"031-8024-4993","updatedAt":"2025-07-01","sido":"경기도","sigungu":"평택시","dong":"서정동"},{"name":"동산아파트 옆","type":"공영","category":"노상","address":"경기도 평택시 서정동 924 일원","lat":37.067967,"lng":127.062923,"totalSpaces":14,"isFree":true,"operatingDays":"평일+토요일+공휴일","weekdayOpen":"00:00","weekdayClose":"23:59","weekendOpen":"00:00","weekendClose":"23:59","holidayOpen":"00:00","holidayClose":"23:59","feeInfo":"무료","phone":"031-8024-4993","updatedAt":"2025-07-01","sido":"경기도","sigungu":"평택시","dong":"서정동"},{"name":"세경아파트 옆","type":"공영","category":"노상","address":"경기도 평택시 서정동 924 일원","lat":37.067967,"lng":127.062923,"totalSpaces":14,"isFree":true,"operatingDays":"평일+토요일+공휴일","weekdayOpen":"00:00","weekdayClose":"23:59","weekendOpen":"00:00","weekendClose":"23:59","holidayOpen":"00:00","holidayClose":"23:59","feeInfo":"무료","phone":"031-8024-4993","updatedAt":"2025-07-01","sido":"경기도","sigungu":"평택시","dong":"서정동"},{"name":"송탄 힐스테이트 옆","type":"공영","category":"노상","address":"경기도 평택시 서정동 924 일원","lat":37.067967,"lng":127.062923,"totalSpaces":14,"isFree":true,"operatingDays":"평일+토요일+공휴일","weekdayOpen":"00:00","weekdayClose":"23:59","weekendOpen":"00:00","weekendClose":"23:59","holidayOpen":"00:00","holidayClose":"23:59","feeInfo":"무료","phone":"031-8024-4993","updatedAt":"2025-07-01","sido":"경기도","sigungu":"평택시","dong":"서정동"},{"name":"대원아파트 옆","type":"공영","category":"노상","address":"경기도 평택시 팽성읍 송화리 132-6","lat":36.957444,"lng":127.053478,"totalSpaces":13,"isFree":true,"operatingDays":"평일+토요일+공휴일","weekdayOpen":"00:00","weekdayClose":"23:59","weekendOpen":"00:00","weekendClose":"23:59","holidayOpen":"00:00","holidayClose":"23:59","feeInfo":"무료","phone":"031-8024-4993","updatedAt":"2025-07-01","sido":"경기도","sigungu":"평택시","dong":"팽성읍"},{"name":"서연 공영주차장","type":"공영","category":"노외","address":"경기도 평택시 서정동 201-10","lat":37.0622815476,"lng":127.05963281,"totalSpaces":13,"isFree":true,"operatingDays":"평일+토요일+공휴일","weekdayOpen":"00:00","weekdayClose":"23:59","weekendOpen":"00:00","weekendClose":"23:59","holidayOpen":"00:00","holidayClose":"23:59","feeInfo":"무료","phone":"031-8024-4993","updatedAt":"2025-07-01","sido":"경기도","sigungu":"평택시","dong":"서정동"},{"name":"탄현 공영주차장","type":"공영","category":"노외","address":"경기도 평택시 신장동 252-1","lat":37.073707,"lng":127.055711,"totalSpaces":13,"isFree":true,"operatingDays":"평일+토요일+공휴일","weekdayOpen":"00:00","weekdayClose":"23:59","weekendOpen":"00:00","weekendClose":"23:59","holidayOpen":"00:00","holidayClose":"23:59","feeInfo":"무료","phone":"031-8024-4993","updatedAt":"2025-07-01","sido":"경기도","sigungu":"평택시","dong":"신장동"},{"name":"합정3-1공영주차장","type":"공영","category":"노외","address":"경기도 평택시 합정동 897-16","lat":36.990077,"lng":127.103998,"totalSpaces":13,"isFree":true,"operatingDays":"평일+토요일+공휴일","weekdayOpen":"00:00","weekdayClose":"23:59","weekendOpen":"00:00","weekendClose":"23:59","holidayOpen":"00:00","holidayClose":"23:59","feeInfo":"무료","phone":"031-8024-4993","updatedAt":"2025-07-01","sido":"경기도","sigungu":"평택시","dong":"합정동"},{"name":"합정3-3공영주차장","type":"공영","category":"노외","address":"경기도 평택시 합정동 933-1","lat":36.987067,"lng":127.103939,"totalSpaces":13,"isFree":true,"operatingDays":"평일+토요일+공휴일","weekdayOpen":"00:00","weekdayClose":"23:59","weekendOpen":"00:00","weekendClose":"23:59","holidayOpen":"00:00","holidayClose":"23:59","feeInfo":"무료","phone":"031-8024-4993","updatedAt":"2025-07-01","sido":"경기도","sigungu":"평택시","dong":"합정동"},{"name":"신장1동공영주차장~퍼핀레스토랑 앞","type":"공영","category":"노상","address":"경기도 평택시 신장동 305-1","lat":37.081726,"lng":127.050655,"totalSpaces":12,"isFree":true,"operatingDays":"평일+토요일+공휴일","weekdayOpen":"00:00","weekdayClose":"23:59","weekendOpen":"00:00","weekendClose":"23:59","holidayOpen":"00:00","holidayClose":"23:59","feeInfo":"무료","phone":"031-8024-4993","updatedAt":"2025-07-01","sido":"경기도","sigungu":"평택시","dong":"신장동"},{"name":"한광고 앞 사거리～평중 삼거리","type":"공영","category":"노상","address":"경기도 평택시 비전동 460-2","lat":36.997814,"lng":127.094718,"totalSpaces":12,"isFree":true,"operatingDays":"평일+토요일+공휴일","weekdayOpen":"00:00","weekdayClose":"23:59","weekendOpen":"00:00","weekendClose":"23:59","holidayOpen":"00:00","holidayClose":"23:59","feeInfo":"무료","phone":"031-8024-4993","updatedAt":"2025-07-01","sido":"경기도","sigungu":"평택시","dong":"비전동"},{"name":"동화당약국～대한성공회","type":"공영","category":"노상","address":"경기도 평택시 안중읍 안중리 252-72","lat":36.988211,"lng":126.924977,"totalSpaces":11,"isFree":true,"operatingDays":"평일+토요일+공휴일","weekdayOpen":"00:00","weekdayClose":"23:59","weekendOpen":"00:00","weekendClose":"23:59","holidayOpen":"00:00","holidayClose":"23:59","feeInfo":"무료","phone":"031-8024-4993","updatedAt":"2025-07-01","sido":"경기도","sigungu":"평택시","dong":"안중읍"},{"name":"동아아파트 옆","type":"공영","category":"노상","address":"경기도 평택시 통복동 16-1(통복시장로 47번길)","lat":36.997576,"lng":127.088225,"totalSpaces":11,"isFree":true,"operatingDays":"평일+토요일+공휴일","weekdayOpen":"00:00","weekdayClose":"23:59","weekendOpen":"00:00","weekendClose":"23:59","holidayOpen":"00:00","holidayClose":"23:59","feeInfo":"무료","phone":"031-8024-4993","updatedAt":"2025-07-01","sido":"경기도","sigungu":"평택시","dong":"통복동"},{"name":"좌율 공영주차장","type":"공영","category":"노외","address":"경기도 평택시 지산동 692-40","lat":37.077191,"lng":127.059696,"totalSpaces":11,"isFree":true,"operatingDays":"평일+토요일+공휴일","weekdayOpen":"00:00","weekdayClose":"23:59","weekendOpen":"00:00","weekendClose":"23:59","holidayOpen":"00:00","holidayClose":"23:59","feeInfo":"무료","phone":"031-8024-4993","updatedAt":"2025-07-01","sido":"경기도","sigungu":"평택시","dong":"지산동"},{"name":"갈평고가 하부","type":"공영","category":"노상","address":"경기도 평택시 서정동 434-11","lat":37.060724,"lng":127.054114,"totalSpaces":9,"isFree":true,"operatingDays":"평일+토요일+공휴일","weekdayOpen":"00:00","weekdayClose":"23:59","weekendOpen":"00:00","weekendClose":"23:59","holidayOpen":"00:00","holidayClose":"23:59","feeInfo":"무료","phone":"031-8024-4993","updatedAt":"2025-07-01","sido":"경기도","sigungu":"평택시","dong":"서정동"},{"name":"합정3-2공영주차장","type":"공영","category":"노외","address":"경기도 평택시 합정동 898-14","lat":36.990046,"lng":127.105441,"totalSpaces":5,"isFree":true,"operatingDays":"평일+토요일+공휴일","weekdayOpen":"00:00","weekdayClose":"23:59","weekendOpen":"00:00","weekendClose":"23:59","holidayOpen":"00:00","holidayClose":"23:59","feeInfo":"무료","phone":"031-8024-4993","updatedAt":"2025-07-01","sido":"경기도","sigungu":"평택시","dong":"합정동"},{"name":"합정3-4공영주차장","type":"공영","category":"노외","address":"경기도 평택시 합정동 924-3","lat":36.988641,"lng":127.100885,"totalSpaces":5,"isFree":true,"operatingDays":"평일+토요일+공휴일","weekdayOpen":"00:00","weekdayClose":"23:59","weekendOpen":"00:00","weekendClose":"23:59","holidayOpen":"00:00","holidayClose":"23:59","feeInfo":"무료","phone":"031-8024-4993","updatedAt":"2025-07-01","sido":"경기도","sigungu":"평택시","dong":"합정동"},{"name":"합정공영주차장","type":"공영","category":"노외","address":"경기도 평택시 합정동 609-1","lat":36.9908320278,"lng":127.0915001497,"totalSpaces":425,"isFree":false,"operatingDays":"평일+토요일+공휴일","weekdayOpen":"00:00","weekdayClose":"23:59","weekendOpen":"00:00","weekendClose":"23:59","holidayOpen":"00:00","holidayClose":"23:59","feeInfo":"기본 60분 1,000원 / 추가 10분당 300원","phone":"031-8024-4993","updatedAt":"2025-07-01","sido":"경기도","sigungu":"평택시","dong":"합정동"},{"name":"자란공영주차장","type":"공영","category":"노외","address":"경기도 평택시 비전동 632-12","lat":36.994832,"lng":127.089358,"totalSpaces":311,"isFree":false,"operatingDays":"평일+토요일+공휴일","weekdayOpen":"00:00","weekdayClose":"23:59","weekendOpen":"00:00","weekendClose":"23:59","holidayOpen":"00:00","holidayClose":"23:59","feeInfo":"기본 60분 1,000원 / 추가 10분당 300원","phone":"031-8024-4993","updatedAt":"2025-07-01","sido":"경기도","sigungu":"평택시","dong":"비전동"},{"name":"통복장터공영주차장","type":"공영","category":"노외","address":"경기도 평택시 통복동 69-1","lat":36.997417,"lng":127.085408,"totalSpaces":191,"isFree":false,"operatingDays":"평일+토요일+공휴일","weekdayOpen":"00:00","weekdayClose":"23:59","weekendOpen":"00:00","weekendClose":"23:59","holidayOpen":"00:00","holidayClose":"23:59","feeInfo":"기본 60분 1,000원 / 추가 10분당 300원","phone":"031-8024-4993","updatedAt":"2025-07-01","sido":"경기도","sigungu":"평택시","dong":"통복동"},{"name":"원평제1공영주차장","type":"공영","category":"노외","address":"경기도 평택시 평택동 185-47","lat":36.988899,"lng":127.085971,"totalSpaces":165,"isFree":false,"operatingDays":"평일+토요일+공휴일","weekdayOpen":"00:00","weekdayClose":"23:59","weekendOpen":"00:00","weekendClose":"23:59","holidayOpen":"00:00","holidayClose":"23:59","feeInfo":"기본 60분 1,000원 / 추가 10분당 300원","phone":"031-8024-4993","updatedAt":"2025-07-01","sido":"경기도","sigungu":"평택시","dong":"평택동"},{"name":"서정관광특구공영주차장","type":"공영","category":"노외","address":"경기도 평택시 서정동 817-1,2","lat":37.067049,"lng":127.062068,"totalSpaces":152,"isFree":false,"operatingDays":"평일+토요일+공휴일","weekdayOpen":"00:00","weekdayClose":"23:59","weekendOpen":"00:00","weekendClose":"23:59","holidayOpen":"00:00","holidayClose":"23:59","feeInfo":"기본 60분 1,000원 / 추가 10분당 300원","phone":"031-8024-4993","updatedAt":"2025-07-01","sido":"경기도","sigungu":"평택시","dong":"서정동"},{"name":"합정공영주차장","type":"공영","category":"노외","address":"경기도 평택시 합정동 608-1","lat":36.990834,"lng":127.091501,"totalSpaces":143,"isFree":false,"operatingDays":"평일+토요일+공휴일","weekdayOpen":"00:00","weekdayClose":"23:59","weekendOpen":"00:00","weekendClose":"23:59","holidayOpen":"00:00","holidayClose":"23:59","feeInfo":"기본 60분 1,000원 / 추가 10분당 300원","phone":"031-8024-4993","updatedAt":"2025-07-01","sido":"경기도","sigungu":"평택시","dong":"합정동"},{"name":"팽성제1 공영주차장","type":"공영","category":"노외","address":"경기도 평택시 팽성읍 안정리 212","lat":36.957193,"lng":127.046009,"totalSpaces":136,"isFree":false,"operatingDays":"평일+토요일+공휴일","weekdayOpen":"00:00","weekdayClose":"23:59","weekendOpen":"00:00","weekendClose":"23:59","holidayOpen":"00:00","holidayClose":"23:59","feeInfo":"기본 60분 1,000원 / 추가 10분당 300원","phone":"031-8024-4993","updatedAt":"2025-07-01","sido":"경기도","sigungu":"평택시","dong":"팽성읍"},{"name":"서정리역 지하공영주차장","type":"공영","category":"노외","address":"경기도 평택시 고덕동 1880-1","lat":37.0570230858,"lng":127.0514,"totalSpaces":136,"isFree":false,"operatingDays":"평일+토요일+공휴일","weekdayOpen":"00:00","weekdayClose":"23:59","weekendOpen":"00:00","weekendClose":"23:59","holidayOpen":"00:00","holidayClose":"23:59","feeInfo":"기본 60분 1,000원 / 추가 10분당 300원","phone":"031-692-3942","updatedAt":"2025-07-01","sido":"경기도","sigungu":"평택시","dong":"고덕동"},{"name":"통복지구 공영주차장","type":"공영","category":"노외","address":"경기도 평택시 통복동 81-8","lat":36.996784,"lng":127.087831,"totalSpaces":132,"isFree":false,"operatingDays":"평일+토요일+공휴일","weekdayOpen":"00:00","weekdayClose":"23:59","weekendOpen":"00:00","weekendClose":"23:59","holidayOpen":"00:00","holidayClose":"23:59","feeInfo":"기본 60분 1,000원 / 추가 10분당 300원","phone":"031-8024-4993","updatedAt":"2025-07-01","sido":"경기도","sigungu":"평택시","dong":"통복동"},{"name":"고덕 제1공영주차장","type":"공영","category":"노외","address":"경기도 평택시 고덕동 2161-3","lat":37.0398220267,"lng":127.0496566081,"totalSpaces":127,"isFree":false,"operatingDays":"평일","weekdayOpen":"10:00","weekdayClose":"19:00","weekendOpen":"00:00","weekendClose":"00:00","holidayOpen":"00:00","holidayClose":"00:00","feeInfo":"기본 60분 1,000원 / 추가 10분당 300원","phone":"031-8024-4993","updatedAt":"2025-07-01","sido":"경기도","sigungu":"평택시","dong":"고덕동"},{"name":"신장쇼핑제3공영주차장","type":"공영","category":"노외","address":"경기도 평택시 신장동 302-68","lat":37.080839,"lng":127.049948,"totalSpaces":113,"isFree":false,"operatingDays":"평일","weekdayOpen":"10:00","weekdayClose":"19:00","weekendOpen":"00:00","weekendClose":"00:00","holidayOpen":"00:00","holidayClose":"00:00","feeInfo":"기본 60분 1,000원 / 추가 10분당 300원","phone":"031-8024-4993","updatedAt":"2025-07-01","sido":"경기도","sigungu":"평택시","dong":"신장동"},{"name":"소사벌 제2공영주차장","type":"공영","category":"노외","address":"경기도 평택시 죽백동 799","lat":37.0030359139,"lng":127.1153765855,"totalSpaces":112,"isFree":false,"operatingDays":"평일","weekdayOpen":"10:00","weekdayClose":"19:00","weekendOpen":"00:00","weekendClose":"00:00","holidayOpen":"00:00","holidayClose":"00:00","feeInfo":"기본 60분 1,000원 / 추가 10분당 300원","phone":"031-8024-4993","updatedAt":"2025-07-01","sido":"경기도","sigungu":"평택시","dong":"죽백동"},{"name":"통복공영주차장","type":"공영","category":"노외","address":"경기도 평택시 통복동 81-8","lat":36.996784,"lng":127.087831,"totalSpaces":109,"isFree":false,"operatingDays":"평일+토요일+공휴일","weekdayOpen":"00:00","weekdayClose":"23:59","weekendOpen":"00:00","weekendClose":"23:59","holidayOpen":"00:00","holidayClose":"23:59","feeInfo":"기본 60분 1,000원 / 추가 10분당 300원","phone":"031-8024-4993","updatedAt":"2025-07-01","sido":"경기도","sigungu":"평택시","dong":"통복동"},{"name":"평택동공영주차장","type":"공영","category":"노외","address":"경기도 평택시 평택동 76","lat":36.993406,"lng":127.084289,"totalSpaces":105,"isFree":false,"operatingDays":"평일+토요일+공휴일","weekdayOpen":"00:00","weekdayClose":"23:59","weekendOpen":"00:00","weekendClose":"23:59","holidayOpen":"00:00","holidayClose":"23:59","feeInfo":"기본 60분 1,000원 / 추가 10분당 300원","phone":"031-8024-4993","updatedAt":"2025-07-01","sido":"경기도","sigungu":"평택시","dong":"평택동"},{"name":"통복전통시장","type":"공영","category":"노상","address":"경기도 평택시 통복동 64-1","lat":36.997418,"lng":127.083087,"totalSpaces":98,"isFree":false,"operatingDays":"평일","weekdayOpen":"10:00","weekdayClose":"19:00","weekendOpen":"00:00","weekendClose":"00:00","holidayOpen":"00:00","holidayClose":"00:00","feeInfo":"기본 60분 1,000원 / 추가 10분당 300원","phone":"031-8024-4993","updatedAt":"2025-07-01","sido":"경기도","sigungu":"평택시","dong":"통복동"},{"name":"비전공영주차장","type":"공영","category":"노외","address":"경기도 평택시 비전동 629-1","lat":36.99747,"lng":127.088739,"totalSpaces":96,"isFree":false,"operatingDays":"평일+토요일+공휴일","weekdayOpen":"00:00","weekdayClose":"23:59","weekendOpen":"00:00","weekendClose":"23:59","holidayOpen":"00:00","holidayClose":"23:59","feeInfo":"기본 60분 1,000원 / 추가 10분당 300원","phone":"031-8024-4993","updatedAt":"2025-07-01","sido":"경기도","sigungu":"평택시","dong":"비전동"},{"name":"배미공원 지하 공영주차장","type":"공영","category":"노외","address":"경기도 평택시 합정동 969","lat":36.98861,"lng":127.112957,"totalSpaces":84,"isFree":false,"operatingDays":"평일+토요일+공휴일","weekdayOpen":"00:00","weekdayClose":"23:59","weekendOpen":"00:00","weekendClose":"23:59","holidayOpen":"00:00","holidayClose":"23:59","feeInfo":"기본 60분 1,000원 / 추가 10분당 300원","phone":"031-8024-4993","updatedAt":"2025-07-01","sido":"경기도","sigungu":"평택시","dong":"합정동"},{"name":"서정전통시장","type":"공영","category":"노상","address":"경기도 평택시 서정동 322-4","lat":37.057003,"lng":127.055069,"totalSpaces":79,"isFree":false,"operatingDays":"평일","weekdayOpen":"10:00","weekdayClose":"19:00","weekendOpen":"00:00","weekendClose":"00:00","holidayOpen":"00:00","holidayClose":"00:00","feeInfo":"기본 60분 1,000원 / 추가 10분당 300원","phone":"031-8024-4993","updatedAt":"2025-07-01","sido":"경기도","sigungu":"평택시","dong":"서정동"},{"name":"부락산공영주차장","type":"공영","category":"노외","address":"경기도 평택시 서정동 2-67","lat":37.071056,"lng":127.065243,"totalSpaces":73,"isFree":false,"operatingDays":"평일+토요일+공휴일","weekdayOpen":"00:00","weekdayClose":"23:59","weekendOpen":"00:00","weekendClose":"23:59","holidayOpen":"00:00","holidayClose":"23:59","feeInfo":"기본 60분 1,000원 / 추가 10분당 300원","phone":"031-8024-4993","updatedAt":"2025-07-01","sido":"경기도","sigungu":"평택시","dong":"서정동"},{"name":"송탄역공영주차장","type":"공영","category":"노외","address":"경기도 평택시 신장동 263-169","lat":37.075577,"lng":127.053881,"totalSpaces":70,"isFree":false,"operatingDays":"평일+토요일+공휴일","weekdayOpen":"00:00","weekdayClose":"23:59","weekendOpen":"00:00","weekendClose":"23:59","holidayOpen":"00:00","holidayClose":"23:59","feeInfo":"기본 60분 1,000원 / 추가 10분당 300원","phone":"031-8024-4993","updatedAt":"2025-07-01","sido":"경기도","sigungu":"평택시","dong":"신장동"},{"name":"매봉공영주차장","type":"공영","category":"노외","address":"경기도 평택시 비전동 273-6","lat":36.996287,"lng":127.102567,"totalSpaces":67,"isFree":false,"operatingDays":"평일+토요일+공휴일","weekdayOpen":"00:00","weekdayClose":"23:59","weekendOpen":"00:00","weekendClose":"23:59","holidayOpen":"00:00","holidayClose":"23:59","feeInfo":"기본 60분 1,000원 / 추가 10분당 300원","phone":"031-8024-4993","updatedAt":"2025-07-01","sido":"경기도","sigungu":"평택시","dong":"비전동"},{"name":"소사벌 제1공영주차장","type":"공영","category":"노외","address":"경기도 평택시 비전동 1099","lat":37.0010151204,"lng":127.1151507553,"totalSpaces":64,"isFree":false,"operatingDays":"평일","weekdayOpen":"10:00","weekdayClose":"19:00","weekendOpen":"00:00","weekendClose":"00:00","holidayOpen":"00:00","holidayClose":"00:00","feeInfo":"기본 60분 1,000원 / 추가 10분당 300원","phone":"031-8024-4993","updatedAt":"2025-07-01","sido":"경기도","sigungu":"평택시","dong":"비전동"},{"name":"원평제2공영주차장","type":"공영","category":"노외","address":"경기도 평택시 평택동 185-105","lat":36.990667,"lng":127.084345,"totalSpaces":63,"isFree":false,"operatingDays":"평일+토요일+공휴일","weekdayOpen":"00:00","weekdayClose":"23:59","weekendOpen":"00:00","weekendClose":"23:59","holidayOpen":"00:00","holidayClose":"23:59","feeInfo":"기본 60분 1,000원 / 추가 10분당 300원","phone":"031-8024-4993","updatedAt":"2025-07-01","sido":"경기도","sigungu":"평택시","dong":"평택동"},{"name":"JC공원 지하공영주차장","type":"공영","category":"노외","address":"경기도 평택시 평택동 38","lat":36.993417,"lng":127.087884,"totalSpaces":63,"isFree":false,"operatingDays":"평일+토요일+공휴일","weekdayOpen":"00:00","weekdayClose":"23:59","weekendOpen":"00:00","weekendClose":"23:59","holidayOpen":"00:00","holidayClose":"23:59","feeInfo":"기본 60분 1,000원 / 추가 10분당 300원","phone":"031-8024-4993","updatedAt":"2025-07-01","sido":"경기도","sigungu":"평택시","dong":"평택동"},{"name":"중앙동제1공영주차장","type":"공영","category":"노외","address":"경기도 평택시 서정동 343-9","lat":37.05513,"lng":127.055038,"totalSpaces":61,"isFree":false,"operatingDays":"평일+토요일+공휴일","weekdayOpen":"00:00","weekdayClose":"23:59","weekendOpen":"00:00","weekendClose":"23:59","holidayOpen":"00:00","holidayClose":"23:59","feeInfo":"기본 60분 1,000원 / 추가 10분당 300원","phone":"031-8024-4993","updatedAt":"2025-07-01","sido":"경기도","sigungu":"평택시","dong":"서정동"},{"name":"팽성안정리쇼핑몰 공영주차장","type":"공영","category":"노외","address":"경기도 평택시 팽성읍 안정리 39-12","lat":36.961736,"lng":127.046041,"totalSpaces":60,"isFree":false,"operatingDays":"평일+토요일+공휴일","weekdayOpen":"00:00","weekdayClose":"23:59","weekendOpen":"00:00","weekendClose":"23:59","holidayOpen":"00:00","holidayClose":"23:59","feeInfo":"기본 60분 1,000원 / 추가 10분당 300원","phone":"031-8024-4993","updatedAt":"2025-07-01","sido":"경기도","sigungu":"평택시","dong":"팽성읍"},{"name":"중앙동제2공영주차장","type":"공영","category":"노외","address":"경기도 평택시 이충동 468-5","lat":37.056223,"lng":127.056556,"totalSpaces":58,"isFree":false,"operatingDays":"평일+토요일+공휴일","weekdayOpen":"00:00","weekdayClose":"23:59","weekendOpen":"00:00","weekendClose":"23:59","holidayOpen":"00:00","holidayClose":"23:59","feeInfo":"기본 60분 1,000원 / 추가 10분당 300원","phone":"031-8024-4993","updatedAt":"2025-07-01","sido":"경기도","sigungu":"평택시","dong":"이충동"},{"name":"배미공영주차장","type":"공영","category":"노외","address":"경기도 평택시 합정동 973-3","lat":36.987913,"lng":127.113626,"totalSpaces":57,"isFree":false,"operatingDays":"평일+토요일+공휴일","weekdayOpen":"00:00","weekdayClose":"23:59","weekendOpen":"00:00","weekendClose":"23:59","holidayOpen":"00:00","holidayClose":"23:59","feeInfo":"기본 60분 1,000원 / 추가 10분당 300원","phone":"031-8024-4993","updatedAt":"2025-07-01","sido":"경기도","sigungu":"평택시","dong":"합정동"},{"name":"서정제1공영","type":"공영","category":"노상","address":"경기도 평택시 서정동 924","lat":37.069013,"lng":127.063449,"totalSpaces":57,"isFree":false,"operatingDays":"평일","weekdayOpen":"10:00","weekdayClose":"19:00","weekendOpen":"00:00","weekendClose":"00:00","holidayOpen":"00:00","holidayClose":"00:00","feeInfo":"기본 60분 1,000원 / 추가 10분당 300원","phone":"031-8024-4993","updatedAt":"2025-07-01","sido":"경기도","sigungu":"평택시","dong":"서정동"},{"name":"서정제2공영","type":"공영","category":"노상","address":"경기도 평택시 서정동 911-2","lat":37.066901,"lng":127.061383,"totalSpaces":56,"isFree":false,"operatingDays":"평일","weekdayOpen":"10:00","weekdayClose":"19:00","weekendOpen":"00:00","weekendClose":"00:00","holidayOpen":"00:00","holidayClose":"00:00","feeInfo":"기본 60분 1,000원 / 추가 10분당 300원","phone":"031-8024-4993","updatedAt":"2025-07-01","sido":"경기도","sigungu":"평택시","dong":"서정동"},{"name":"서두물공영주차장","type":"공영","category":"노외","address":"경기도 평택시 서정동 159-99","lat":37.0651,"lng":127.061473,"totalSpaces":55,"isFree":false,"operatingDays":"평일+토요일+공휴일","weekdayOpen":"00:00","weekdayClose":"23:59","weekendOpen":"00:00","weekendClose":"23:59","holidayOpen":"00:00","holidayClose":"23:59","feeInfo":"기본 60분 1,000원 / 추가 10분당 300원","phone":"031-8024-4993","updatedAt":"2025-07-01","sido":"경기도","sigungu":"평택시","dong":"서정동"},{"name":"송탄시장제1공영주차장","type":"공영","category":"노외","address":"경기도 평택시 지산동 735-21","lat":37.082141,"lng":127.058051,"totalSpaces":54,"isFree":false,"operatingDays":"평일+토요일+공휴일","weekdayOpen":"00:00","weekdayClose":"23:59","weekendOpen":"00:00","weekendClose":"23:59","holidayOpen":"00:00","holidayClose":"23:59","feeInfo":"기본 60분 1,000원 / 추가 10분당 300원","phone":"031-8024-4993","updatedAt":"2025-07-01","sido":"경기도","sigungu":"평택시","dong":"지산동"},{"name":"안중전통공영주차장","type":"공영","category":"노외","address":"경기도 평택시 안중읍 안중리 268-1","lat":36.987751,"lng":126.927959,"totalSpaces":53,"isFree":false,"operatingDays":"평일","weekdayOpen":"10:00","weekdayClose":"19:00","weekendOpen":"00:00","weekendClose":"00:00","holidayOpen":"00:00","holidayClose":"00:00","feeInfo":"기본 60분 1,000원 / 추가 10분당 300원","phone":"031-8024-4993","updatedAt":"2025-07-01","sido":"경기도","sigungu":"평택시","dong":"안중읍"},{"name":"송탄시장제2공영주차장","type":"공영","category":"노외","address":"경기도 평택시 지산동 757-23","lat":37.080519,"lng":127.057543,"totalSpaces":51,"isFree":false,"operatingDays":"평일+토요일+공휴일","weekdayOpen":"00:00","weekdayClose":"23:59","weekendOpen":"00:00","weekendClose":"23:59","holidayOpen":"00:00","holidayClose":"23:59","feeInfo":"기본 60분 1,000원 / 추가 10분당 300원","phone":"031-8024-4993","updatedAt":"2025-07-01","sido":"경기도","sigungu":"평택시","dong":"지산동"},{"name":"신장쇼핑제2공영주차장","type":"공영","category":"노외","address":"경기도 평택시 신장동 298-249","lat":37.079531,"lng":127.049504,"totalSpaces":48,"isFree":false,"operatingDays":"평일+토요일+공휴일","weekdayOpen":"00:00","weekdayClose":"23:59","weekendOpen":"00:00","weekendClose":"23:59","holidayOpen":"00:00","holidayClose":"23:59","feeInfo":"기본 60분 1,000원 / 추가 10분당 300원","phone":"031-8024-4993","updatedAt":"2025-07-01","sido":"경기도","sigungu":"평택시","dong":"신장동"},{"name":"중앙시장제2공영주차장","type":"공영","category":"노외","address":"경기도 평택시 신장동 322-5","lat":37.080514,"lng":127.053381,"totalSpaces":47,"isFree":false,"operatingDays":"평일","weekdayOpen":"10:00","weekdayClose":"19:00","weekendOpen":"00:00","weekendClose":"00:00","holidayOpen":"00:00","holidayClose":"00:00","feeInfo":"기본 60분 1,000원 / 추가 10분당 300원","phone":"031-8024-4993","updatedAt":"2025-07-01","sido":"경기도","sigungu":"평택시","dong":"신장동"},{"name":"서정시장공영주차장","type":"공영","category":"노외","address":"경기도 평택시 서정동 328-35","lat":37.057421,"lng":127.055509,"totalSpaces":43,"isFree":false,"operatingDays":"평일+토요일+공휴일","weekdayOpen":"00:00","weekdayClose":"23:59","weekendOpen":"00:00","weekendClose":"23:59","holidayOpen":"00:00","holidayClose":"23:59","feeInfo":"기본 60분 1,000원 / 추가 10분당 300원","phone":"031-8024-4993","updatedAt":"2025-07-01","sido":"경기도","sigungu":"평택시","dong":"서정동"},{"name":"지산동제1공영주차장","type":"공영","category":"노외","address":"경기도 평택시 지산동 1087","lat":37.079234,"lng":127.061289,"totalSpaces":41,"isFree":false,"operatingDays":"평일","weekdayOpen":"10:00","weekdayClose":"19:00","weekendOpen":"00:00","weekendClose":"00:00","holidayOpen":"00:00","holidayClose":"00:00","feeInfo":"기본 60분 1,000원 / 추가 10분당 300원","phone":"031-8024-4993","updatedAt":"2025-07-01","sido":"경기도","sigungu":"평택시","dong":"지산동"},{"name":"평택남부노상","type":"공영","category":"노상","address":"경기도 평택시 평택동 31-1","lat":36.992817,"lng":127.088118,"totalSpaces":35,"isFree":false,"operatingDays":"평일","weekdayOpen":"10:00","weekdayClose":"19:00","weekendOpen":"00:00","weekendClose":"00:00","holidayOpen":"00:00","holidayClose":"00:00","feeInfo":"기본 60분 1,000원 / 추가 10분당 300원","phone":"031-8024-4993","updatedAt":"2025-07-01","sido":"경기도","sigungu":"평택시","dong":"평택동"},{"name":"서재제3공영주차장","type":"공영","category":"노외","address":"경기도 평택시 동삭동 658-5","lat":37.010338,"lng":127.093889,"totalSpaces":32,"isFree":false,"operatingDays":"평일+토요일+공휴일","weekdayOpen":"00:00","weekdayClose":"23:59","weekendOpen":"00:00","weekendClose":"23:59","holidayOpen":"00:00","holidayClose":"23:59","feeInfo":"기본 60분 1,000원 / 추가 10분당 300원","phone":"031-8024-4993","updatedAt":"2025-07-01","sido":"경기도","sigungu":"평택시","dong":"동삭동"},{"name":"평택동중앙로","type":"공영","category":"노상","address":"경기도 평택시 평택동 31-1","lat":36.992817,"lng":127.088118,"totalSpaces":31,"isFree":false,"operatingDays":"평일","weekdayOpen":"10:00","weekdayClose":"19:00","weekendOpen":"00:00","weekendClose":"00:00","holidayOpen":"00:00","holidayClose":"00:00","feeInfo":"기본 60분 1,000원 / 추가 10분당 300원","phone":"031-8024-4993","updatedAt":"2025-07-01","sido":"경기도","sigungu":"평택시","dong":"평택동"},{"name":"지제역 공영주차장","type":"공영","category":"노외","address":"경기도 평택시 지제동 37-10","lat":37.0190820006,"lng":127.0685,"totalSpaces":30,"isFree":false,"operatingDays":"평일+토요일+공휴일","weekdayOpen":"00:00","weekdayClose":"23:59","weekendOpen":"00:00","weekendClose":"23:59","holidayOpen":"00:00","holidayClose":"23:59","feeInfo":"기본 60분 1,000원 / 추가 10분당 300원","phone":"031-8024-4993","updatedAt":"2025-07-01","sido":"경기도","sigungu":"평택시","dong":"지제동"},{"name":"안일전통공영주차장","type":"공영","category":"노외","address":"경기도 평택시 안중읍 안중리 281-21","lat":36.988092,"lng":126.929342,"totalSpaces":30,"isFree":false,"operatingDays":"평일+토요일+공휴일","weekdayOpen":"00:00","weekdayClose":"23:59","weekendOpen":"00:00","weekendClose":"23:59","holidayOpen":"00:00","holidayClose":"23:59","feeInfo":"기본 60분 1,000원 / 추가 10분당 300원","phone":"031-8024-4993","updatedAt":"2025-07-01","sido":"경기도","sigungu":"평택시","dong":"안중읍"},{"name":"서정제4공영","type":"공영","category":"노상","address":"경기도 평택시 이충동 463-1","lat":37.056846,"lng":127.056585,"totalSpaces":27,"isFree":false,"operatingDays":"평일","weekdayOpen":"10:00","weekdayClose":"19:00","weekendOpen":"00:00","weekendClose":"00:00","holidayOpen":"00:00","holidayClose":"00:00","feeInfo":"기본 60분 1,000원 / 추가 10분당 300원","phone":"031-8024-4993","updatedAt":"2025-07-01","sido":"경기도","sigungu":"평택시","dong":"이충동"},{"name":"서재제1공영주차장","type":"공영","category":"노외","address":"경기도 평택시 동삭동 712-12","lat":37.009738,"lng":127.099482,"totalSpaces":25,"isFree":false,"operatingDays":"평일+토요일+공휴일","weekdayOpen":"00:00","weekdayClose":"23:59","weekendOpen":"00:00","weekendClose":"23:59","holidayOpen":"00:00","holidayClose":"23:59","feeInfo":"기본 60분 1,000원 / 추가 10분당 300원","phone":"031-8024-4993","updatedAt":"2025-07-01","sido":"경기도","sigungu":"평택시","dong":"동삭동"},{"name":"서재제2공영주차장","type":"공영","category":"노외","address":"경기도 평택시 동삭동 694-1","lat":37.009033,"lng":127.094689,"totalSpaces":24,"isFree":false,"operatingDays":"평일+토요일+공휴일","weekdayOpen":"00:00","weekdayClose":"23:59","weekendOpen":"00:00","weekendClose":"23:59","holidayOpen":"00:00","holidayClose":"23:59","feeInfo":"기본 60분 1,000원 / 추가 10분당 300원","phone":"031-8024-4993","updatedAt":"2025-07-01","sido":"경기도","sigungu":"평택시","dong":"동삭동"},{"name":"서재제1공영주차장","type":"공영","category":"노외","address":"경기도 평택시 동삭동 712-12","lat":37.009738,"lng":127.0994,"totalSpaces":23,"isFree":false,"operatingDays":"평일+토요일+공휴일","weekdayOpen":"00:00","weekdayClose":"23:59","weekendOpen":"00:00","weekendClose":"23:59","holidayOpen":"00:00","holidayClose":"23:59","feeInfo":"기본 60분 1,000원 / 추가 10분당 300원","phone":"031-8024-4993","updatedAt":"2025-07-01","sido":"경기도","sigungu":"평택시","dong":"동삭동"},{"name":"신장노상제2공영","type":"공영","category":"노상","address":"경기도 평택시 신장동 298-68","lat":37.078972,"lng":127.053003,"totalSpaces":22,"isFree":false,"operatingDays":"평일","weekdayOpen":"10:00","weekdayClose":"19:00","weekendOpen":"00:00","weekendClose":"00:00","holidayOpen":"00:00","holidayClose":"00:00","feeInfo":"기본 60분 1,000원 / 추가 10분당 300원","phone":"031-8024-4993","updatedAt":"2025-07-01","sido":"경기도","sigungu":"평택시","dong":"신장동"},{"name":"중앙시장제1공영주차장","type":"공영","category":"노외","address":"경기도 평택시 신장동 292-1","lat":37.079667,"lng":127.053791,"totalSpaces":20,"isFree":false,"operatingDays":"평일+토요일+공휴일","weekdayOpen":"00:00","weekdayClose":"23:59","weekendOpen":"00:00","weekendClose":"23:59","holidayOpen":"00:00","holidayClose":"23:59","feeInfo":"기본 60분 1,000원 / 추가 10분당 300원","phone":"031-8024-4993","updatedAt":"2025-07-01","sido":"경기도","sigungu":"평택시","dong":"신장동"},{"name":"서정제3공영","type":"공영","category":"노상","address":"경기도 평택시 서정동 929","lat":37.065628,"lng":127.061611,"totalSpaces":19,"isFree":false,"operatingDays":"평일","weekdayOpen":"10:00","weekdayClose":"19:00","weekendOpen":"00:00","weekendClose":"00:00","holidayOpen":"00:00","holidayClose":"00:00","feeInfo":"기본 60분 1,000원 / 추가 10분당 300원","phone":"031-8024-4993","updatedAt":"2025-07-01","sido":"경기도","sigungu":"평택시","dong":"서정동"},{"name":"안중노상제1공영","type":"공영","category":"노상","address":"경기도 평택시 안중읍 안중리 279-1","lat":36.988745,"lng":126.929495,"totalSpaces":16,"isFree":false,"operatingDays":"평일","weekdayOpen":"10:00","weekdayClose":"19:00","weekendOpen":"00:00","weekendClose":"00:00","holidayOpen":"00:00","holidayClose":"00:00","feeInfo":"기본 60분 1,000원 / 추가 10분당 300원","phone":"031-8024-4993","updatedAt":"2025-07-01","sido":"경기도","sigungu":"평택시","dong":"안중읍"},{"name":"신장노상제1공영","type":"공영","category":"노상","address":"경기도 평택시 신장동 214-5","lat":37.081443,"lng":127.055629,"totalSpaces":11,"isFree":false,"operatingDays":"평일","weekdayOpen":"10:00","weekdayClose":"19:00","weekendOpen":"00:00","weekendClose":"00:00","holidayOpen":"00:00","holidayClose":"00:00","feeInfo":"기본 60분 1,000원 / 추가 10분당 300원","phone":"031-8024-4993","updatedAt":"2025-07-01","sido":"경기도","sigungu":"평택시","dong":"신장동"}]}