{"sido":"경기도","sigungu":"과천시","totalCount":99,"validCount":99,"items":[{"name":"공영노외주차장","type":"공영","category":"노외","address":"경기도 과천시 문원동 115-73","lat":37.424652,"lng":127.009838,"totalSpaces":55,"isFree":true,"operatingDays":"평일+토요일+공휴일","weekdayOpen":"00:00","weekdayClose":"23:59","weekendOpen":"00:00","weekendClose":"23:59","holidayOpen":"00:00","holidayClose":"23:59","feeInfo":"무료","phone":"02-3677-2897","updatedAt":"2025-12-01","sido":"경기도","sigungu":"과천시","dong":"문원동"},{"name":"문원공원마을 어린이집","type":"공영","category":"노외","address":"경기도 과천시 문원동 15-160","lat":37.42940118,"lng":127.0052336,"totalSpaces":48,"isFree":true,"operatingDays":"평일+토요일+공휴일","weekdayOpen":"00:00","weekdayClose":"23:59","weekendOpen":"00:00","weekendClose":"23:59","holidayOpen":"00:00","holidayClose":"23:59","feeInfo":"무료","phone":"02-3677-2897","updatedAt":"2025-12-01","sido":"경기도","sigungu":"과천시","dong":"문원동"},{"name":"광창1","type":"공영","category":"노외","address":"경기도 과천시 과천동 150","lat":37.44923763,"lng":127.0111683,"totalSpaces":48,"isFree":true,"operatingDays":"평일+토요일+공휴일","weekdayOpen":"00:00","weekdayClose":"23:59","weekendOpen":"00:00","weekendClose":"23:59","holidayOpen":"00:00","holidayClose":"23:59","feeInfo":"무료","phone":"02-3677-2897","updatedAt":"2025-12-01","sido":"경기도","sigungu":"과천시","dong":"과천동"},{"name":"공영노외주차장","type":"공영","category":"노외","address":"경기도 과천시 문원동 150-8","lat":37.422861,"lng":127.008527,"totalSpaces":42,"isFree":true,"operatingDays":"평일+토요일+공휴일","weekdayOpen":"00:00","weekdayClose":"23:59","weekendOpen":"00:00","weekendClose":"23:59","holidayOpen":"00:00","holidayClose":"23:59","feeInfo":"무료","phone":"02-3677-2897","updatedAt":"2025-12-01","sido":"경기도","sigungu":"과천시","dong":"문원동"},{"name":"용마골삼거리1","type":"공영","category":"노외","address":"경기도 과천시 과천동 549-25","lat":37.44720002,"lng":126.993599,"totalSpaces":40,"isFree":true,"operatingDays":"평일+토요일+공휴일","weekdayOpen":"00:00","weekdayClose":"23:59","weekendOpen":"00:00","weekendClose":"23:59","holidayOpen":"00:00","holidayClose":"23:59","feeInfo":"무료","phone":"02-3677-2897","updatedAt":"2025-12-01","sido":"경기도","sigungu":"과천시","dong":"과천동"},{"name":"문원동 버스차고지","type":"공영","category":"노외","address":"경기도 과천시 문원동 142","lat":37.42449221,"lng":127.007792,"totalSpaces":30,"isFree":true,"operatingDays":"평일+토요일","weekdayOpen":"00:00","weekdayClose":"23:59","weekendOpen":"00:00","weekendClose":"23:59","holidayOpen":"00:00","holidayClose":"00:00","feeInfo":"무료","phone":"02-3677-2897","updatedAt":"2025-12-01","sido":"경기도","sigungu":"과천시","dong":"문원동"},{"name":"한계주자창(남태령지구)","type":"공영","category":"노외","address":"경기도 과천시 과천동 520-3","lat":37.449952,"lng":126.9979354,"totalSpaces":30,"isFree":true,"operatingDays":"평일+토요일+공휴일","weekdayOpen":"00:00","weekdayClose":"23:59","weekendOpen":"00:00","weekendClose":"23:59","holidayOpen":"00:00","holidayClose":"23:59","feeInfo":"무료","phone":"02-3677-2897","updatedAt":"2025-12-01","sido":"경기도","sigungu":"과천시","dong":"과천동"},{"name":"상삼포1","type":"공영","category":"노외","address":"경기도 과천시 주암동 440-3","lat":37.4467072,"lng":127.0224955,"totalSpaces":28,"isFree":true,"operatingDays":"평일+토요일+공휴일","weekdayOpen":"00:00","weekdayClose":"23:59","weekendOpen":"00:00","weekendClose":"23:59","holidayOpen":"00:00","holidayClose":"23:59","feeInfo":"무료","phone":"02-3677-2897","updatedAt":"2025-12-01","sido":"경기도","sigungu":"과천시","dong":"주암동"},{"name":"공영노외주차장","type":"공영","category":"노외","address":"경기도 과천시 문원동 115-30","lat":37.425604,"lng":127.009779,"totalSpaces":24,"isFree":true,"operatingDays":"평일+토요일+공휴일","weekdayOpen":"00:00","weekdayClose":"23:59","weekendOpen":"00:00","weekendClose":"23:59","holidayOpen":"00:00","holidayClose":"23:59","feeInfo":"무료","phone":"02-3677-2897","updatedAt":"2025-12-01","sido":"경기도","sigungu":"과천시","dong":"문원동"},{"name":"공영노외주차장","type":"공영","category":"노외","address":"경기도 과천시 문원동 115-69","lat":37.425092,"lng":127.009951,"totalSpaces":22,"isFree":true,"operatingDays":"평일+토요일+공휴일","weekdayOpen":"00:00","weekdayClose":"23:59","weekendOpen":"00:00","weekendClose":"23:59","holidayOpen":"00:00","holidayClose":"23:59","feeInfo":"무료","phone":"02-3677-2897","updatedAt":"2025-12-01","sido":"경기도","sigungu":"과천시","dong":"문원동"},{"name":"상삼포6","type":"공영","category":"노외","address":"경기도 과천시 주암동 418-8","lat":37.447981,"lng":127.022412,"totalSpaces":19,"isFree":true,"operatingDays":"평일+토요일+공휴일","weekdayOpen":"00:00","weekdayClose":"23:59","weekendOpen":"00:00","weekendClose":"23:59","holidayOpen":"00:00","holidayClose":"23:59","feeInfo":"무료","phone":"02-3677-2897","updatedAt":"2025-12-01","sido":"경기도","sigungu":"과천시","dong":"주암동"},{"name":"죽바위1-1","type":"공영","category":"노외","address":"경기도 과천시 주암동 16-2","lat":37.45948484,"lng":127.033077,"totalSpaces":16,"isFree":true,"operatingDays":"평일+토요일+공휴일","weekdayOpen":"00:00","weekdayClose":"23:59","weekendOpen":"00:00","weekendClose":"23:59","holidayOpen":"00:00","holidayClose":"23:59","feeInfo":"무료","phone":"02-3677-2897","updatedAt":"2025-12-01","sido":"경기도","sigungu":"과천시","dong":"주암동"},{"name":"죽바위2-5","type":"공영","category":"노외","address":"경기도 과천시 주암동 183-7","lat":37.452202,"lng":127.027857,"totalSpaces":15,"isFree":true,"operatingDays":"평일+토요일+공휴일","weekdayOpen":"00:00","weekdayClose":"23:59","weekendOpen":"00:00","weekendClose":"23:59","holidayOpen":"00:00","holidayClose":"23:59","feeInfo":"무료","phone":"02-3677-2897","updatedAt":"2025-12-01","sido":"경기도","sigungu":"과천시","dong":"주암동"},{"name":"남태령6","type":"공영","category":"노외","address":"경기도 과천시 과천동 487-9","lat":37.452588,"lng":126.992835,"totalSpaces":15,"isFree":true,"operatingDays":"평일+토요일+공휴일","weekdayOpen":"00:00","weekdayClose":"23:59","weekendOpen":"00:00","weekendClose":"23:59","holidayOpen":"00:00","holidayClose":"23:59","feeInfo":"무료","phone":"02-3677-2897","updatedAt":"2025-12-01","sido":"경기도","sigungu":"과천시","dong":"과천동"},{"name":"사기막골1","type":"공영","category":"노외","address":"경기도 과천시 문원동 324-14","lat":37.419719,"lng":126.999178,"totalSpaces":15,"isFree":true,"operatingDays":"평일+토요일+공휴일","weekdayOpen":"00:00","weekdayClose":"23:59","weekendOpen":"00:00","weekendClose":"23:59","holidayOpen":"00:00","holidayClose":"23:59","feeInfo":"무료","phone":"02-3677-2897","updatedAt":"2025-12-01","sido":"경기도","sigungu":"과천시","dong":"문원동"},{"name":"광창5","type":"공영","category":"노외","address":"경기도 과천시 과천동 142-34","lat":37.447318,"lng":127.010646,"totalSpaces":15,"isFree":true,"operatingDays":"평일+토요일+공휴일","weekdayOpen":"00:00","weekdayClose":"23:59","weekendOpen":"00:00","weekendClose":"23:59","holidayOpen":"00:00","holidayClose":"23:59","feeInfo":"무료","phone":"02-3677-2897","updatedAt":"2025-12-01","sido":"경기도","sigungu":"과천시","dong":"과천동"},{"name":"죽바위1-2","type":"공영","category":"노외","address":"경기도 과천시 주암동 24-4","lat":37.45821554,"lng":127.0341895,"totalSpaces":14,"isFree":true,"operatingDays":"평일+토요일+공휴일","weekdayOpen":"00:00","weekdayClose":"23:59","weekendOpen":"00:00","weekendClose":"23:59","holidayOpen":"00:00","holidayClose":"23:59","feeInfo":"무료","phone":"02-3677-2897","updatedAt":"2025-12-01","sido":"경기도","sigungu":"과천시","dong":"주암동"},{"name":"상삼포5","type":"공영","category":"노외","address":"경기도 과천시 주암동 422-10","lat":37.44725,"lng":127.0228,"totalSpaces":13,"isFree":true,"operatingDays":"평일+토요일+공휴일","weekdayOpen":"00:00","weekdayClose":"23:59","weekendOpen":"00:00","weekendClose":"23:59","holidayOpen":"00:00","holidayClose":"23:59","feeInfo":"무료","phone":"02-3677-2897","updatedAt":"2025-12-01","sido":"경기도","sigungu":"과천시","dong":"주암동"},{"name":"죽바위 2-3","type":"공영","category":"노외","address":"경기도 과천시 주암동 168-6","lat":37.45426765,"lng":127.0302967,"totalSpaces":13,"isFree":true,"operatingDays":"평일+토요일+공휴일","weekdayOpen":"00:00","weekdayClose":"23:59","weekendOpen":"00:00","weekendClose":"23:59","holidayOpen":"00:00","holidayClose":"23:59","feeInfo":"무료","phone":"02-3677-2897","updatedAt":"2025-12-01","sido":"경기도","sigungu":"과천시","dong":"주암동"},{"name":"뒷골2","type":"공영","category":"노외","address":"경기도 과천시 과천동 402-12","lat":37.45986083,"lng":127.000741,"totalSpaces":13,"isFree":true,"operatingDays":"평일+토요일+공휴일","weekdayOpen":"00:00","weekdayClose":"23:59","weekendOpen":"00:00","weekendClose":"23:59","holidayOpen":"00:00","holidayClose":"23:59","feeInfo":"무료","phone":"02-3677-2897","updatedAt":"2025-12-01","sido":"경기도","sigungu":"과천시","dong":"과천동"},{"name":"공영노외주차장","type":"공영","category":"노외","address":"경기도 과천시 별양동 31-4","lat":37.424945,"lng":126.996674,"totalSpaces":12,"isFree":true,"operatingDays":"평일+토요일+공휴일","weekdayOpen":"00:00","weekdayClose":"23:59","weekendOpen":"00:00","weekendClose":"23:59","holidayOpen":"00:00","holidayClose":"23:59","feeInfo":"무료","phone":"02-3677-2897","updatedAt":"2025-12-01","sido":"경기도","sigungu":"과천시","dong":"별양동"},{"name":"공영노외주차장","type":"공영","category":"노외","address":"경기도 과천시 부림동 16-1","lat":37.439446,"lng":126.996895,"totalSpaces":12,"isFree":true,"operatingDays":"평일+토요일+공휴일","weekdayOpen":"00:00","weekdayClose":"23:59","weekendOpen":"00:00","weekendClose":"23:59","holidayOpen":"00:00","holidayClose":"23:59","feeInfo":"무료","phone":"02-3677-2897","updatedAt":"2025-12-01","sido":"경기도","sigungu":"과천시","dong":"부림동"},{"name":"공영노외주차장","type":"공영","category":"노외","address":"경기도 과천시 부림동 39-6","lat":37.437649,"lng":126.999693,"totalSpaces":11,"isFree":true,"operatingDays":"평일+토요일+공휴일","weekdayOpen":"00:00","weekdayClose":"23:59","weekendOpen":"00:00","weekendClose":"23:59","holidayOpen":"00:00","holidayClose":"23:59","feeInfo":"무료","phone":"02-3677-2897","updatedAt":"2025-12-01","sido":"경기도","sigungu":"과천시","dong":"부림동"},{"name":"찬우물2","type":"공영","category":"노외","address":"경기도 과천시 갈현동 355-11","lat":37.41670235,"lng":126.9821179,"totalSpaces":11,"isFree":true,"operatingDays":"평일+토요일+공휴일","weekdayOpen":"00:00","weekdayClose":"23:59","weekendOpen":"00:00","weekendClose":"23:59","holidayOpen":"00:00","holidayClose":"23:59","feeInfo":"무료","phone":"02-3677-2897","updatedAt":"2025-12-01","sido":"경기도","sigungu":"과천시","dong":"갈현동"},{"name":"뒷골3","type":"공영","category":"노외","address":"경기도 과천시 과천동 389-13","lat":37.458668,"lng":127.001185,"totalSpaces":11,"isFree":true,"operatingDays":"평일+토요일+공휴일","weekdayOpen":"00:00","weekdayClose":"23:59","weekendOpen":"00:00","weekendClose":"23:59","holidayOpen":"00:00","holidayClose":"23:59","feeInfo":"무료","phone":"02-3677-2897","updatedAt":"2025-12-01","sido":"경기도","sigungu":"과천시","dong":"과천동"},{"name":"뒷골4","type":"공영","category":"노외","address":"경기도 과천시 과천동 375-10","lat":37.456188,"lng":127.001402,"totalSpaces":11,"isFree":true,"operatingDays":"평일+토요일+공휴일","weekdayOpen":"00:00","weekdayClose":"23:59","weekendOpen":"00:00","weekendClose":"23:59","holidayOpen":"00:00","holidayClose":"23:59","feeInfo":"무료","phone":"02-3677-2897","updatedAt":"2025-12-01","sido":"경기도","sigungu":"과천시","dong":"과천동"},{"name":"남태령3","type":"공영","category":"노외","address":"경기도 과천시 과천동 462-15","lat":37.450108,"lng":126.995787,"totalSpaces":11,"isFree":true,"operatingDays":"평일+토요일+공휴일","weekdayOpen":"00:00","weekdayClose":"23:59","weekendOpen":"00:00","weekendClose":"23:59","holidayOpen":"00:00","holidayClose":"23:59","feeInfo":"무료","phone":"02-3677-2897","updatedAt":"2025-12-01","sido":"경기도","sigungu":"과천시","dong":"과천동"},{"name":"공영노외주차장","type":"공영","category":"노외","address":"경기도 과천시 중앙동 28-13","lat":37.431691,"lng":126.990238,"totalSpaces":10,"isFree":true,"operatingDays":"평일+토요일+공휴일","weekdayOpen":"00:00","weekdayClose":"23:59","weekendOpen":"00:00","weekendClose":"23:59","holidayOpen":"00:00","holidayClose":"23:59","feeInfo":"무료","phone":"02-3677-2897","updatedAt":"2025-12-01","sido":"경기도","sigungu":"과천시","dong":"중앙동"},{"name":"공영노외주차장","type":"공영","category":"노외","address":"경기도 과천시 중앙동 28-3","lat":37.43199961,"lng":126.990297,"totalSpaces":10,"isFree":true,"operatingDays":"평일+토요일+공휴일","weekdayOpen":"00:00","weekdayClose":"23:59","weekendOpen":"00:00","weekendClose":"23:59","holidayOpen":"00:00","holidayClose":"23:59","feeInfo":"무료","phone":"02-3677-2897","updatedAt":"2025-12-01","sido":"경기도","sigungu":"과천시","dong":"중앙동"},{"name":"공영노외주차장","type":"공영","category":"노외","address":"경기도 과천시 중앙동 9-6","lat":37.43119492,"lng":126.988561,"totalSpaces":10,"isFree":true,"operatingDays":"평일+토요일+공휴일","weekdayOpen":"00:00","weekdayClose":"23:59","weekendOpen":"00:00","weekendClose":"23:59","holidayOpen":"00:00","holidayClose":"23:59","feeInfo":"무료","phone":"02-3677-2897","updatedAt":"2025-12-01","sido":"경기도","sigungu":"과천시","dong":"중앙동"},{"name":"공영노외주차장","type":"공영","category":"노외","address":"경기도 과천시 별양동 23-3","lat":37.4255935,"lng":126.9955416,"totalSpaces":10,"isFree":true,"operatingDays":"평일+토요일+공휴일","weekdayOpen":"00:00","weekdayClose":"23:59","weekendOpen":"00:00","weekendClose":"23:59","holidayOpen":"00:00","holidayClose":"23:59","feeInfo":"무료","phone":"02-3677-2897","updatedAt":"2025-12-01","sido":"경기도","sigungu":"과천시","dong":"별양동"},{"name":"공영노외주차장","type":"공영","category":"노외","address":"경기도 과천시 별양동 41-1","lat":37.42346679,"lng":126.9963227,"totalSpaces":10,"isFree":true,"operatingDays":"평일+토요일+공휴일","weekdayOpen":"00:00","weekdayClose":"23:59","weekendOpen":"00:00","weekendClose":"23:59","holidayOpen":"00:00","holidayClose":"23:59","feeInfo":"무료","phone":"02-3677-2897","updatedAt":"2025-12-01","sido":"경기도","sigungu":"과천시","dong":"별양동"},{"name":"공영노외주차장","type":"공영","category":"노외","address":"경기도 과천시 별양동 42-2","lat":37.423651,"lng":126.996688,"totalSpaces":10,"isFree":true,"operatingDays":"평일+토요일+공휴일","weekdayOpen":"00:00","weekdayClose":"23:59","weekendOpen":"00:00","weekendClose":"23:59","holidayOpen":"00:00","holidayClose":"23:59","feeInfo":"무료","phone":"02-3677-2897","updatedAt":"2025-12-01","sido":"경기도","sigungu":"과천시","dong":"별양동"},{"name":"공영노외주차장","type":"공영","category":"노외","address":"경기도 과천시 부림동 20-3","lat":37.438928,"lng":126.997428,"totalSpaces":10,"isFree":true,"operatingDays":"평일+토요일+공휴일","weekdayOpen":"00:00","weekdayClose":"23:59","weekendOpen":"00:00","weekendClose":"23:59","holidayOpen":"00:00","holidayClose":"23:59","feeInfo":"무료","phone":"02-3677-2897","updatedAt":"2025-12-01","sido":"경기도","sigungu":"과천시","dong":"부림동"},{"name":"공영노외주차장","type":"공영","category":"노외","address":"경기도 과천시 부림동 29-11","lat":37.437072,"lng":126.996563,"totalSpaces":10,"isFree":true,"operatingDays":"평일+토요일+공휴일","weekdayOpen":"00:00","weekdayClose":"23:59","weekendOpen":"00:00","weekendClose":"23:59","holidayOpen":"00:00","holidayClose":"23:59","feeInfo":"무료","phone":"02-3677-2897","updatedAt":"2025-12-01","sido":"경기도","sigungu":"과천시","dong":"부림동"},{"name":"공영노외주차장","type":"공영","category":"노외","address":"경기도 과천시 부림동 35-8","lat":37.438355,"lng":126.998979,"totalSpaces":10,"isFree":true,"operatingDays":"평일+토요일+공휴일","weekdayOpen":"00:00","weekdayClose":"23:59","weekendOpen":"00:00","weekendClose":"23:59","holidayOpen":"00:00","holidayClose":"23:59","feeInfo":"무료","phone":"02-3677-2897","updatedAt":"2025-12-01","sido":"경기도","sigungu":"과천시","dong":"부림동"},{"name":"공영노외주차장","type":"공영","category":"노외","address":"경기도 과천시 주암동 70-6","lat":37.463031,"lng":127.033752,"totalSpaces":9,"isFree":true,"operatingDays":"평일+토요일+공휴일","weekdayOpen":"00:00","weekdayClose":"23:59","weekendOpen":"00:00","weekendClose":"23:59","holidayOpen":"00:00","holidayClose":"23:59","feeInfo":"무료","phone":"02-3677-2897","updatedAt":"2025-12-01","sido":"경기도","sigungu":"과천시","dong":"주암동"},{"name":"공영노외주차장","type":"공영","category":"노외","address":"경기도 과천시 중앙동 26-3","lat":37.429507,"lng":126.989095,"totalSpaces":9,"isFree":true,"operatingDays":"평일+토요일+공휴일","weekdayOpen":"00:00","weekdayClose":"23:59","weekendOpen":"00:00","weekendClose":"23:59","holidayOpen":"00:00","holidayClose":"23:59","feeInfo":"무료","phone":"02-3677-2897","updatedAt":"2025-12-01","sido":"경기도","sigungu":"과천시","dong":"중앙동"},{"name":"상삼포2","type":"공영","category":"노외","address":"경기도 과천시 주암동 440-8","lat":37.44671448,"lng":127.022276,"totalSpaces":9,"isFree":true,"operatingDays":"평일+토요일+공휴일","weekdayOpen":"00:00","weekdayClose":"23:59","weekendOpen":"00:00","weekendClose":"23:59","holidayOpen":"00:00","holidayClose":"23:59","feeInfo":"무료","phone":"02-3677-2897","updatedAt":"2025-12-01","sido":"경기도","sigungu":"과천시","dong":"주암동"},{"name":"찬우물1","type":"공영","category":"노외","address":"경기도 과천시 갈현동 4-3","lat":37.41830169,"lng":126.9852611,"totalSpaces":9,"isFree":true,"operatingDays":"평일+토요일+공휴일","weekdayOpen":"00:00","weekdayClose":"23:59","weekendOpen":"00:00","weekendClose":"23:59","holidayOpen":"00:00","holidayClose":"23:59","feeInfo":"무료","phone":"02-3677-2897","updatedAt":"2025-12-01","sido":"경기도","sigungu":"과천시","dong":"갈현동"},{"name":"사기막골4","type":"공영","category":"노외","address":"경기도 과천시 문원동 364-26","lat":37.418326,"lng":126.9995805,"totalSpaces":9,"isFree":true,"operatingDays":"평일+토요일+공휴일","weekdayOpen":"00:00","weekdayClose":"23:59","weekendOpen":"00:00","weekendClose":"23:59","holidayOpen":"00:00","holidayClose":"23:59","feeInfo":"무료","phone":"02-3677-2897","updatedAt":"2025-12-01","sido":"경기도","sigungu":"과천시","dong":"문원동"},{"name":"남태령1","type":"공영","category":"노외","address":"경기도 과천시 과천동 485-25","lat":37.452357,"lng":126.993233,"totalSpaces":9,"isFree":true,"operatingDays":"평일+토요일+공휴일","weekdayOpen":"00:00","weekdayClose":"23:59","weekendOpen":"00:00","weekendClose":"23:59","holidayOpen":"00:00","holidayClose":"23:59","feeInfo":"무료","phone":"02-3677-2897","updatedAt":"2025-12-01","sido":"경기도","sigungu":"과천시","dong":"과천동"},{"name":"공영노외주차장","type":"공영","category":"노외","address":"경기도 과천시 중앙동 9-11","lat":37.431356,"lng":126.987964,"totalSpaces":8,"isFree":true,"operatingDays":"평일+토요일+공휴일","weekdayOpen":"00:00","weekdayClose":"23:59","weekendOpen":"00:00","weekendClose":"23:59","holidayOpen":"00:00","holidayClose":"23:59","feeInfo":"무료","phone":"02-3677-2897","updatedAt":"2025-12-01","sido":"경기도","sigungu":"과천시","dong":"중앙동"},{"name":"공영노외주차장","type":"공영","category":"노외","address":"경기도 과천시 문원동 149-1","lat":37.423398,"lng":127.008469,"totalSpaces":8,"isFree":true,"operatingDays":"평일+토요일+공휴일","weekdayOpen":"00:00","weekdayClose":"23:59","weekendOpen":"00:00","weekendClose":"23:59","holidayOpen":"00:00","holidayClose":"23:59","feeInfo":"무료","phone":"02-3677-2897","updatedAt":"2025-12-01","sido":"경기도","sigungu":"과천시","dong":"문원동"},{"name":"공영노외주차장","type":"공영","category":"노외","address":"경기도 과천시 부림동 24-8","lat":37.438272,"lng":126.995982,"totalSpaces":8,"isFree":true,"operatingDays":"평일+토요일+공휴일","weekdayOpen":"00:00","weekdayClose":"23:59","weekendOpen":"00:00","weekendClose":"23:59","holidayOpen":"00:00","holidayClose":"23:59","feeInfo":"무료","phone":"02-3677-2897","updatedAt":"2025-12-01","sido":"경기도","sigungu":"과천시","dong":"부림동"},{"name":"상삼포3","type":"공영","category":"노외","address":"경기도 과천시 주암동 422-16","lat":37.44649477,"lng":127.023136,"totalSpaces":8,"isFree":true,"operatingDays":"평일+토요일+공휴일","weekdayOpen":"00:00","weekdayClose":"23:59","weekendOpen":"00:00","weekendClose":"23:59","holidayOpen":"00:00","holidayClose":"23:59","feeInfo":"무료","phone":"02-3677-2897","updatedAt":"2025-12-01","sido":"경기도","sigungu":"과천시","dong":"주암동"},{"name":"사기막골3","type":"공영","category":"노외","address":"경기도 과천시 문원동 355-3","lat":37.418696,"lng":127.003001,"totalSpaces":8,"isFree":true,"operatingDays":"평일+토요일+공휴일","weekdayOpen":"00:00","weekdayClose":"23:59","weekendOpen":"00:00","weekendClose":"23:59","holidayOpen":"00:00","holidayClose":"23:59","feeInfo":"무료","phone":"02-3677-2897","updatedAt":"2025-12-01","sido":"경기도","sigungu":"과천시","dong":"문원동"},{"name":"나대지주차장(市)","type":"공영","category":"노외","address":"경기도 과천시 주암동 69-1","lat":37.462037,"lng":127.032653,"totalSpaces":8,"isFree":true,"operatingDays":"평일+토요일+공휴일","weekdayOpen":"00:00","weekdayClose":"23:59","weekendOpen":"00:00","weekendClose":"23:59","holidayOpen":"00:00","holidayClose":"23:59","feeInfo":"무료","phone":"02-3677-2897","updatedAt":"2025-12-01","sido":"경기도","sigungu":"과천시","dong":"주암동"},{"name":"공영노외주차장","type":"공영","category":"노외","address":"경기도 과천시 부림동 39-8","lat":37.437462,"lng":126.999611,"totalSpaces":7,"isFree":true,"operatingDays":"평일+토요일+공휴일","weekdayOpen":"00:00","weekdayClose":"23:59","weekendOpen":"00:00","weekendClose":"23:59","holidayOpen":"00:00","holidayClose":"23:59","feeInfo":"무료","phone":"02-3677-2897","updatedAt":"2025-12-01","sido":"경기도","sigungu":"과천시","dong":"부림동"},{"name":"광창2","type":"공영","category":"노외","address":"경기도 과천시 과천동 133-3","lat":37.448673,"lng":127.010022,"totalSpaces":7,"isFree":true,"operatingDays":"평일+토요일+공휴일","weekdayOpen":"00:00","weekdayClose":"23:59","weekendOpen":"00:00","weekendClose":"23:59","holidayOpen":"00:00","holidayClose":"23:59","feeInfo":"무료","phone":"02-3677-2897","updatedAt":"2025-12-01","sido":"경기도","sigungu":"과천시","dong":"과천동"},{"name":"광창3","type":"공영","category":"노외","address":"경기도 과천시 과천동 143-3","lat":37.448443,"lng":127.0100824,"totalSpaces":6,"isFree":true,"operatingDays":"평일+토요일+공휴일","weekdayOpen":"00:00","weekdayClose":"23:59","weekendOpen":"00:00","weekendClose":"23:59","holidayOpen":"00:00","holidayClose":"23:59","feeInfo":"무료","phone":"02-3677-2897","updatedAt":"2025-12-01","sido":"경기도","sigungu":"과천시","dong":"과천동"},{"name":"공영노외주차장","type":"공영","category":"노외","address":"경기도 과천시 문원동 115-403","lat":37.4219936,"lng":127.0109198,"totalSpaces":5,"isFree":true,"operatingDays":"평일+토요일+공휴일","weekdayOpen":"00:00","weekdayClose":"23:59","weekendOpen":"00:00","weekendClose":"23:59","holidayOpen":"00:00","holidayClose":"23:59","feeInfo":"무료","phone":"02-3677-2897","updatedAt":"2025-12-01","sido":"경기도","sigungu":"과천시","dong":"문원동"},{"name":"죽바위2-1","type":"공영","category":"노외","address":"경기도 과천시 주암동 108-6","lat":37.45709195,"lng":127.0307313,"totalSpaces":5,"isFree":true,"operatingDays":"평일+토요일+공휴일","weekdayOpen":"00:00","weekdayClose":"23:59","weekendOpen":"00:00","weekendClose":"23:59","holidayOpen":"00:00","holidayClose":"23:59","feeInfo":"무료","phone":"02-3677-2897","updatedAt":"2025-12-01","sido":"경기도","sigungu":"과천시","dong":"주암동"},{"name":"사기막골2","type":"공영","category":"노외","address":"경기도 과천시 문원동 1023-83","lat":37.419218,"lng":127.001143,"totalSpaces":5,"isFree":true,"operatingDays":"평일+토요일+공휴일","weekdayOpen":"00:00","weekdayClose":"23:59","weekendOpen":"00:00","weekendClose":"23:59","holidayOpen":"00:00","holidayClose":"23:59","feeInfo":"무료","phone":"02-3677-2897","updatedAt":"2025-12-01","sido":"경기도","sigungu":"과천시","dong":"문원동"},{"name":"공영노외주차장","type":"공영","category":"노외","address":"경기도 과천시 문원동 115-290","lat":37.423358,"lng":127.009766,"totalSpaces":4,"isFree":true,"operatingDays":"평일+토요일+공휴일","weekdayOpen":"00:00","weekdayClose":"23:59","weekendOpen":"00:00","weekendClose":"23:59","holidayOpen":"00:00","holidayClose":"23:59","feeInfo":"무료","phone":"02-3677-2897","updatedAt":"2025-12-01","sido":"경기도","sigungu":"과천시","dong":"문원동"},{"name":"공영노외주차장","type":"공영","category":"노외","address":"경기도 과천시 중앙동 19-8","lat":37.433176,"lng":126.991047,"totalSpaces":4,"isFree":true,"operatingDays":"평일+토요일+공휴일","weekdayOpen":"00:00","weekdayClose":"23:59","weekendOpen":"00:00","weekendClose":"23:59","holidayOpen":"00:00","holidayClose":"23:59","feeInfo":"무료","phone":"02-3677-2897","updatedAt":"2025-12-01","sido":"경기도","sigungu":"과천시","dong":"중앙동"},{"name":"공영노외주차장","type":"공영","category":"노외","address":"경기도 과천시 문원동 15-147","lat":37.42888672,"lng":127.005093,"totalSpaces":4,"isFree":true,"operatingDays":"평일+토요일+공휴일","weekdayOpen":"00:00","weekdayClose":"23:59","weekendOpen":"00:00","weekendClose":"23:59","holidayOpen":"00:00","holidayClose":"23:59","feeInfo":"무료","phone":"02-3677-2897","updatedAt":"2025-12-01","sido":"경기도","sigungu":"과천시","dong":"문원동"},{"name":"공영노외주차장","type":"공영","category":"노외","address":"경기도 과천시 문원동 115-59","lat":37.4251479,"lng":127.0103145,"totalSpaces":3,"isFree":true,"operatingDays":"평일+토요일+공휴일","weekdayOpen":"00:00","weekdayClose":"23:59","weekendOpen":"00:00","weekendClose":"23:59","holidayOpen":"00:00","holidayClose":"23:59","feeInfo":"무료","phone":"02-3677-2897","updatedAt":"2025-12-01","sido":"경기도","sigungu":"과천시","dong":"문원동"},{"name":"공영노외주차장","type":"공영","category":"노외","address":"경기도 과천시 문원동 115-136","lat":37.424105,"lng":127.009137,"totalSpaces":3,"isFree":true,"operatingDays":"평일+토요일+공휴일","weekdayOpen":"00:00","weekdayClose":"23:59","weekendOpen":"00:00","weekendClose":"23:59","holidayOpen":"00:00","holidayClose":"23:59","feeInfo":"무료","phone":"02-3677-2897","updatedAt":"2025-12-01","sido":"경기도","sigungu":"과천시","dong":"문원동"},{"name":"공영노외주차장","type":"공영","category":"노외","address":"경기도 과천시 문원동 115-186","lat":37.423798,"lng":127.010109,"totalSpaces":3,"isFree":true,"operatingDays":"평일+토요일+공휴일","weekdayOpen":"00:00","weekdayClose":"23:59","weekendOpen":"00:00","weekendClose":"23:59","holidayOpen":"00:00","holidayClose":"23:59","feeInfo":"무료","phone":"02-3677-2897","updatedAt":"2025-12-01","sido":"경기도","sigungu":"과천시","dong":"문원동"},{"name":"공영노외주차장","type":"공영","category":"노외","address":"경기도 과천시 문원동 115-219","lat":37.424414,"lng":127.010606,"totalSpaces":3,"isFree":true,"operatingDays":"평일+토요일+공휴일","weekdayOpen":"00:00","weekdayClose":"23:59","weekendOpen":"00:00","weekendClose":"23:59","holidayOpen":"00:00","holidayClose":"23:59","feeInfo":"무료","phone":"02-3677-2897","updatedAt":"2025-12-01","sido":"경기도","sigungu":"과천시","dong":"문원동"},{"name":"공영노외주차장","type":"공영","category":"노외","address":"경기도 과천시 문원동 115-264","lat":37.422926,"lng":127.010606,"totalSpaces":3,"isFree":true,"operatingDays":"평일+토요일+공휴일","weekdayOpen":"00:00","weekdayClose":"23:59","weekendOpen":"00:00","weekendClose":"23:59","holidayOpen":"00:00","holidayClose":"23:59","feeInfo":"무료","phone":"02-3677-2897","updatedAt":"2025-12-01","sido":"경기도","sigungu":"과천시","dong":"문원동"},{"name":"궁말마을 입구(경마공원역)","type":"공영","category":"노상","address":"경기도 과천시 과천동 669-1","lat":37.440863,"lng":127.008123,"totalSpaces":172,"isFree":false,"operatingDays":"평일+토요일+공휴일","weekdayOpen":"09:00","weekdayClose":"19:00","weekendOpen":"09:00","weekendClose":"19:00","holidayOpen":"09:00","holidayClose":"19:00","feeInfo":"기본 5분 0원 / 추가 5분당 300원","phone":"02-500-1145","updatedAt":"2025-12-01","sido":"경기도","sigungu":"과천시","dong":"과천동"},{"name":"우면산간(4 주차장)","type":"공영","category":"노상","address":"경기도 과천시 용마2로 2","lat":37.447163,"lng":126.992776,"totalSpaces":164,"isFree":false,"operatingDays":"평일+토요일+공휴일","weekdayOpen":"09:00","weekdayClose":"19:00","weekendOpen":"09:00","weekendClose":"19:00","holidayOpen":"09:00","holidayClose":"19:00","feeInfo":"기본 5분 0원 / 추가 5분당 300원","phone":"02-500-1145","updatedAt":"2025-12-01","sido":"경기도","sigungu":"과천시","dong":"과천동"},{"name":"광창교 앞(삼부골)","type":"공영","category":"노상","address":"경기도 과천시 과천동 245-3","lat":37.448684,"lng":127.004489,"totalSpaces":152,"isFree":false,"operatingDays":"평일+토요일+공휴일","weekdayOpen":"09:00","weekdayClose":"19:00","weekendOpen":"09:00","weekendClose":"19:00","holidayOpen":"09:00","holidayClose":"19:00","feeInfo":"기본 5분 0원 / 추가 5분당 300원","phone":"02-500-1145","updatedAt":"2025-12-01","sido":"경기도","sigungu":"과천시","dong":"과천동"},{"name":"우면산간(2,3주차장)","type":"공영","category":"노상","address":"경기도 과천시 용마2로 2","lat":37.447163,"lng":126.992776,"totalSpaces":132,"isFree":false,"operatingDays":"평일+토요일+공휴일","weekdayOpen":"09:00","weekdayClose":"19:00","weekendOpen":"09:00","weekendClose":"19:00","holidayOpen":"09:00","holidayClose":"19:00","feeInfo":"기본 5분 0원 / 추가 5분당 300원","phone":"02-500-1145","updatedAt":"2025-12-01","sido":"경기도","sigungu":"과천시","dong":"과천동"},{"name":"관악산길","type":"공영","category":"노상","address":"경기도 과천시 중앙동 44","lat":37.43178817,"lng":126.9875173,"totalSpaces":96,"isFree":false,"operatingDays":"평일+토요일+공휴일","weekdayOpen":"09:00","weekdayClose":"19:00","weekendOpen":"09:00","weekendClose":"19:00","holidayOpen":"09:00","holidayClose":"19:00","feeInfo":"기본 5분 0원 / 추가 5분당 150원","phone":"02-500-1145","updatedAt":"2025-12-01","sido":"경기도","sigungu":"과천시","dong":"중앙동"},{"name":"주차빌딩","type":"공영","category":"노외","address":"경기도 과천시 별양상가1로 39","lat":37.428293,"lng":126.994057,"totalSpaces":81,"isFree":false,"operatingDays":"평일+토요일","weekdayOpen":"09:00","weekdayClose":"19:00","weekendOpen":"09:00","weekendClose":"19:00","holidayOpen":"00:00","holidayClose":"00:00","feeInfo":"기본 5분 0원 / 추가 5분당 250원","phone":"02-500-1145","updatedAt":"2025-12-01","sido":"경기도","sigungu":"과천시","dong":"별양동"},{"name":"뒷골7","type":"공영","category":"노외","address":"경기도 과천시 과천동 367-4","lat":37.45366937,"lng":127.001234,"totalSpaces":55,"isFree":false,"operatingDays":"평일+토요일","weekdayOpen":"09:00","weekdayClose":"19:00","weekendOpen":"09:00","weekendClose":"19:00","holidayOpen":"00:00","holidayClose":"00:00","feeInfo":"기본 5분 0원 / 추가 5분당 70원","phone":"02-500-1145","updatedAt":"2025-12-01","sido":"경기도","sigungu":"과천시","dong":"과천동"},{"name":"광창교(5주차장 선바위역)","type":"공영","category":"노상","address":"경기도 과천시 과천동 140-20","lat":37.44824182,"lng":127.0058131,"totalSpaces":54,"isFree":false,"operatingDays":"평일+토요일+공휴일","weekdayOpen":"09:00","weekdayClose":"19:00","weekendOpen":"09:00","weekendClose":"19:00","holidayOpen":"09:00","holidayClose":"19:00","feeInfo":"기본 5분 0원 / 추가 5분당 300원","phone":"02-500-1145","updatedAt":"2025-12-01","sido":"경기도","sigungu":"과천시","dong":"과천동"},{"name":"코오롱 앞(기계식)","type":"공영","category":"노외","address":"경기도 과천시 별양동 1-35","lat":37.4256054,"lng":126.9916342,"totalSpaces":47,"isFree":false,"operatingDays":"평일+토요일","weekdayOpen":"09:00","weekdayClose":"19:00","weekendOpen":"09:00","weekendClose":"19:00","holidayOpen":"00:00","holidayClose":"00:00","feeInfo":"기본 5분 0원 / 추가 5분당 250원","phone":"02-500-1145","updatedAt":"2025-12-01","sido":"경기도","sigungu":"과천시","dong":"별양동"},{"name":"북문노상주차장","type":"공영","category":"노상","address":"경기도 과천시 주암동 685-31","lat":37.45095247,"lng":127.0185449,"totalSpaces":45,"isFree":false,"operatingDays":"평일+토요일+공휴일","weekdayOpen":"09:00","weekdayClose":"19:00","weekendOpen":"09:00","weekendClose":"19:00","holidayOpen":"09:00","holidayClose":"19:00","feeInfo":"기본 5분 0원 / 추가 5분당 300원","phone":"02-500-1145","updatedAt":"2025-12-01","sido":"경기도","sigungu":"과천시","dong":"주암동"},{"name":"국민은행 앞(상이군경회)","type":"공영","category":"노외","address":"경기도 과천시 중앙로 100","lat":37.42599694,"lng":126.9901861,"totalSpaces":44,"isFree":false,"operatingDays":"평일+토요일","weekdayOpen":"09:00","weekdayClose":"19:00","weekendOpen":"09:00","weekendClose":"19:00","holidayOpen":"00:00","holidayClose":"00:00","feeInfo":"기본 5분 0원 / 추가 5분당 250원","phone":"02-500-1145","updatedAt":"2025-12-01","sido":"경기도","sigungu":"과천시","dong":"별양동"},{"name":"교보빌딩 앞(상이군경회)","type":"공영","category":"노외","address":"경기도 과천시 별양동 1-16","lat":37.42723243,"lng":126.9915588,"totalSpaces":41,"isFree":false,"operatingDays":"평일+토요일","weekdayOpen":"09:00","weekdayClose":"19:00","weekendOpen":"09:00","weekendClose":"19:00","holidayOpen":"00:00","holidayClose":"00:00","feeInfo":"기본 5분 0원 / 추가 5분당 250원","phone":"02-500-1145","updatedAt":"2025-12-01","sido":"경기도","sigungu":"과천시","dong":"별양동"},{"name":"뒷골6","type":"공영","category":"노외","address":"경기도 과천시 과천동 370-12","lat":37.454274,"lng":127.000931,"totalSpaces":34,"isFree":false,"operatingDays":"평일+토요일","weekdayOpen":"09:00","weekdayClose":"19:00","weekendOpen":"09:00","weekendClose":"19:00","holidayOpen":"00:00","holidayClose":"00:00","feeInfo":"기본 5분 0원 / 추가 5분당 70원","phone":"02-500-1145","updatedAt":"2025-12-01","sido":"경기도","sigungu":"과천시","dong":"과천동"},{"name":"중앙동 소공원 주차장","type":"공영","category":"노외","address":"경기도 과천시 중앙동 98","lat":37.432238,"lng":126.989566,"totalSpaces":33,"isFree":false,"operatingDays":"평일+토요일","weekdayOpen":"09:00","weekdayClose":"19:00","weekendOpen":"09:00","weekendClose":"19:00","holidayOpen":"00:00","holidayClose":"00:00","feeInfo":"기본 5분 0원 / 추가 5분당 70원","phone":"02-500-1145","updatedAt":"2025-12-01","sido":"경기도","sigungu":"과천시","dong":"중앙동"},{"name":"삼성SDS 앞","type":"공영","category":"노외","address":"경기도 과천시 별양동 1-21","lat":37.426112,"lng":126.990645,"totalSpaces":32,"isFree":false,"operatingDays":"평일+토요일","weekdayOpen":"09:00","weekdayClose":"19:00","weekendOpen":"09:00","weekendClose":"19:00","holidayOpen":"00:00","holidayClose":"00:00","feeInfo":"기본 5분 0원 / 추가 5분당 250원","phone":"02-500-1145","updatedAt":"2025-12-01","sido":"경기도","sigungu":"과천시","dong":"별양동"},{"name":"동성빌딩 주변","type":"공영","category":"노상","address":"경기도 과천시 중앙로 129","lat":37.428307,"lng":126.991002,"totalSpaces":31,"isFree":false,"operatingDays":"평일+토요일","weekdayOpen":"09:00","weekdayClose":"19:00","weekendOpen":"09:00","weekendClose":"19:00","holidayOpen":"00:00","holidayClose":"00:00","feeInfo":"기본 5분 0원 / 추가 5분당 250원","phone":"02-500-1145","updatedAt":"2025-12-01","sido":"경기도","sigungu":"과천시","dong":"중앙동"},{"name":"소방서 뒤","type":"공영","category":"노상","address":"경기도 과천시 중앙로 129","lat":37.428307,"lng":126.991002,"totalSpaces":22,"isFree":false,"operatingDays":"평일+토요일","weekdayOpen":"09:00","weekdayClose":"19:00","weekendOpen":"09:00","weekendClose":"19:00","holidayOpen":"00:00","holidayClose":"00:00","feeInfo":"기본 5분 0원 / 추가 5분당 250원","phone":"02-500-1145","updatedAt":"2025-12-01","sido":"경기도","sigungu":"과천시","dong":"중앙동"},{"name":"중신교회 앞","type":"공영","category":"노외","address":"경기도 과천시 별양상가1로 29","lat":37.428617,"lng":126.992778,"totalSpaces":22,"isFree":false,"operatingDays":"평일+토요일","weekdayOpen":"09:00","weekdayClose":"19:00","weekendOpen":"09:00","weekendClose":"19:00","holidayOpen":"00:00","holidayClose":"00:00","feeInfo":"기본 5분 0원 / 추가 5분당 250원","phone":"02-500-1145","updatedAt":"2025-12-01","sido":"경기도","sigungu":"과천시","dong":"별양동"},{"name":"찬우물3","type":"공영","category":"노외","address":"경기도 과천시 갈현동 13-34","lat":37.416521,"lng":126.984135,"totalSpaces":22,"isFree":false,"operatingDays":"평일+토요일","weekdayOpen":"09:00","weekdayClose":"19:00","weekendOpen":"09:00","weekendClose":"19:00","holidayOpen":"00:00","holidayClose":"00:00","feeInfo":"기본 5분 0원 / 추가 5분당 70원","phone":"02-500-1145","updatedAt":"2025-12-01","sido":"경기도","sigungu":"과천시","dong":"갈현동"},{"name":"농협(경찰서옆) 앞","type":"공영","category":"노상","address":"경기도 과천시 중앙동 59","lat":37.4290832,"lng":126.991613,"totalSpaces":20,"isFree":false,"operatingDays":"평일+토요일","weekdayOpen":"09:00","weekdayClose":"19:00","weekendOpen":"09:00","weekendClose":"19:00","holidayOpen":"00:00","holidayClose":"00:00","feeInfo":"기본 5분 0원 / 추가 5분당 250원","phone":"02-500-1145","updatedAt":"2025-12-01","sido":"경기도","sigungu":"과천시","dong":"중앙동"},{"name":"한내3","type":"공영","category":"노외","address":"경기도 과천시 과천동 527-18","lat":37.44741586,"lng":126.997984,"totalSpaces":19,"isFree":false,"operatingDays":"평일+토요일","weekdayOpen":"09:00","weekdayClose":"19:00","weekendOpen":"09:00","weekendClose":"19:00","holidayOpen":"00:00","holidayClose":"00:00","feeInfo":"기본 5분 0원 / 추가 5분당 70원","phone":"02-500-1145","updatedAt":"2025-12-01","sido":"경기도","sigungu":"과천시","dong":"과천동"},{"name":"그레이스호텔 앞","type":"공영","category":"노외","address":"경기도 과천시 별양동 1-15","lat":37.427756,"lng":126.992046,"totalSpaces":19,"isFree":false,"operatingDays":"평일+토요일","weekdayOpen":"09:00","weekdayClose":"19:00","weekendOpen":"09:00","weekendClose":"19:00","holidayOpen":"00:00","holidayClose":"00:00","feeInfo":"기본 5분 0원 / 추가 5분당 250원","phone":"02-500-1145","updatedAt":"2025-12-01","sido":"경기도","sigungu":"과천시","dong":"별양동"},{"name":"우리은행 옆","type":"공영","category":"노상","address":"경기도 과천시 별양동 55","lat":37.42802277,"lng":126.9940153,"totalSpaces":18,"isFree":false,"operatingDays":"평일+토요일","weekdayOpen":"09:00","weekdayClose":"19:00","weekendOpen":"09:00","weekendClose":"19:00","holidayOpen":"00:00","holidayClose":"00:00","feeInfo":"기본 5분 0원 / 추가 5분당 250원","phone":"02-500-1145","updatedAt":"2025-12-01","sido":"경기도","sigungu":"과천시","dong":"별양동"},{"name":"KT(전화국) 앞","type":"공영","category":"노상","address":"경기도 과천시 중앙동 59","lat":37.4290832,"lng":126.991613,"totalSpaces":17,"isFree":false,"operatingDays":"평일+토요일","weekdayOpen":"09:00","weekdayClose":"19:00","weekendOpen":"09:00","weekendClose":"19:00","holidayOpen":"00:00","holidayClose":"00:00","feeInfo":"기본 5분 0원 / 추가 5분당 250원","phone":"02-500-1145","updatedAt":"2025-12-01","sido":"경기도","sigungu":"과천시","dong":"중앙동"},{"name":"뒷골5","type":"공영","category":"노외","address":"경기도 과천시 과천동 372","lat":37.454992,"lng":127.000633,"totalSpaces":17,"isFree":false,"operatingDays":"평일+토요일","weekdayOpen":"09:00","weekdayClose":"19:00","weekendOpen":"09:00","weekendClose":"19:00","holidayOpen":"00:00","holidayClose":"00:00","feeInfo":"기본 5분 0원 / 추가 5분당 70원","phone":"02-500-1145","updatedAt":"2025-12-01","sido":"경기도","sigungu":"과천시","dong":"과천동"},{"name":"렉스타운 앞","type":"공영","category":"노외","address":"경기도 과천시 별양상가1로 25","lat":37.428278,"lng":126.992543,"totalSpaces":17,"isFree":false,"operatingDays":"평일+토요일","weekdayOpen":"09:00","weekdayClose":"19:00","weekendOpen":"09:00","weekendClose":"19:00","holidayOpen":"00:00","holidayClose":"00:00","feeInfo":"기본 5분 0원 / 추가 5분당 250원","phone":"02-500-1145","updatedAt":"2025-12-01","sido":"경기도","sigungu":"과천시","dong":"별양동"},{"name":"이마트 앞","type":"공영","category":"노상","address":"경기도 과천시 별양동 55","lat":37.42802277,"lng":126.9940153,"totalSpaces":16,"isFree":false,"operatingDays":"평일+토요일","weekdayOpen":"09:00","weekdayClose":"19:00","weekendOpen":"09:00","weekendClose":"19:00","holidayOpen":"00:00","holidayClose":"00:00","feeInfo":"기본 5분 0원 / 추가 5분당 250원","phone":"02-500-1145","updatedAt":"2025-12-01","sido":"경기도","sigungu":"과천시","dong":"별양동"},{"name":"새서울쇼핑 앞","type":"공영","category":"노상","address":"경기도 과천시 별양동 55","lat":37.42802277,"lng":126.9940153,"totalSpaces":15,"isFree":false,"operatingDays":"평일+토요일","weekdayOpen":"09:00","weekdayClose":"19:00","weekendOpen":"09:00","weekendClose":"19:00","holidayOpen":"00:00","holidayClose":"00:00","feeInfo":"기본 5분 0원 / 추가 5분당 250원","phone":"02-500-1145","updatedAt":"2025-12-01","sido":"경기도","sigungu":"과천시","dong":"별양동"},{"name":"제일쇼핑 앞","type":"공영","category":"노상","address":"경기도 과천시 별양동 55","lat":37.42802277,"lng":126.9940153,"totalSpaces":15,"isFree":false,"operatingDays":"평일+토요일","weekdayOpen":"09:00","weekdayClose":"19:00","weekendOpen":"09:00","weekendClose":"19:00","holidayOpen":"00:00","holidayClose":"00:00","feeInfo":"기본 5분 0원 / 추가 5분당 250원","phone":"02-500-1145","updatedAt":"2025-12-01","sido":"경기도","sigungu":"과천시","dong":"별양동"},{"name":"중앙빌딩","type":"공영","category":"노상","address":"경기도 과천시 중앙로 129","lat":37.428307,"lng":126.991002,"totalSpaces":15,"isFree":false,"operatingDays":"평일+토요일","weekdayOpen":"09:00","weekdayClose":"19:00","weekendOpen":"09:00","weekendClose":"19:00","holidayOpen":"00:00","holidayClose":"00:00","feeInfo":"기본 5분 0원 / 추가 5분당 250원","phone":"02-500-1145","updatedAt":"2025-12-01","sido":"경기도","sigungu":"과천시","dong":"중앙동"},{"name":"죽바위2-2","type":"공영","category":"노외","address":"경기도 과천시 주암동 163-6","lat":37.455853,"lng":127.0299813,"totalSpaces":11,"isFree":false,"operatingDays":"평일+토요일","weekdayOpen":"09:00","weekdayClose":"19:00","weekendOpen":"09:00","weekendClose":"19:00","holidayOpen":"00:00","holidayClose":"00:00","feeInfo":"기본 5분 0원 / 추가 5분당 70원","phone":"02-500-1145","updatedAt":"2025-12-01","sido":"경기도","sigungu":"과천시","dong":"주암동"},{"name":"2단지(은혜와진리교회) 앞","type":"공영","category":"노상","address":"경기도 과천시 별양동 55","lat":37.42802277,"lng":126.9940153,"totalSpaces":10,"isFree":false,"operatingDays":"평일+토요일","weekdayOpen":"09:00","weekdayClose":"19:00","weekendOpen":"09:00","weekendClose":"19:00","holidayOpen":"00:00","holidayClose":"00:00","feeInfo":"기본 5분 0원 / 추가 5분당 250원","phone":"02-500-1145","updatedAt":"2025-12-01","sido":"경기도","sigungu":"과천시","dong":"별양동"},{"name":"한내1","type":"공영","category":"노외","address":"경기도 과천시 과천동 525-10","lat":37.448259,"lng":126.998648,"totalSpaces":9,"isFree":false,"operatingDays":"평일+토요일","weekdayOpen":"09:00","weekdayClose":"19:00","weekendOpen":"09:00","weekendClose":"19:00","holidayOpen":"00:00","holidayClose":"00:00","feeInfo":"기본 5분 0원 / 추가 5분당 70원","phone":"02-500-1145","updatedAt":"2025-12-01","sido":"경기도","sigungu":"과천시","dong":"과천동"},{"name":"벽산상가 앞","type":"공영","category":"노상","address":"경기도 과천시 별양동 1-27","lat":37.42839086,"lng":126.9927814,"totalSpaces":8,"isFree":false,"operatingDays":"평일+토요일","weekdayOpen":"09:00","weekdayClose":"19:00","weekendOpen":"09:00","weekendClose":"19:00","holidayOpen":"00:00","holidayClose":"00:00","feeInfo":"기본 5분 0원 / 추가 5분당 250원","phone":"02-500-1145","updatedAt":"2025-12-01","sido":"경기도","sigungu":"과천시","dong":"별양동"},{"name":"골든타워 앞","type":"공영","category":"노상","address":"경기도 과천시 별양동 1-27","lat":37.42839086,"lng":126.9927814,"totalSpaces":7,"isFree":false,"operatingDays":"평일+토요일","weekdayOpen":"09:00","weekdayClose":"19:00","weekendOpen":"09:00","weekendClose":"19:00","holidayOpen":"00:00","holidayClose":"00:00","feeInfo":"기본 5분 0원 / 추가 5분당 250원","phone":"02-500-1145","updatedAt":"2025-12-01","sido":"경기도","sigungu":"과천시","dong":"별양동"},{"name":"우체국 앞","type":"공영","category":"노상","address":"경기도 과천시 별양동 57","lat":37.425681,"lng":126.994654,"totalSpaces":7,"isFree":false,"operatingDays":"평일+토요일","weekdayOpen":"09:00","weekdayClose":"19:00","weekendOpen":"09:00","weekendClose":"19:00","holidayOpen":"00:00","holidayClose":"00:00","feeInfo":"기본 5분 0원 / 추가 5분당 250원","phone":"02-500-1145","updatedAt":"2025-12-01","sido":"경기도","sigungu":"과천시","dong":"별양동"},{"name":"한내2","type":"공영","category":"노외","address":"경기도 과천시 과천동 530-6","lat":37.447048,"lng":126.997176,"totalSpaces":7,"isFree":false,"operatingDays":"평일+토요일","weekdayOpen":"09:00","weekdayClose":"19:00","weekendOpen":"09:00","weekendClose":"19:00","holidayOpen":"00:00","holidayClose":"00:00","feeInfo":"기본 5분 0원 / 추가 5분당 70원","phone":"02-500-1145","updatedAt":"2025-12-01","sido":"경기도","sigungu":"과천시","dong":"과천동"}]}