{"sido":"경기도","sigungu":"광주시","totalCount":43,"validCount":43,"items":[{"name":"목현천둔치 공영주차장","type":"공영","category":"노외","address":"경기도 광주시 경안동 103-5","lat":37.41409063,"lng":127.2555745,"totalSpaces":229,"isFree":true,"operatingDays":"평일+토요일+공휴일","weekdayOpen":"00:00","weekdayClose":"23:59","weekendOpen":"00:00","weekendClose":"23:59","holidayOpen":"00:00","holidayClose":"23:59","feeInfo":"무료","phone":"031-762-1020","updatedAt":"2025-07-14","sido":"경기도","sigungu":"광주시","dong":"경안동"},{"name":"곤지암 공영주차장","type":"공영","category":"노외","address":"경기도 광주시 곤지암읍 곤지암리 555","lat":37.35127663,"lng":127.3427071,"totalSpaces":112,"isFree":true,"operatingDays":"평일+토요일+공휴일","weekdayOpen":"00:00","weekdayClose":"23:59","weekendOpen":"00:00","weekendClose":"23:59","holidayOpen":"00:00","holidayClose":"23:59","feeInfo":"무료","phone":"031-762-1020","updatedAt":"2025-07-14","sido":"경기도","sigungu":"광주시","dong":"곤지암읍"},{"name":"곤지암역세권 공영주차장","type":"공영","category":"노외","address":"경기도 광주시 곤지암읍 곤지암리 643","lat":37.3512566023,"lng":127.3445315896,"totalSpaces":93,"isFree":true,"operatingDays":"평일+토요일+공휴일","weekdayOpen":"00:00","weekdayClose":"23:59","weekendOpen":"00:00","weekendClose":"23:59","holidayOpen":"00:00","holidayClose":"23:59","feeInfo":"무료","phone":"031-762-1020","updatedAt":"2025-07-14","sido":"경기도","sigungu":"광주시","dong":"곤지암읍"},{"name":"송정지구 공영주차장","type":"공영","category":"노외","address":"경기도 광주시 송정동 695","lat":37.42002703,"lng":127.2570753,"totalSpaces":89,"isFree":true,"operatingDays":"평일+토요일+공휴일","weekdayOpen":"00:00","weekdayClose":"23:59","weekendOpen":"00:00","weekendClose":"23:59","holidayOpen":"00:00","holidayClose":"23:59","feeInfo":"무료","phone":"031-762-1020","updatedAt":"2025-07-14","sido":"경기도","sigungu":"광주시","dong":"송정동"},{"name":"곤지암둔치 공영주차장","type":"공영","category":"노외","address":"경기도 광주시 곤지암읍 곤지암리 453-231","lat":37.34998974,"lng":127.3369569,"totalSpaces":66,"isFree":true,"operatingDays":"평일+토요일+공휴일","weekdayOpen":"00:00","weekdayClose":"23:59","weekendOpen":"00:00","weekendClose":"23:59","holidayOpen":"00:00","holidayClose":"23:59","feeInfo":"무료","phone":"031-762-1020","updatedAt":"2025-07-14","sido":"경기도","sigungu":"광주시","dong":"곤지암읍"},{"name":"광남동 행정복합문화시설내 주거지 주차장","type":"공영","category":"노외","address":"경기도 광주시 중대동 산 24-7","lat":37.39498237,"lng":127.2284786,"totalSpaces":60,"isFree":true,"operatingDays":"평일+토요일+공휴일","weekdayOpen":"00:00","weekdayClose":"23:59","weekendOpen":"00:00","weekendClose":"23:59","holidayOpen":"00:00","holidayClose":"23:59","feeInfo":"무료","phone":"031-762-1020","updatedAt":"2025-07-14","sido":"경기도","sigungu":"광주시","dong":"중대동"},{"name":"신촌리 공영주차장","type":"공영","category":"노외","address":"경기도 광주시 곤지암읍 신촌리 133","lat":37.32833752,"lng":127.3938366,"totalSpaces":46,"isFree":true,"operatingDays":"평일+토요일+공휴일","weekdayOpen":"00:00","weekdayClose":"23:59","weekendOpen":"00:00","weekendClose":"23:59","holidayOpen":"00:00","holidayClose":"23:59","feeInfo":"무료","phone":"031-762-1020","updatedAt":"2025-07-14","sido":"경기도","sigungu":"광주시","dong":"곤지암읍"},{"name":"곤지암생활체육공원 공영주차장","type":"공영","category":"노외","address":"경기도 광주시 초월읍 늑현리 193-53","lat":37.36129181,"lng":127.3198302,"totalSpaces":43,"isFree":true,"operatingDays":"평일+토요일+공휴일","weekdayOpen":"00:00","weekdayClose":"23:59","weekendOpen":"00:00","weekendClose":"23:59","holidayOpen":"00:00","holidayClose":"23:59","feeInfo":"무료","phone":"031-762-1020","updatedAt":"2025-07-14","sido":"경기도","sigungu":"광주시","dong":"초월읍"},{"name":"대쌍령리 공영주차장","type":"공영","category":"노외","address":"경기도 광주시 초월읍 대쌍령리 11-1","lat":37.3839575,"lng":127.2997765,"totalSpaces":37,"isFree":true,"operatingDays":"평일+토요일+공휴일","weekdayOpen":"00:00","weekdayClose":"23:59","weekendOpen":"00:00","weekendClose":"23:59","holidayOpen":"00:00","holidayClose":"23:59","feeInfo":"무료","phone":"031-762-1020","updatedAt":"2025-07-14","sido":"경기도","sigungu":"광주시","dong":"초월읍"},{"name":"광지원리 교량 하부 공영주차장","type":"공영","category":"노외","address":"경기도 광주시 남한산성면 광지원리 184-8","lat":37.46440231,"lng":127.250235,"totalSpaces":35,"isFree":true,"operatingDays":"평일+토요일+공휴일","weekdayOpen":"00:00","weekdayClose":"23:59","weekendOpen":"00:00","weekendClose":"23:59","holidayOpen":"00:00","holidayClose":"23:59","feeInfo":"무료","phone":"031-762-1020","updatedAt":"2025-07-14","sido":"경기도","sigungu":"광주시","dong":"남한산성면"},{"name":"동보 및 두진아파트 앞 공영주차장","type":"공영","category":"노상","address":"경기도 광주시 탄벌동 52-10","lat":37.41496839,"lng":127.250359,"totalSpaces":35,"isFree":true,"operatingDays":"평일+토요일+공휴일","weekdayOpen":"00:00","weekdayClose":"23:59","weekendOpen":"00:00","weekendClose":"23:59","holidayOpen":"00:00","holidayClose":"23:59","feeInfo":"무료","phone":"031-762-1020","updatedAt":"2025-07-14","sido":"경기도","sigungu":"광주시","dong":"탄벌동"},{"name":"제2 광주역세권 임시 공영주차장","type":"공영","category":"노외","address":"경기도 광주시 역동 340-2","lat":37.40747587,"lng":127.2540133,"totalSpaces":32,"isFree":true,"operatingDays":"평일+토요일+공휴일","weekdayOpen":"00:00","weekdayClose":"23:59","weekendOpen":"00:00","weekendClose":"23:59","holidayOpen":"00:00","holidayClose":"23:59","feeInfo":"무료","phone":"031-762-1020","updatedAt":"2025-07-14","sido":"경기도","sigungu":"광주시","dong":"역동"},{"name":"하남21세기자동차학원 앞 공영주차장","type":"공영","category":"노상","address":"경기도 광주시 송정동 488","lat":37.43328652,"lng":127.2623216,"totalSpaces":29,"isFree":true,"operatingDays":"평일+토요일+공휴일","weekdayOpen":"00:00","weekdayClose":"23:59","weekendOpen":"00:00","weekendClose":"23:59","holidayOpen":"00:00","holidayClose":"23:59","feeInfo":"무료","phone":"031-762-1020","updatedAt":"2025-07-14","sido":"경기도","sigungu":"광주시","dong":"송정동"},{"name":"중대동 임시공영주차장","type":"공영","category":"노외","address":"경기도 광주시 중대동 210-14","lat":37.40873225,"lng":127.2155605,"totalSpaces":29,"isFree":true,"operatingDays":"평일+토요일+공휴일","weekdayOpen":"00:00","weekdayClose":"23:59","weekendOpen":"00:00","weekendClose":"23:59","holidayOpen":"00:00","holidayClose":"23:59","feeInfo":"무료","phone":"031-762-1020","updatedAt":"2025-07-14","sido":"경기도","sigungu":"광주시","dong":"중대동"},{"name":"쌍동4지구 노외주차장","type":"공영","category":"노외","address":"경기도 광주시 초월읍 쌍동리 146-11","lat":37.3673360438,"lng":127.3017182076,"totalSpaces":27,"isFree":true,"operatingDays":"평일+토요일+공휴일","weekdayOpen":"00:00","weekdayClose":"23:59","weekendOpen":"00:00","weekendClose":"23:59","holidayOpen":"00:00","holidayClose":"23:59","feeInfo":"무료","phone":"031-762-1020","updatedAt":"2025-07-14","sido":"경기도","sigungu":"광주시","dong":"초월읍"},{"name":"역동로(신영아트빌) 공영주차장","type":"공영","category":"노상","address":"경기도 광주시 역동 136-9","lat":37.4029164,"lng":127.2554477,"totalSpaces":17,"isFree":true,"operatingDays":"평일+토요일+공휴일","weekdayOpen":"00:00","weekdayClose":"23:59","weekendOpen":"00:00","weekendClose":"23:59","holidayOpen":"00:00","holidayClose":"23:59","feeInfo":"무료","phone":"031-762-1020","updatedAt":"2025-07-14","sido":"경기도","sigungu":"광주시","dong":"역동"},{"name":"송정동 크로바쇼핑 인근 공영주차장","type":"공영","category":"노상","address":"경기도 광주시 송정동 548-30","lat":37.41861912,"lng":127.2574734,"totalSpaces":17,"isFree":true,"operatingDays":"평일+토요일+공휴일","weekdayOpen":"00:00","weekdayClose":"23:59","weekendOpen":"00:00","weekendClose":"23:59","holidayOpen":"00:00","holidayClose":"23:59","feeInfo":"무료","phone":"031-762-1020","updatedAt":"2025-07-14","sido":"경기도","sigungu":"광주시","dong":"송정동"},{"name":"궁평리 임시 공영주차장","type":"공영","category":"노외","address":"경기도 광주시 도척면 궁평리 297-1","lat":37.33834184,"lng":127.3226349,"totalSpaces":16,"isFree":true,"operatingDays":"평일+토요일+공휴일","weekdayOpen":"00:00","weekdayClose":"23:59","weekendOpen":"00:00","weekendClose":"23:59","holidayOpen":"00:00","holidayClose":"23:59","feeInfo":"무료","phone":"031-762-1020","updatedAt":"2025-07-14","sido":"경기도","sigungu":"광주시","dong":"도척면"},{"name":"송정동(현대아파트뒤) 공영주차장","type":"공영","category":"노외","address":"경기도 광주시 송정동 108-2","lat":37.41671885,"lng":127.2579775,"totalSpaces":16,"isFree":true,"operatingDays":"평일+토요일+공휴일","weekdayOpen":"00:00","weekdayClose":"23:59","weekendOpen":"00:00","weekendClose":"23:59","holidayOpen":"00:00","holidayClose":"23:59","feeInfo":"무료","phone":"031-762-1020","updatedAt":"2025-07-14","sido":"경기도","sigungu":"광주시","dong":"송정동"},{"name":"경안1지구 공영주차장","type":"공영","category":"노외","address":"경기도 광주시 경안동 424","lat":37.41249394,"lng":127.2610466,"totalSpaces":15,"isFree":true,"operatingDays":"평일+토요일+공휴일","weekdayOpen":"00:00","weekdayClose":"23:59","weekendOpen":"00:00","weekendClose":"23:59","holidayOpen":"00:00","holidayClose":"23:59","feeInfo":"무료","phone":"031-762-1020","updatedAt":"2025-07-14","sido":"경기도","sigungu":"광주시","dong":"경안동"},{"name":"도담이 공영주차장","type":"공영","category":"노상","address":"경기도 광주시 매산동 산156","lat":37.35974644,"lng":127.2450185,"totalSpaces":13,"isFree":true,"operatingDays":"평일+토요일+공휴일","weekdayOpen":"00:00","weekdayClose":"23:59","weekendOpen":"00:00","weekendClose":"23:59","holidayOpen":"00:00","holidayClose":"23:59","feeInfo":"무료","phone":"031-762-1020","updatedAt":"2025-07-14","sido":"경기도","sigungu":"광주시","dong":"매산동"},{"name":"태전6지구 노상주차장","type":"공영","category":"노상","address":"경기도 광주시 태전동 702-11","lat":37.3815511088,"lng":127.2296319271,"totalSpaces":13,"isFree":true,"operatingDays":"평일+토요일+공휴일","weekdayOpen":"00:00","weekdayClose":"23:59","weekendOpen":"00:00","weekendClose":"23:59","holidayOpen":"00:00","holidayClose":"23:59","feeInfo":"무료","phone":"031-762-1020","updatedAt":"2025-07-14","sido":"경기도","sigungu":"광주시","dong":"태전동"},{"name":"다샘장앞 공영주차장","type":"공영","category":"노상","address":"경기도 광주시 역동 22-53","lat":37.4084176,"lng":127.2593257432,"totalSpaces":12,"isFree":true,"operatingDays":"평일+토요일+공휴일","weekdayOpen":"00:00","weekdayClose":"23:59","weekendOpen":"00:00","weekendClose":"23:59","holidayOpen":"00:00","holidayClose":"23:59","feeInfo":"무료","phone":"031-762-1020","updatedAt":"2025-07-14","sido":"경기도","sigungu":"광주시","dong":"역동"},{"name":"제3광주역세권 임시 공영주차장","type":"공영","category":"노외","address":"경기도 광주시 역동 340","lat":37.4071693388,"lng":127.2535668928,"totalSpaces":10,"isFree":true,"operatingDays":"평일+토요일+공휴일","weekdayOpen":"00:00","weekdayClose":"23:59","weekendOpen":"00:00","weekendClose":"23:59","holidayOpen":"00:00","holidayClose":"23:59","feeInfo":"무료","phone":"031-762-1020","updatedAt":"2025-07-14","sido":"경기도","sigungu":"광주시","dong":"역동"},{"name":"송정동(구)우시장 공영주차장","type":"공영","category":"노외","address":"경기도 광주시 송정동 101-4","lat":37.41491316,"lng":127.2584013,"totalSpaces":10,"isFree":true,"operatingDays":"평일+토요일+공휴일","weekdayOpen":"00:00","weekdayClose":"23:59","weekendOpen":"00:00","weekendClose":"23:59","holidayOpen":"00:00","holidayClose":"23:59","feeInfo":"무료","phone":"031-762-1020","updatedAt":"2025-07-14","sido":"경기도","sigungu":"광주시","dong":"송정동"},{"name":"송정동(경화여고 진입로) 공영주차장","type":"공영","category":"노외","address":"경기도 광주시 송정동 76-19","lat":37.41604441,"lng":127.2624953,"totalSpaces":10,"isFree":true,"operatingDays":"평일+토요일+공휴일","weekdayOpen":"00:00","weekdayClose":"23:59","weekendOpen":"00:00","weekendClose":"23:59","holidayOpen":"00:00","holidayClose":"23:59","feeInfo":"무료","phone":"031-762-1020","updatedAt":"2025-07-14","sido":"경기도","sigungu":"광주시","dong":"송정동"},{"name":"해태아파트 인근 공영주차장","type":"공영","category":"노상","address":"경기도 광주시 경안동 195","lat":37.40720956,"lng":127.2485872,"totalSpaces":10,"isFree":true,"operatingDays":"평일+토요일+공휴일","weekdayOpen":"00:00","weekdayClose":"23:59","weekendOpen":"00:00","weekendClose":"23:59","holidayOpen":"00:00","holidayClose":"23:59","feeInfo":"무료","phone":"031-762-1020","updatedAt":"2025-07-14","sido":"경기도","sigungu":"광주시","dong":"경안동"},{"name":"문형동 공영주차장","type":"공영","category":"노상","address":"경기도 광주시 문형동 산10-6","lat":37.352496,"lng":127.2143198,"totalSpaces":9,"isFree":true,"operatingDays":"평일+토요일+공휴일","weekdayOpen":"00:00","weekdayClose":"23:59","weekendOpen":"00:00","weekendClose":"23:59","holidayOpen":"00:00","holidayClose":"23:59","feeInfo":"무료","phone":"031-762-1020","updatedAt":"2025-07-14","sido":"경기도","sigungu":"광주시","dong":"문형동"},{"name":"광주경찰서앞 공영주차장","type":"공영","category":"노외","address":"경기도 광주시 탄벌동 547-2","lat":37.40905119,"lng":127.2395952,"totalSpaces":8,"isFree":true,"operatingDays":"평일+토요일+공휴일","weekdayOpen":"00:00","weekdayClose":"23:59","weekendOpen":"00:00","weekendClose":"23:59","holidayOpen":"00:00","holidayClose":"23:59","feeInfo":"무료","phone":"031-762-1020","updatedAt":"2025-07-14","sido":"경기도","sigungu":"광주시","dong":"탄벌동"},{"name":"송정동(광주고교 진입로) 공영주차장","type":"공영","category":"노외","address":"경기도 광주시 송정동 507-6","lat":37.41408142,"lng":127.2627961,"totalSpaces":8,"isFree":true,"operatingDays":"평일+토요일+공휴일","weekdayOpen":"00:00","weekdayClose":"23:59","weekendOpen":"00:00","weekendClose":"23:59","holidayOpen":"00:00","holidayClose":"23:59","feeInfo":"무료","phone":"031-762-1020","updatedAt":"2025-07-14","sido":"경기도","sigungu":"광주시","dong":"송정동"},{"name":"양벌2동 공영주차장","type":"공영","category":"노외","address":"경기도 광주시 양벌동 351-10","lat":37.37821381,"lng":127.260592,"totalSpaces":6,"isFree":true,"operatingDays":"평일+토요일+공휴일","weekdayOpen":"00:00","weekdayClose":"23:59","weekendOpen":"00:00","weekendClose":"23:59","holidayOpen":"00:00","holidayClose":"23:59","feeInfo":"무료","phone":"031-762-1020","updatedAt":"2025-07-14","sido":"경기도","sigungu":"광주시","dong":"양벌동"},{"name":"탄탄병원 인근 공영주차장","type":"공영","category":"노상","address":"경기도 광주시 경안동 33-60","lat":37.40962976,"lng":127.256929,"totalSpaces":5,"isFree":true,"operatingDays":"평일+토요일+공휴일","weekdayOpen":"00:00","weekdayClose":"23:59","weekendOpen":"00:00","weekendClose":"23:59","holidayOpen":"00:00","holidayClose":"23:59","feeInfo":"무료","phone":"031-762-1020","updatedAt":"2025-07-14","sido":"경기도","sigungu":"광주시","dong":"경안동"},{"name":"경안배수펌프장 공영주차장","type":"공영","category":"노외","address":"경기도 광주시 경안동 14-1","lat":37.41134548,"lng":127.2618373,"totalSpaces":240,"isFree":false,"operatingDays":"평일+토요일+공휴일","weekdayOpen":"00:00","weekdayClose":"23:59","weekendOpen":"00:00","weekendClose":"23:59","holidayOpen":"00:00","holidayClose":"23:59","feeInfo":"기본 30분 500원 / 추가 10분당 200원","phone":"031-762-1020","updatedAt":"2025-07-14","sido":"경기도","sigungu":"광주시","dong":"경안동"},{"name":"경안시장 공영주차장","type":"공영","category":"노외","address":"경기도 광주시 경안동 33-37","lat":37.40879655,"lng":127.257694,"totalSpaces":202,"isFree":false,"operatingDays":"평일+토요일+공휴일","weekdayOpen":"00:00","weekdayClose":"23:59","weekendOpen":"00:00","weekendClose":"23:59","holidayOpen":"00:00","holidayClose":"23:59","feeInfo":"기본 30분 800원 / 추가 10분당 300원","phone":"031-762-1020","updatedAt":"2025-07-14","sido":"경기도","sigungu":"광주시","dong":"경안동"},{"name":"광주시호국보훈공원 공영주차장","type":"공영","category":"노외","address":"경기도 광주시 경안동 40","lat":37.40782556,"lng":127.2537387,"totalSpaces":200,"isFree":false,"operatingDays":"평일+토요일+공휴일","weekdayOpen":"00:00","weekdayClose":"23:59","weekendOpen":"00:00","weekendClose":"23:59","holidayOpen":"00:00","holidayClose":"23:59","feeInfo":"기본 30분 800원 / 추가 10분당 300원","phone":"031-762-1020","updatedAt":"2025-07-14","sido":"경기도","sigungu":"광주시","dong":"경안동"},{"name":"곤지암 제1공영주차장","type":"공영","category":"노외","address":"경기도 광주시 곤지암읍 곤지암리 445-27","lat":37.34891091,"lng":127.339854,"totalSpaces":150,"isFree":false,"operatingDays":"평일+토요일+공휴일","weekdayOpen":"00:00","weekdayClose":"23:59","weekendOpen":"00:00","weekendClose":"23:59","holidayOpen":"00:00","holidayClose":"23:59","feeInfo":"기본 30분 500원 / 추가 10분당 200원","phone":"031-762-1020","updatedAt":"2025-07-14","sido":"경기도","sigungu":"광주시","dong":"곤지암읍"},{"name":"상번천리 공영주차장","type":"공영","category":"노외","address":"경기도 광주시 남한산성면 상번천리 836","lat":37.44814148,"lng":127.2624065,"totalSpaces":141,"isFree":false,"operatingDays":"평일+토요일+공휴일","weekdayOpen":"00:00","weekdayClose":"23:59","weekendOpen":"00:00","weekendClose":"23:59","holidayOpen":"00:00","holidayClose":"23:59","feeInfo":"기본 30분 500원 / 추가 10분당 200원","phone":"031-762-1020","updatedAt":"2025-07-14","sido":"경기도","sigungu":"광주시","dong":"남한산성면"},{"name":"경안동 공영주차장","type":"공영","category":"노외","address":"경기도 광주시 경안동 30-6","lat":37.40941753,"lng":127.2590095,"totalSpaces":109,"isFree":false,"operatingDays":"평일+토요일+공휴일","weekdayOpen":"00:00","weekdayClose":"23:59","weekendOpen":"00:00","weekendClose":"23:59","holidayOpen":"00:00","holidayClose":"23:59","feeInfo":"기본 30분 800원 / 추가 10분당 300원","phone":"031-762-1020","updatedAt":"2025-07-14","sido":"경기도","sigungu":"광주시","dong":"경안동"},{"name":"역동 공영주차장","type":"공영","category":"노외","address":"경기도 광주시 역동 27-15","lat":37.40590994,"lng":127.2599482,"totalSpaces":103,"isFree":false,"operatingDays":"평일+토요일+공휴일","weekdayOpen":"00:00","weekdayClose":"23:59","weekendOpen":"00:00","weekendClose":"23:59","holidayOpen":"00:00","holidayClose":"23:59","feeInfo":"기본 30분 800원 / 추가 10분당 300원","phone":"031-762-1020","updatedAt":"2025-07-14","sido":"경기도","sigungu":"광주시","dong":"역동"},{"name":"광주역세권 공영주차장","type":"공영","category":"노외","address":"경기도 광주시 역동 401","lat":37.40025141,"lng":127.2532569,"totalSpaces":100,"isFree":false,"operatingDays":"평일+토요일+공휴일","weekdayOpen":"00:00","weekdayClose":"23:59","weekendOpen":"00:00","weekendClose":"23:59","holidayOpen":"00:00","holidayClose":"23:59","feeInfo":"기본 30분 500원 / 추가 10분당 200원","phone":"031-762-1020","updatedAt":"2025-07-14","sido":"경기도","sigungu":"광주시","dong":"역동"},{"name":"양벌동 공영주차장","type":"공영","category":"노외","address":"경기도 광주시 양벌동 1055","lat":37.37087769,"lng":127.2469166,"totalSpaces":29,"isFree":false,"operatingDays":"평일+토요일+공휴일","weekdayOpen":"00:00","weekdayClose":"23:59","weekendOpen":"00:00","weekendClose":"23:59","holidayOpen":"00:00","holidayClose":"23:59","feeInfo":"기본 30분 800원 / 추가 10분당 300원","phone":"031-762-1020","updatedAt":"2025-07-14","sido":"경기도","sigungu":"광주시","dong":"양벌동"},{"name":"송정동 마을 공영주차장","type":"공영","category":"노외","address":"경기도 광주시 송정동 581","lat":37.41622156,"lng":127.25337,"totalSpaces":26,"isFree":false,"operatingDays":"평일+토요일+공휴일","weekdayOpen":"00:00","weekdayClose":"23:59","weekendOpen":"00:00","weekendClose":"23:59","holidayOpen":"00:00","holidayClose":"23:59","feeInfo":"기본 30분 800원 / 추가 10분당 300원","phone":"031-762-1020","updatedAt":"2025-07-14","sido":"경기도","sigungu":"광주시","dong":"송정동"},{"name":"곤지암배수펌프장 공영주차장","type":"공영","category":"노외","address":"경기도 광주시 곤지암읍 곤지암리 453-4","lat":37.35055475,"lng":127.3374932,"totalSpaces":26,"isFree":false,"operatingDays":"평일+토요일+공휴일","weekdayOpen":"00:00","weekdayClose":"23:59","weekendOpen":"00:00","weekendClose":"23:59","holidayOpen":"00:00","holidayClose":"23:59","feeInfo":"기본 30분 500원 / 추가 10분당 200원","phone":"031-762-1020","updatedAt":"2025-07-14","sido":"경기도","sigungu":"광주시","dong":"곤지암읍"}]}