{"sido":"경기도","sigungu":"구리시","totalCount":14,"validCount":14,"items":[{"name":"제2공영노외주차장","type":"공영","category":"노외","address":"경기도 구리시 안골로 40","lat":37.59693701,"lng":127.1355301,"totalSpaces":345,"isFree":false,"operatingDays":"평일+토요일+공휴일","weekdayOpen":"09:00","weekdayClose":"19:00","weekendOpen":"09:00","weekendClose":"17:00","holidayOpen":"09:00","holidayClose":"17:00","feeInfo":"기본 30분 500원 / 추가 10분당 200원","phone":"031-550-3766","updatedAt":"2025-12-19","sido":"경기도","sigungu":"구리시","dong":"교문동"},{"name":"제5공영노외주차장","type":"공영","category":"노외","address":"경기도 구리시 경춘로248번길 88","lat":37.59961461,"lng":127.1468742,"totalSpaces":249,"isFree":false,"operatingDays":"평일+토요일","weekdayOpen":"06:00","weekdayClose":"22:00","weekendOpen":"06:00","weekendClose":"22:00","holidayOpen":"00:00","holidayClose":"00:00","feeInfo":"기본 30분 500원 / 추가 10분당 200원","phone":"031-550-3766","updatedAt":"2025-12-19","sido":"경기도","sigungu":"구리시","dong":"수택동"},{"name":"제6공영노외주차장","type":"공영","category":"노외","address":"경기도 구리시 건원대로34번길 32-13","lat":37.60423622,"lng":127.1448196,"totalSpaces":205,"isFree":false,"operatingDays":"평일+토요일","weekdayOpen":"06:00","weekdayClose":"22:00","weekendOpen":"06:00","weekendClose":"22:00","holidayOpen":"00:00","holidayClose":"00:00","feeInfo":"기본 30분 600원 / 추가 10분당 200원","phone":"031-550-3766","updatedAt":"2025-12-19","sido":"경기도","sigungu":"구리시","dong":"인창동"},{"name":"제3공영노외주차장","type":"공영","category":"노외","address":"경기도 구리시 체육관로74번길 67","lat":37.59138959,"lng":127.1416049,"totalSpaces":200,"isFree":false,"operatingDays":"평일+토요일+공휴일","weekdayOpen":"09:00","weekdayClose":"19:00","weekendOpen":"09:00","weekendClose":"17:00","holidayOpen":"09:00","holidayClose":"17:00","feeInfo":"기본 30분 600원 / 추가 10분당 200원","phone":"031-550-3766","updatedAt":"2025-12-19","sido":"경기도","sigungu":"구리시","dong":"수택동"},{"name":"제8공영노외주차장","type":"공영","category":"노외","address":"경기도 구리시 동구릉로66번길 29","lat":37.60590072,"lng":127.1361322,"totalSpaces":102,"isFree":false,"operatingDays":"평일+토요일+공휴일","weekdayOpen":"06:00","weekdayClose":"22:00","weekendOpen":"06:00","weekendClose":"22:00","holidayOpen":"06:00","holidayClose":"17:00","feeInfo":"기본 30분 500원 / 추가 10분당 200원","phone":"031-550-3766","updatedAt":"2025-12-19","sido":"경기도","sigungu":"구리시","dong":"인창동"},{"name":"제4공영노외주차장","type":"공영","category":"노외","address":"경기도 구리시 경춘로248번길 88","lat":37.59961461,"lng":127.1468742,"totalSpaces":87,"isFree":false,"operatingDays":"평일+토요일","weekdayOpen":"06:00","weekdayClose":"22:00","weekendOpen":"06:00","weekendClose":"22:00","holidayOpen":"00:00","holidayClose":"00:00","feeInfo":"기본 30분 500원 / 추가 10분당 200원","phone":"031-550-3766","updatedAt":"2025-12-19","sido":"경기도","sigungu":"구리시","dong":"수택동"},{"name":"제1공영노외주차장","type":"공영","category":"노외","address":"경기도 구리시 경춘로248번길 88","lat":37.5996156,"lng":127.1468725,"totalSpaces":72,"isFree":false,"operatingDays":"평일+토요일","weekdayOpen":"09:00","weekdayClose":"19:00","weekendOpen":"09:00","weekendClose":"17:00","holidayOpen":"00:00","holidayClose":"00:00","feeInfo":"기본 30분 600원 / 추가 10분당 200원","phone":"031-550-3766","updatedAt":"2025-12-19","sido":"경기도","sigungu":"구리시","dong":"수택동"},{"name":"제9공영노외주차장","type":"공영","category":"노외","address":"경기도 구리시 원수택로 43","lat":37.59594218,"lng":127.140804,"totalSpaces":69,"isFree":false,"operatingDays":"평일+토요일+공휴일","weekdayOpen":"06:00","weekdayClose":"22:00","weekendOpen":"06:00","weekendClose":"22:00","holidayOpen":"06:00","holidayClose":"17:00","feeInfo":"기본 30분 400원 / 추가 10분당 100원","phone":"031-550-3766","updatedAt":"2025-12-19","sido":"경기도","sigungu":"구리시","dong":"수택동"},{"name":"제7공영노상주차장","type":"공영","category":"노상","address":"경기도 구리시 장자대로 86번길","lat":37.58693521,"lng":127.1400259,"totalSpaces":48,"isFree":false,"operatingDays":"평일+토요일","weekdayOpen":"09:00","weekdayClose":"19:00","weekendOpen":"09:00","weekendClose":"17:00","holidayOpen":"00:00","holidayClose":"00:00","feeInfo":"기본 30분 700원 / 추가 10분당 300원","phone":"031-550-3766","updatedAt":"2025-12-19","sido":"경기도","sigungu":"구리시","dong":"수택동"},{"name":"제1공영노상주차장","type":"공영","category":"노상","address":"경기도 구리시 검배로 77-1","lat":37.59573889,"lng":127.1469574,"totalSpaces":46,"isFree":false,"operatingDays":"평일+토요일","weekdayOpen":"09:00","weekdayClose":"19:00","weekendOpen":"09:00","weekendClose":"17:00","holidayOpen":"00:00","holidayClose":"00:00","feeInfo":"기본 30분 700원 / 추가 10분당 300원","phone":"031-550-3766","updatedAt":"2025-12-19","sido":"경기도","sigungu":"구리시","dong":"수택동"},{"name":"제10공영노상주차장","type":"공영","category":"노상","address":"경기도 구리시 건원대로 34번길","lat":37.60324203,"lng":127.1440716,"totalSpaces":16,"isFree":false,"operatingDays":"평일+토요일","weekdayOpen":"09:00","weekdayClose":"19:00","weekendOpen":"09:00","weekendClose":"17:00","holidayOpen":"00:00","holidayClose":"00:00","feeInfo":"기본 30분 700원 / 추가 10분당 300원","phone":"031-550-3766","updatedAt":"2025-12-19","sido":"경기도","sigungu":"구리시","dong":"인창동"},{"name":"제9공영노상주차장","type":"공영","category":"노상","address":"경기도 구리시 수택천로 35번길","lat":37.59865956,"lng":127.145338,"totalSpaces":15,"isFree":false,"operatingDays":"평일+토요일","weekdayOpen":"09:00","weekdayClose":"19:00","weekendOpen":"09:00","weekendClose":"17:00","holidayOpen":"00:00","holidayClose":"00:00","feeInfo":"기본 30분 700원 / 추가 10분당 300원","phone":"031-550-3766","updatedAt":"2025-12-19","sido":"경기도","sigungu":"구리시","dong":"수택동"},{"name":"제2공영노상주차장","type":"공영","category":"노상","address":"경기도 구리시 검배로 6-1","lat":37.60039284,"lng":127.1415224,"totalSpaces":12,"isFree":false,"operatingDays":"평일+토요일","weekdayOpen":"09:00","weekdayClose":"19:00","weekendOpen":"09:00","weekendClose":"17:00","holidayOpen":"00:00","holidayClose":"00:00","feeInfo":"기본 30분 700원 / 추가 10분당 300원","phone":"031-550-3766","updatedAt":"2025-12-19","sido":"경기도","sigungu":"구리시","dong":"수택동"},{"name":"제6공영노상주차장","type":"공영","category":"노상","address":"경기도 구리시 동구릉로 85번길","lat":37.60886383,"lng":127.1331391,"totalSpaces":8,"isFree":false,"operatingDays":"평일+토요일","weekdayOpen":"09:00","weekdayClose":"19:00","weekendOpen":"09:00","weekendClose":"17:00","holidayOpen":"00:00","holidayClose":"00:00","feeInfo":"기본 30분 500원 / 추가 10분당 200원","phone":"031-550-3766","updatedAt":"2025-12-19","sido":"경기도","sigungu":"구리시","dong":"인창동"}]}