{"sido":"경기도","sigungu":"부천시","totalCount":96,"validCount":96,"items":[{"name":"중앙공원지하","type":"공영","category":"노외","address":"경기도 부천시 원미구 중동 1177-1","lat":37.50136759,"lng":126.7653372,"totalSpaces":982,"isFree":false,"operatingDays":"평일+토요일+공휴일","weekdayOpen":"00:00","weekdayClose":"23:59","weekendOpen":"00:00","weekendClose":"23:59","holidayOpen":"00:00","holidayClose":"23:59","feeInfo":"기본 30분 300원 / 추가 10분당 200원","phone":"032-340-0997","updatedAt":"2025-06-24","sido":"경기도","sigungu":"부천시","dong":""},{"name":"시청부설","type":"공영","category":"부설","address":"경기도 부천시 원미구 중동 1156","lat":37.50358103,"lng":126.7653372,"totalSpaces":503,"isFree":false,"operatingDays":"평일","weekdayOpen":"08:00","weekdayClose":"20:00","weekendOpen":"00:00","weekendClose":"00:00","holidayOpen":"00:00","holidayClose":"00:00","feeInfo":"기본 30분 400원 / 추가 10분당 200원","phone":"032-340-0997","updatedAt":"2025-06-24","sido":"경기도","sigungu":"부천시","dong":""},{"name":"미관광장","type":"공영","category":"노외","address":"경기도 부천시 원미구 중동 1139","lat":37.50199006,"lng":126.7749401,"totalSpaces":500,"isFree":false,"operatingDays":"평일+토요일+공휴일","weekdayOpen":"00:00","weekdayClose":"23:59","weekendOpen":"00:00","weekendClose":"23:59","holidayOpen":"00:00","holidayClose":"23:59","feeInfo":"기본 30분 900원 / 추가 10분당 400원","phone":"032-340-0997","updatedAt":"2025-06-24","sido":"경기도","sigungu":"부천시","dong":""},{"name":"아인스월드","type":"공영","category":"부설","address":"경기도 부천시 원미구 상동 529-2","lat":37.51294184,"lng":126.7487467,"totalSpaces":468,"isFree":false,"operatingDays":"평일+토요일+공휴일","weekdayOpen":"00:00","weekdayClose":"23:59","weekendOpen":"00:00","weekendClose":"23:59","holidayOpen":"00:00","holidayClose":"23:59","feeInfo":"기본 30분 400원 / 추가 10분당 200원","phone":"032-340-0923","updatedAt":"2025-06-24","sido":"경기도","sigungu":"부천시","dong":""},{"name":"야인시대","type":"공영","category":"부설","address":"경기도 부천시 원미구 상동 529-36","lat":37.50905312,"lng":126.7456206,"totalSpaces":394,"isFree":false,"operatingDays":"평일+토요일+공휴일","weekdayOpen":"00:00","weekdayClose":"23:59","weekendOpen":"00:00","weekendClose":"23:59","holidayOpen":"00:00","holidayClose":"23:59","feeInfo":"기본 30분 400원 / 추가 10분당 200원","phone":"032-340-0997","updatedAt":"2025-06-24","sido":"경기도","sigungu":"부천시","dong":""},{"name":"난장","type":"공영","category":"부설","address":"경기도 부천시 원미구 상동 529-2","lat":37.51294184,"lng":126.7487467,"totalSpaces":300,"isFree":false,"operatingDays":"평일+토요일+공휴일","weekdayOpen":"00:00","weekdayClose":"23:59","weekendOpen":"00:00","weekendClose":"23:59","holidayOpen":"00:00","holidayClose":"23:59","feeInfo":"기본 30분 400원 / 추가 10분당 200원","phone":"032-340-0925","updatedAt":"2025-06-24","sido":"경기도","sigungu":"부천시","dong":""},{"name":"상동행복","type":"공영","category":"노외","address":"경기도 부천시 원미구 상동 463-2","lat":37.48796915,"lng":126.755755,"totalSpaces":241,"isFree":false,"operatingDays":"평일+토요일+공휴일","weekdayOpen":"00:00","weekdayClose":"23:59","weekendOpen":"00:00","weekendClose":"23:59","holidayOpen":"00:00","holidayClose":"23:59","feeInfo":"기본 30분 900원 / 추가 10분당 400원","phone":"032-340-0997","updatedAt":"2025-06-24","sido":"경기도","sigungu":"부천시","dong":""},{"name":"부천아트센터","type":"공영","category":"부설","address":"경기도 부천시 원미구 중동 1156","lat":37.50358103,"lng":126.7653372,"totalSpaces":240,"isFree":false,"operatingDays":"평일","weekdayOpen":"08:00","weekdayClose":"20:00","weekendOpen":"00:00","weekendClose":"00:00","holidayOpen":"00:00","holidayClose":"00:00","feeInfo":"기본 30분 400원 / 추가 10분당 200원","phone":"032-340-0997","updatedAt":"2025-06-24","sido":"경기도","sigungu":"부천시","dong":""},{"name":"소사어울마당","type":"공영","category":"부설","address":"경기도 부천시 소사구 소사본동 64","lat":37.48004487,"lng":126.7999459,"totalSpaces":239,"isFree":false,"operatingDays":"평일","weekdayOpen":"08:00","weekdayClose":"20:00","weekendOpen":"00:00","weekendClose":"00:00","holidayOpen":"00:00","holidayClose":"00:00","feeInfo":"기본 30분 400원 / 추가 10분당 200원","phone":"032-340-0997","updatedAt":"2025-06-24","sido":"경기도","sigungu":"부천시","dong":""},{"name":"호수공원1","type":"공영","category":"부설","address":"경기도 부천시 원미구 상동 549","lat":37.50612373,"lng":126.7441496,"totalSpaces":232,"isFree":false,"operatingDays":"평일+토요일+공휴일","weekdayOpen":"00:00","weekdayClose":"23:59","weekendOpen":"00:00","weekendClose":"23:59","holidayOpen":"00:00","holidayClose":"23:59","feeInfo":"기본 30분 400원 / 추가 10분당 200원","phone":"032-340-0997","updatedAt":"2025-06-24","sido":"경기도","sigungu":"부천시","dong":""},{"name":"오정어울마당","type":"공영","category":"부설","address":"경기도 부천시 오정구 오정동 129","lat":37.52834566,"lng":126.7960282,"totalSpaces":218,"isFree":false,"operatingDays":"평일","weekdayOpen":"08:00","weekdayClose":"20:00","weekendOpen":"00:00","weekendClose":"00:00","holidayOpen":"00:00","holidayClose":"00:00","feeInfo":"기본 30분 400원 / 추가 10분당 200원","phone":"032-340-0997","updatedAt":"2025-06-24","sido":"경기도","sigungu":"부천시","dong":""},{"name":"원미어울마당","type":"공영","category":"부설","address":"경기도 부천시 원미구 원미동 71","lat":37.49673142,"lng":126.7875109,"totalSpaces":218,"isFree":false,"operatingDays":"평일","weekdayOpen":"08:00","weekdayClose":"20:00","weekendOpen":"00:00","weekendClose":"00:00","holidayOpen":"00:00","holidayClose":"00:00","feeInfo":"기본 30분 400원 / 추가 10분당 200원","phone":"032-340-0997","updatedAt":"2025-06-24","sido":"경기도","sigungu":"부천시","dong":""},{"name":"한신철골","type":"공영","category":"노외","address":"경기도 부천시 소사구 소사본동 200-1","lat":37.47312336,"lng":126.7980215,"totalSpaces":216,"isFree":false,"operatingDays":"평일+토요일+공휴일","weekdayOpen":"00:00","weekdayClose":"23:59","weekendOpen":"00:00","weekendClose":"23:59","holidayOpen":"00:00","holidayClose":"23:59","feeInfo":"기본 30분 300원 / 추가 10분당 200원","phone":"032-340-0997","updatedAt":"2025-06-24","sido":"경기도","sigungu":"부천시","dong":""},{"name":"법원앞","type":"공영","category":"노외","address":"경기도 부천시 원미구 상동 449","lat":37.4903736,"lng":126.7565986,"totalSpaces":211,"isFree":false,"operatingDays":"평일+토요일+공휴일","weekdayOpen":"00:00","weekdayClose":"23:59","weekendOpen":"08:00","weekendClose":"23:59","holidayOpen":"00:00","holidayClose":"23:59","feeInfo":"기본 30분 900원 / 추가 10분당 400원","phone":"032-340-0997","updatedAt":"2025-06-24","sido":"경기도","sigungu":"부천시","dong":""},{"name":"자연생태공원","type":"공영","category":"부설","address":"경기도 부천시 원미구 춘의동 381","lat":37.50512627,"lng":126.8156845,"totalSpaces":198,"isFree":false,"operatingDays":"평일+토요일","weekdayOpen":"09:00","weekdayClose":"19:00","weekendOpen":"09:00","weekendClose":"19:00","holidayOpen":"00:00","holidayClose":"00:00","feeInfo":"기본 30분 400원 / 추가 10분당 200원","phone":"032-340-0997","updatedAt":"2025-06-24","sido":"경기도","sigungu":"부천시","dong":""},{"name":"시민회관","type":"공영","category":"부설","address":"경기도 부천시 원미구 중동 788-1","lat":37.48863732,"lng":126.7706575,"totalSpaces":197,"isFree":false,"operatingDays":"평일","weekdayOpen":"09:00","weekdayClose":"22:00","weekendOpen":"00:00","weekendClose":"00:00","holidayOpen":"00:00","holidayClose":"00:00","feeInfo":"기본 30분 400원 / 추가 10분당 200원","phone":"032-340-0997","updatedAt":"2025-06-24","sido":"경기도","sigungu":"부천시","dong":""},{"name":"삼정3호","type":"공영","category":"노외","address":"경기도 부천시 오정구 삼정동 19-9,10","lat":37.52627922,"lng":126.7660186,"totalSpaces":193,"isFree":false,"operatingDays":"평일+토요일+공휴일","weekdayOpen":"00:00","weekdayClose":"23:59","weekendOpen":"00:00","weekendClose":"23:59","holidayOpen":"00:00","holidayClose":"23:59","feeInfo":"기본 30분 300원 / 추가 10분당 200원","phone":"032-340-0997","updatedAt":"2025-06-24","sido":"경기도","sigungu":"부천시","dong":""},{"name":"복사골문화센터","type":"공영","category":"부설","address":"경기도 부천시 원미구 상동 394-2","lat":37.49478307,"lng":126.7542142,"totalSpaces":182,"isFree":false,"operatingDays":"평일","weekdayOpen":"10:00","weekdayClose":"18:00","weekendOpen":"00:00","weekendClose":"00:00","holidayOpen":"00:00","holidayClose":"00:00","feeInfo":"기본 30분 400원 / 추가 10분당 200원","phone":"032-340-5307","updatedAt":"2025-06-24","sido":"경기도","sigungu":"부천시","dong":""},{"name":"소새울공원","type":"공영","category":"노외","address":"경기도 부천시 소사구 소사본동 157","lat":37.47665332,"lng":126.7986999,"totalSpaces":175,"isFree":false,"operatingDays":"평일+토요일+공휴일","weekdayOpen":"00:00","weekdayClose":"23:59","weekendOpen":"00:00","weekendClose":"23:59","holidayOpen":"00:00","holidayClose":"23:59","feeInfo":"기본 30분 300원 / 추가 10분당 200원","phone":"032-340-0997","updatedAt":"2025-06-24","sido":"경기도","sigungu":"부천시","dong":""},{"name":"심곡본동철골","type":"공영","category":"노외","address":"경기도 부천시 소사구 심곡본동 656","lat":37.48088576,"lng":126.7796892,"totalSpaces":172,"isFree":false,"operatingDays":"평일+토요일+공휴일","weekdayOpen":"00:00","weekdayClose":"23:59","weekendOpen":"00:00","weekendClose":"23:59","holidayOpen":"00:00","holidayClose":"23:59","feeInfo":"기본 30분 300원 / 추가 10분당 200원","phone":"032-340-0997","updatedAt":"2025-06-24","sido":"경기도","sigungu":"부천시","dong":""},{"name":"윗소사","type":"공영","category":"노외","address":"경기도 부천시 소사구 소사본동 179","lat":37.47406135,"lng":126.7945696,"totalSpaces":171,"isFree":false,"operatingDays":"평일+토요일+공휴일","weekdayOpen":"00:00","weekdayClose":"23:59","weekendOpen":"00:00","weekendClose":"23:59","holidayOpen":"00:00","holidayClose":"23:59","feeInfo":"기본 30분 300원 / 추가 10분당 200원","phone":"032-340-0997","updatedAt":"2025-06-24","sido":"경기도","sigungu":"부천시","dong":""},{"name":"심곡지하","type":"공영","category":"노외","address":"경기도 부천시 원미구 심곡동 159","lat":37.48918808,"lng":126.7847153,"totalSpaces":160,"isFree":false,"operatingDays":"평일+토요일+공휴일","weekdayOpen":"00:00","weekdayClose":"23:59","weekendOpen":"00:00","weekendClose":"23:59","holidayOpen":"00:00","holidayClose":"23:59","feeInfo":"기본 30분 300원 / 추가 10분당 200원","phone":"032-340-0997","updatedAt":"2025-06-24","sido":"경기도","sigungu":"부천시","dong":""},{"name":"소사근린공원","type":"공영","category":"노외","address":"경기도 부천시 소사구 소사본동 317-100","lat":37.46826843,"lng":126.7964148,"totalSpaces":150,"isFree":false,"operatingDays":"평일+토요일+공휴일","weekdayOpen":"00:00","weekdayClose":"23:59","weekendOpen":"00:00","weekendClose":"23:59","holidayOpen":"00:00","holidayClose":"23:59","feeInfo":"기본 30분 300원 / 추가 10분당 200원","phone":"032-340-0997","updatedAt":"2025-06-24","sido":"경기도","sigungu":"부천시","dong":""},{"name":"먹적골(상공회의소앞)","type":"공영","category":"노외","address":"경기도 부천시 원미구 심곡동 325-32","lat":37.49036857,"lng":126.774945,"totalSpaces":148,"isFree":false,"operatingDays":"평일+토요일+공휴일","weekdayOpen":"00:00","weekdayClose":"23:59","weekendOpen":"00:00","weekendClose":"23:59","holidayOpen":"00:00","holidayClose":"23:59","feeInfo":"기본 30분 300원 / 추가 10분당 200원","phone":"032-340-0997","updatedAt":"2025-06-24","sido":"경기도","sigungu":"부천시","dong":""},{"name":"로데오거리","type":"공영","category":"노상","address":"경기도 부천시 원미구 상동 407","lat":37.49083565,"lng":126.7517147,"totalSpaces":145,"isFree":false,"operatingDays":"평일","weekdayOpen":"09:00","weekdayClose":"18:00","weekendOpen":"00:00","weekendClose":"00:00","holidayOpen":"00:00","holidayClose":"00:00","feeInfo":"기본 30분 900원 / 추가 10분당 400원","phone":"032-340-0923","updatedAt":"2025-06-24","sido":"경기도","sigungu":"부천시","dong":""},{"name":"강남시장","type":"공영","category":"노외","address":"경기도 부천시 원미구 도당동 248-1","lat":37.50752146,"lng":126.7792043,"totalSpaces":145,"isFree":false,"operatingDays":"평일+토요일+공휴일","weekdayOpen":"00:00","weekdayClose":"23:59","weekendOpen":"00:00","weekendClose":"23:59","holidayOpen":"00:00","holidayClose":"23:59","feeInfo":"기본 30분 300원 / 추가 10분당 200원","phone":"032-340-0997","updatedAt":"2025-06-24","sido":"경기도","sigungu":"부천시","dong":""},{"name":"오정동2호","type":"공영","category":"노외","address":"경기도 부천시 오정구 오정동 609-2,3","lat":37.52430823,"lng":126.783626,"totalSpaces":144,"isFree":false,"operatingDays":"평일+토요일+공휴일","weekdayOpen":"06:00","weekdayClose":"19:00","weekendOpen":"00:00","weekendClose":"23:59","holidayOpen":"00:00","holidayClose":"23:59","feeInfo":"기본 0분 0원 / 추가 0분당 0원","phone":"032-340-0925","updatedAt":"2025-06-24","sido":"경기도","sigungu":"부천시","dong":""},{"name":"소방서옆","type":"공영","category":"노외","address":"경기도 부천시 원미구 중동 1121","lat":37.4949907,"lng":126.777159,"totalSpaces":142,"isFree":false,"operatingDays":"평일+토요일+공휴일","weekdayOpen":"00:00","weekdayClose":"23:59","weekendOpen":"00:00","weekendClose":"23:59","holidayOpen":"00:00","holidayClose":"23:59","feeInfo":"기본 30분 900원 / 추가 10분당 400원","phone":"032-340-0997","updatedAt":"2025-06-24","sido":"경기도","sigungu":"부천시","dong":""},{"name":"원미지하(별빛공원)","type":"공영","category":"노외","address":"경기도 부천시 원미구 원미동 127-5","lat":37.49196283,"lng":126.7873052,"totalSpaces":142,"isFree":false,"operatingDays":"평일+토요일+공휴일","weekdayOpen":"00:00","weekdayClose":"23:59","weekendOpen":"00:00","weekendClose":"23:59","holidayOpen":"00:00","holidayClose":"23:59","feeInfo":"기본 30분 300원 / 추가 10분당 200원","phone":"032-340-0997","updatedAt":"2025-06-24","sido":"경기도","sigungu":"부천시","dong":""},{"name":"삼정2호","type":"공영","category":"노외","address":"경기도 부천시 오정구 삼정동 70-41","lat":37.5261451,"lng":126.771003,"totalSpaces":137,"isFree":false,"operatingDays":"평일+토요일","weekdayOpen":"00:00","weekdayClose":"23:59","weekendOpen":"00:00","weekendClose":"23:59","holidayOpen":"00:00","holidayClose":"00:00","feeInfo":"기본 0분 0원 / 추가 0분당 0원","phone":"032-340-0925","updatedAt":"2025-06-24","sido":"경기도","sigungu":"부천시","dong":""},{"name":"송내IC","type":"공영","category":"노외","address":"경기도 부천시 원미구 상동 21","lat":37.50165929,"lng":126.7472818,"totalSpaces":131,"isFree":false,"operatingDays":"평일+토요일+공휴일","weekdayOpen":"00:00","weekdayClose":"23:59","weekendOpen":"00:00","weekendClose":"23:59","holidayOpen":"00:00","holidayClose":"23:59","feeInfo":"기본 30분 700원 / 추가 10분당 300원","phone":"032-340-0997","updatedAt":"2025-06-24","sido":"경기도","sigungu":"부천시","dong":""},{"name":"구터미널","type":"공영","category":"노외","address":"경기도 부천시 원미구 중동 1151","lat":37.50217843,"lng":126.7693151,"totalSpaces":131,"isFree":false,"operatingDays":"평일+토요일+공휴일","weekdayOpen":"00:00","weekdayClose":"23:59","weekendOpen":"00:00","weekendClose":"23:59","holidayOpen":"00:00","holidayClose":"23:59","feeInfo":"기본 30분 900원 / 추가 10분당 400원","phone":"032-340-0997","updatedAt":"2025-06-24","sido":"경기도","sigungu":"부천시","dong":""},{"name":"심곡시민의강1","type":"공영","category":"노외","address":"경기도 부천시 원미구 심곡동 121-5","lat":37.49037002,"lng":126.785375,"totalSpaces":125,"isFree":false,"operatingDays":"평일+토요일+공휴일","weekdayOpen":"00:00","weekdayClose":"23:59","weekendOpen":"00:00","weekendClose":"23:59","holidayOpen":"00:00","holidayClose":"23:59","feeInfo":"기본 30분 300원 / 추가 10분당 200원","phone":"032-340-0997","updatedAt":"2025-06-24","sido":"경기도","sigungu":"부천시","dong":""},{"name":"중동먹거리","type":"공영","category":"노상","address":"경기도 부천시 원미구 중동 1126","lat":37.49743651,"lng":126.777231,"totalSpaces":124,"isFree":false,"operatingDays":"평일","weekdayOpen":"09:00","weekdayClose":"18:00","weekendOpen":"00:00","weekendClose":"00:00","holidayOpen":"00:00","holidayClose":"00:00","feeInfo":"기본 30분 900원 / 추가 10분당 400원","phone":"032-340-0923","updatedAt":"2025-06-24","sido":"경기도","sigungu":"부천시","dong":""},{"name":"원미공원1","type":"공영","category":"부설","address":"경기도 부천시 원미구 원미동 14-1","lat":37.49858841,"lng":126.7964151,"totalSpaces":119,"isFree":false,"operatingDays":"평일+토요일","weekdayOpen":"10:00","weekdayClose":"18:00","weekendOpen":"10:00","weekendClose":"18:00","holidayOpen":"00:00","holidayClose":"00:00","feeInfo":"기본 30분 400원 / 추가 10분당 200원","phone":"032-340-0923","updatedAt":"2025-06-24","sido":"경기도","sigungu":"부천시","dong":""},{"name":"송내어울마당","type":"공영","category":"부설","address":"경기도 부천시 소사구 송내동 387-4","lat":37.48250368,"lng":126.7665632,"totalSpaces":118,"isFree":false,"operatingDays":"평일","weekdayOpen":"11:00","weekdayClose":"19:00","weekendOpen":"00:00","weekendClose":"00:00","holidayOpen":"00:00","holidayClose":"00:00","feeInfo":"기본 30분 400원 / 추가 10분당 200원","phone":"032-340-5348","updatedAt":"2025-06-24","sido":"경기도","sigungu":"부천시","dong":""},{"name":"소사종합시장","type":"공영","category":"노외","address":"경기도 부천시 소사구 소사본동 77-5","lat":37.4792504,"lng":126.7935932,"totalSpaces":116,"isFree":false,"operatingDays":"평일+토요일+공휴일","weekdayOpen":"00:00","weekdayClose":"23:59","weekendOpen":"00:00","weekendClose":"23:59","holidayOpen":"00:00","holidayClose":"23:59","feeInfo":"기본 30분 700원 / 추가 10분당 300원","phone":"032-340-0997","updatedAt":"2025-06-24","sido":"경기도","sigungu":"부천시","dong":""},{"name":"반달","type":"공영","category":"노외","address":"경기도 부천시 원미구 상동 414-2","lat":37.48906703,"lng":126.7516827,"totalSpaces":115,"isFree":false,"operatingDays":"평일+토요일+공휴일","weekdayOpen":"00:00","weekdayClose":"23:59","weekendOpen":"00:00","weekendClose":"23:59","holidayOpen":"00:00","holidayClose":"23:59","feeInfo":"기본 30분 900원 / 추가 10분당 400원","phone":"032-340-0997","updatedAt":"2025-06-24","sido":"경기도","sigungu":"부천시","dong":""},{"name":"소원지하","type":"공영","category":"노외","address":"경기도 부천시 원미구 소사동 32","lat":37.48490721,"lng":126.7969623,"totalSpaces":113,"isFree":false,"operatingDays":"평일+토요일+공휴일","weekdayOpen":"00:00","weekdayClose":"23:59","weekendOpen":"00:00","weekendClose":"23:59","holidayOpen":"00:00","holidayClose":"23:59","feeInfo":"기본 0분 0원 / 추가 0분당 0원","phone":"032-340-0925","updatedAt":"2025-06-24","sido":"경기도","sigungu":"부천시","dong":""},{"name":"서촌공원","type":"공영","category":"노외","address":"경기도 부천시 원미구 상동 465","lat":37.48834656,"lng":126.7517233,"totalSpaces":111,"isFree":false,"operatingDays":"평일+토요일+공휴일","weekdayOpen":"00:00","weekdayClose":"23:59","weekendOpen":"00:00","weekendClose":"23:59","holidayOpen":"00:00","holidayClose":"23:59","feeInfo":"기본 30분 900원 / 추가 10분당 400원","phone":"032-340-0997","updatedAt":"2025-06-24","sido":"경기도","sigungu":"부천시","dong":""},{"name":"구버스터미널일원","type":"공영","category":"노상","address":"경기도 부천시 원미구 중동 1253","lat":37.50283021,"lng":126.7671552,"totalSpaces":110,"isFree":false,"operatingDays":"평일","weekdayOpen":"09:00","weekdayClose":"18:00","weekendOpen":"00:00","weekendClose":"00:00","holidayOpen":"00:00","holidayClose":"00:00","feeInfo":"기본 30분 900원 / 추가 10분당 400원","phone":"032-340-0923","updatedAt":"2025-06-24","sido":"경기도","sigungu":"부천시","dong":""},{"name":"송내남부","type":"공영","category":"노외","address":"경기도 부천시 소사구 송내동 280-11","lat":37.48693007,"lng":126.7530347,"totalSpaces":106,"isFree":false,"operatingDays":"평일+토요일+공휴일","weekdayOpen":"00:00","weekdayClose":"23:59","weekendOpen":"00:00","weekendClose":"23:59","holidayOpen":"00:00","holidayClose":"23:59","feeInfo":"기본 30분 900원 / 추가 10분당 400원","phone":"032-340-0997","updatedAt":"2025-06-24","sido":"경기도","sigungu":"부천시","dong":""},{"name":"다산(중동역)","type":"공영","category":"노외","address":"경기도 부천시 소사구 경인로101번길 45","lat":37.4858079,"lng":126.7657029,"totalSpaces":103,"isFree":false,"operatingDays":"평일+토요일+공휴일","weekdayOpen":"00:00","weekdayClose":"23:59","weekendOpen":"00:00","weekendClose":"23:59","holidayOpen":"00:00","holidayClose":"23:59","feeInfo":"기본 30분 300원 / 추가 10분당 200원","phone":"032-340-0997","updatedAt":"2025-06-24","sido":"경기도","sigungu":"부천시","dong":""},{"name":"오정레포츠센터","type":"공영","category":"부설","address":"경기도 부천시 오정구 오정동 782","lat":37.52902628,"lng":126.7964999961,"totalSpaces":102,"isFree":false,"operatingDays":"평일","weekdayOpen":"06:00","weekdayClose":"22:00","weekendOpen":"00:00","weekendClose":"00:00","holidayOpen":"00:00","holidayClose":"00:00","feeInfo":"기본 30분 400원 / 추가 10분당 200원","phone":"032-340-5385","updatedAt":"2025-06-24","sido":"경기도","sigungu":"부천시","dong":""},{"name":"도당동제1호","type":"공영","category":"노외","address":"경기도 부천시 원미구 도당동 182-13","lat":37.508747,"lng":126.787717,"totalSpaces":101,"isFree":false,"operatingDays":"평일+토요일+공휴일","weekdayOpen":"00:00","weekdayClose":"23:59","weekendOpen":"00:00","weekendClose":"23:59","holidayOpen":"00:00","holidayClose":"23:59","feeInfo":"기본 30분 300원 / 추가 10분당 200원","phone":"032-340-0997","updatedAt":"2025-06-24","sido":"경기도","sigungu":"부천시","dong":""},{"name":"안중근공원","type":"공영","category":"노외","address":"경기도 부천시 원미구 중동 1167","lat":37.50338451,"lng":126.7602276,"totalSpaces":96,"isFree":false,"operatingDays":"평일+토요일+공휴일","weekdayOpen":"00:00","weekdayClose":"23:59","weekendOpen":"00:00","weekendClose":"23:59","holidayOpen":"00:00","holidayClose":"23:59","feeInfo":"기본 30분 900원 / 추가 10분당 400원","phone":"032-340-0997","updatedAt":"2025-06-24","sido":"경기도","sigungu":"부천시","dong":""},{"name":"중동먹자골목","type":"공영","category":"노상","address":"경기도 부천시 원미구 중동 1259","lat":37.49760101,"lng":126.7761716,"totalSpaces":94,"isFree":false,"operatingDays":"평일","weekdayOpen":"09:00","weekdayClose":"18:00","weekendOpen":"00:00","weekendClose":"00:00","holidayOpen":"00:00","holidayClose":"00:00","feeInfo":"기본 30분 900원 / 추가 10분당 400원","phone":"032-340-0923","updatedAt":"2025-06-24","sido":"경기도","sigungu":"부천시","dong":""},{"name":"별빛마루도서관","type":"공영","category":"부설","address":"경기도 부천시 소사구 옥길동 772","lat":37.46671543,"lng":126.8210704,"totalSpaces":93,"isFree":false,"operatingDays":"평일+토요일","weekdayOpen":"09:00","weekdayClose":"19:00","weekendOpen":"09:00","weekendClose":"19:00","holidayOpen":"00:00","holidayClose":"00:00","feeInfo":"기본 30분 400원 / 추가 10분당 200원","phone":"032-340-0997","updatedAt":"2025-06-24","sido":"경기도","sigungu":"부천시","dong":""},{"name":"비둘기공원","type":"공영","category":"노외","address":"경기도 부천시 원미구 심곡동 344-9","lat":37.48825919,"lng":126.7750284,"totalSpaces":92,"isFree":false,"operatingDays":"평일+토요일+공휴일","weekdayOpen":"00:00","weekdayClose":"23:59","weekendOpen":"00:00","weekendClose":"23:59","holidayOpen":"00:00","holidayClose":"23:59","feeInfo":"기본 30분 300원 / 추가 10분당 200원","phone":"032-340-0997","updatedAt":"2025-06-24","sido":"경기도","sigungu":"부천시","dong":""},{"name":"멀뫼노외","type":"공영","category":"노외","address":"경기도 부천시 원미구 원미동 177-56","lat":37.49292106,"lng":126.7947798,"totalSpaces":88,"isFree":false,"operatingDays":"평일+토요일+공휴일","weekdayOpen":"00:00","weekdayClose":"23:59","weekendOpen":"00:00","weekendClose":"23:59","holidayOpen":"00:00","holidayClose":"23:59","feeInfo":"기본 30분 300원 / 추가 10분당 200원","phone":"032-340-0997","updatedAt":"2025-06-24","sido":"경기도","sigungu":"부천시","dong":""},{"name":"로데오","type":"공영","category":"노외","address":"경기도 부천시 원미구 상동 407","lat":37.49082055,"lng":126.751742,"totalSpaces":86,"isFree":false,"operatingDays":"평일+토요일+공휴일","weekdayOpen":"00:00","weekdayClose":"23:59","weekendOpen":"00:00","weekendClose":"23:59","holidayOpen":"00:00","holidayClose":"23:59","feeInfo":"기본 30분 900원 / 추가 10분당 400원","phone":"032-340-0997","updatedAt":"2025-06-24","sido":"경기도","sigungu":"부천시","dong":""},{"name":"수주(운산)","type":"공영","category":"노외","address":"경기도 부천시 오정구 고강로161번길 5","lat":37.53173507,"lng":126.822038,"totalSpaces":85,"isFree":false,"operatingDays":"평일+토요일+공휴일","weekdayOpen":"00:00","weekdayClose":"23:59","weekendOpen":"00:00","weekendClose":"23:59","holidayOpen":"00:00","holidayClose":"23:59","feeInfo":"기본 30분 300원 / 추가 10분당 200원","phone":"032-340-0997","updatedAt":"2025-06-24","sido":"경기도","sigungu":"부천시","dong":""},{"name":"삼정1호","type":"공영","category":"노외","address":"경기도 부천시 오정구 삼정동 269-5","lat":37.52179615,"lng":126.7704426,"totalSpaces":85,"isFree":false,"operatingDays":"평일","weekdayOpen":"07:00","weekdayClose":"16:00","weekendOpen":"00:00","weekendClose":"00:00","holidayOpen":"00:00","holidayClose":"00:00","feeInfo":"기본 0분 0원 / 추가 0분당 0원","phone":"032-340-0925","updatedAt":"2025-06-24","sido":"경기도","sigungu":"부천시","dong":""},{"name":"호수공원2","type":"공영","category":"부설","address":"경기도 부천시 원미구 상동 549","lat":37.50612373,"lng":126.7441496,"totalSpaces":85,"isFree":false,"operatingDays":"평일+토요일+공휴일","weekdayOpen":"00:00","weekdayClose":"23:59","weekendOpen":"00:00","weekendClose":"23:59","holidayOpen":"00:00","holidayClose":"23:59","feeInfo":"기본 30분 400원 / 추가 10분당 200원","phone":"032-340-0997","updatedAt":"2025-06-24","sido":"경기도","sigungu":"부천시","dong":""},{"name":"중동사랑시장","type":"공영","category":"노외","address":"경기도 부천시 원미구 중동 737","lat":37.49435496,"lng":126.7650906,"totalSpaces":82,"isFree":false,"operatingDays":"평일+토요일+공휴일","weekdayOpen":"00:00","weekdayClose":"23:59","weekendOpen":"00:00","weekendClose":"23:59","holidayOpen":"00:00","holidayClose":"23:59","feeInfo":"기본 30분 300원 / 추가 10분당 200원","phone":"032-340-0997","updatedAt":"2025-06-24","sido":"경기도","sigungu":"부천시","dong":""},{"name":"고리울동굴시장","type":"공영","category":"노외","address":"경기도 부천시 오정구 고강동 389","lat":37.52669874,"lng":126.8208159,"totalSpaces":81,"isFree":false,"operatingDays":"평일+토요일+공휴일","weekdayOpen":"00:00","weekdayClose":"23:59","weekendOpen":"00:00","weekendClose":"23:59","holidayOpen":"00:00","holidayClose":"23:59","feeInfo":"기본 30분 300원 / 추가 10분당 200원","phone":"032-340-0997","updatedAt":"2025-06-24","sido":"경기도","sigungu":"부천시","dong":""},{"name":"오정도서관 부지","type":"공영","category":"노외","address":"경기도 부천시 오정구 오정동 160-11","lat":37.52749267,"lng":126.7942852,"totalSpaces":80,"isFree":false,"operatingDays":"평일+토요일+공휴일","weekdayOpen":"00:00","weekdayClose":"23:59","weekendOpen":"00:00","weekendClose":"23:59","holidayOpen":"00:00","holidayClose":"23:59","feeInfo":"기본 0분 0원 / 추가 0분당 0원","phone":"032-625-3413","updatedAt":"2025-06-24","sido":"경기도","sigungu":"부천시","dong":""},{"name":"상동철골","type":"공영","category":"노외","address":"경기도 부천시 원미구 상동 236-21","lat":37.49226244,"lng":126.7648876,"totalSpaces":79,"isFree":false,"operatingDays":"평일+토요일+공휴일","weekdayOpen":"00:00","weekdayClose":"23:59","weekendOpen":"00:00","weekendClose":"23:59","holidayOpen":"00:00","holidayClose":"23:59","feeInfo":"기본 0분 0원 / 추가 0분당 0원","phone":"032-340-0925","updatedAt":"2025-06-24","sido":"경기도","sigungu":"부천시","dong":""},{"name":"원미공원2","type":"공영","category":"부설","address":"경기도 부천시 원미구 원미동 15","lat":37.49798434,"lng":126.7990372,"totalSpaces":79,"isFree":false,"operatingDays":"평일+토요일","weekdayOpen":"10:00","weekdayClose":"18:00","weekendOpen":"10:00","weekendClose":"18:00","holidayOpen":"00:00","holidayClose":"00:00","feeInfo":"기본 30분 400원 / 추가 10분당 200원","phone":"032-340-0923","updatedAt":"2025-06-24","sido":"경기도","sigungu":"부천시","dong":""},{"name":"오정산업단지","type":"공영","category":"노외","address":"경기도 부천시 오정구 오정동 760","lat":37.53095851,"lng":126.7801918,"totalSpaces":75,"isFree":false,"operatingDays":"평일+토요일+공휴일","weekdayOpen":"00:00","weekdayClose":"23:59","weekendOpen":"00:00","weekendClose":"23:59","holidayOpen":"00:00","holidayClose":"23:59","feeInfo":"기본 30분 300원 / 추가 10분당 200원","phone":"032-340-0997","updatedAt":"2025-06-24","sido":"경기도","sigungu":"부천시","dong":""},{"name":"부천역 남부 제2호","type":"공영","category":"노외","address":"경기도 부천시 소사구 심곡본동 316-8","lat":37.48337716,"lng":126.7858525,"totalSpaces":69,"isFree":false,"operatingDays":"평일+토요일+공휴일","weekdayOpen":"00:00","weekdayClose":"23:59","weekendOpen":"00:00","weekendClose":"23:59","holidayOpen":"00:00","holidayClose":"23:59","feeInfo":"기본 30분 900원 / 추가 10분당 400원","phone":"032-340-0997","updatedAt":"2025-06-24","sido":"경기도","sigungu":"부천시","dong":""},{"name":"투나백화점일원","type":"공영","category":"노상","address":"경기도 부천시 원미구 상동 492","lat":37.48924474,"lng":126.7551048,"totalSpaces":69,"isFree":false,"operatingDays":"평일","weekdayOpen":"09:00","weekdayClose":"18:00","weekendOpen":"00:00","weekendClose":"00:00","holidayOpen":"00:00","holidayClose":"00:00","feeInfo":"기본 30분 900원 / 추가 10분당 400원","phone":"032-340-0923","updatedAt":"2025-06-24","sido":"경기도","sigungu":"부천시","dong":""},{"name":"원종철골","type":"공영","category":"노외","address":"경기도 부천시 오정구 원종동 277-16","lat":37.52507796,"lng":126.8052103,"totalSpaces":67,"isFree":false,"operatingDays":"평일","weekdayOpen":"10:00","weekdayClose":"18:00","weekendOpen":"00:00","weekendClose":"00:00","holidayOpen":"00:00","holidayClose":"00:00","feeInfo":"기본 30분 900원 / 추가 10분당 400원","phone":"032-340-0923","updatedAt":"2025-06-24","sido":"경기도","sigungu":"부천시","dong":""},{"name":"무지개고가","type":"공영","category":"노외","address":"경기도 부천시 원미구 중동 1164","lat":37.50431604,"lng":126.7621845,"totalSpaces":66,"isFree":false,"operatingDays":"평일+토요일+공휴일","weekdayOpen":"07:00","weekdayClose":"20:00","weekendOpen":"07:00","weekendClose":"20:00","holidayOpen":"07:00","holidayClose":"20:00","feeInfo":"기본 0분 0원 / 추가 0분당 0원","phone":"032-340-0925","updatedAt":"2025-06-24","sido":"경기도","sigungu":"부천시","dong":""},{"name":"꿈빛도서관 옆","type":"공영","category":"노외","address":"경기도 부천시 원미구 중동 1051-8","lat":37.50811334,"lng":126.7737091,"totalSpaces":66,"isFree":false,"operatingDays":"평일+토요일+공휴일","weekdayOpen":"00:00","weekdayClose":"23:59","weekendOpen":"00:00","weekendClose":"23:59","holidayOpen":"00:00","holidayClose":"23:59","feeInfo":"기본 30분 300원 / 추가 10분당 200원","phone":"032-340-0997","updatedAt":"2025-06-24","sido":"경기도","sigungu":"부천시","dong":""},{"name":"송내북부","type":"공영","category":"노외","address":"경기도 부천시 원미구 상동 460","lat":37.48876611,"lng":126.7562608,"totalSpaces":65,"isFree":false,"operatingDays":"평일+토요일+공휴일","weekdayOpen":"00:00","weekdayClose":"23:59","weekendOpen":"00:00","weekendClose":"23:59","holidayOpen":"00:00","holidayClose":"23:59","feeInfo":"기본 30분 900원 / 추가 10분당 400원","phone":"032-340-0997","updatedAt":"2025-06-24","sido":"경기도","sigungu":"부천시","dong":""},{"name":"구소사구청","type":"공영","category":"노외","address":"경기도 부천시 소사구 경인로160번길 52","lat":37.481669,"lng":126.7728995,"totalSpaces":65,"isFree":false,"operatingDays":"평일+토요일+공휴일","weekdayOpen":"00:00","weekdayClose":"23:59","weekendOpen":"00:00","weekendClose":"23:59","holidayOpen":"00:00","holidayClose":"23:59","feeInfo":"기본 0분 0원 / 추가 0분당 0원","phone":"032-340-0925","updatedAt":"2025-06-24","sido":"경기도","sigungu":"부천시","dong":""},{"name":"장미공원 공한지","type":"공영","category":"노외","address":"경기도 부천시 원미구 도당동 123번지","lat":37.517477,"lng":126.793071,"totalSpaces":65,"isFree":false,"operatingDays":"평일+토요일+공휴일","weekdayOpen":"00:00","weekdayClose":"23:59","weekendOpen":"00:00","weekendClose":"23:59","holidayOpen":"00:00","holidayClose":"23:59","feeInfo":"기본 30분 900원 / 추가 10분당 400원","phone":"032-340-0997","updatedAt":"2025-06-24","sido":"경기도","sigungu":"부천시","dong":""},{"name":"부흥","type":"공영","category":"노외","address":"경기도 부천시 원미구 중동 1219","lat":37.4939443,"lng":126.7794687,"totalSpaces":63,"isFree":false,"operatingDays":"평일+토요일+공휴일","weekdayOpen":"00:00","weekdayClose":"23:59","weekendOpen":"00:00","weekendClose":"23:59","holidayOpen":"00:00","holidayClose":"23:59","feeInfo":"기본 30분 300원 / 추가 10분당 200원","phone":"032-340-0997","updatedAt":"2025-06-24","sido":"경기도","sigungu":"부천시","dong":""},{"name":"롯데백화점일원","type":"공영","category":"노상","address":"경기도 부천시 원미구 중동 1140","lat":37.50254358,"lng":126.7753156,"totalSpaces":59,"isFree":false,"operatingDays":"평일","weekdayOpen":"09:00","weekdayClose":"18:00","weekendOpen":"00:00","weekendClose":"00:00","holidayOpen":"00:00","holidayClose":"00:00","feeInfo":"기본 30분 900원 / 추가 10분당 400원","phone":"032-340-0923","updatedAt":"2025-06-24","sido":"경기도","sigungu":"부천시","dong":""},{"name":"오정동1호","type":"공영","category":"노외","address":"경기도 부천시 오정구 오정동 559-1","lat":37.52774244,"lng":126.7872585,"totalSpaces":57,"isFree":false,"operatingDays":"평일+토요일+공휴일","weekdayOpen":"00:00","weekdayClose":"23:59","weekendOpen":"00:00","weekendClose":"23:59","holidayOpen":"00:00","holidayClose":"23:59","feeInfo":"기본 0분 0원 / 추가 0분당 0원","phone":"032-340-0925","updatedAt":"2025-06-24","sido":"경기도","sigungu":"부천시","dong":""},{"name":"시의회옆","type":"공영","category":"노외","address":"경기도 부천시 원미구 중동 1159-4","lat":37.50263731,"lng":126.7642912,"totalSpaces":56,"isFree":false,"operatingDays":"평일+토요일+공휴일","weekdayOpen":"00:00","weekdayClose":"23:59","weekendOpen":"00:00","weekendClose":"23:59","holidayOpen":"00:00","holidayClose":"23:59","feeInfo":"기본 30분 900원 / 추가 10분당 400원","phone":"032-340-0997","updatedAt":"2025-06-24","sido":"경기도","sigungu":"부천시","dong":""},{"name":"수주도서관","type":"공영","category":"부설","address":"경기도 부천시 오정구 고강동 산 90","lat":37.52432193,"lng":126.81865,"totalSpaces":52,"isFree":false,"operatingDays":"평일+토요일+공휴일","weekdayOpen":"09:00","weekdayClose":"19:00","weekendOpen":"09:00","weekendClose":"19:00","holidayOpen":"09:00","holidayClose":"19:00","feeInfo":"기본 30분 400원 / 추가 10분당 200원","phone":"032-340-0997","updatedAt":"2025-06-24","sido":"경기도","sigungu":"부천시","dong":""},{"name":"송내IC 화물","type":"공영","category":"노외","address":"경기도 부천시 원미구 상동 21","lat":37.50165929,"lng":126.7472818,"totalSpaces":51,"isFree":false,"operatingDays":"평일+토요일+공휴일","weekdayOpen":"00:00","weekdayClose":"23:59","weekendOpen":"00:00","weekendClose":"23:59","holidayOpen":"00:00","holidayClose":"23:59","feeInfo":"기본 0분 0원 / 추가 0분당 0원","phone":"032-340-0925","updatedAt":"2025-06-24","sido":"경기도","sigungu":"부천시","dong":""},{"name":"춘의동 임시","type":"공영","category":"노외","address":"경기도 부천시 원미구 춘의동 212-8","lat":37.4988765,"lng":126.7858138,"totalSpaces":50,"isFree":false,"operatingDays":"평일+토요일+공휴일","weekdayOpen":"09:00","weekdayClose":"18:00","weekendOpen":"09:00","weekendClose":"18:00","holidayOpen":"09:00","holidayClose":"18:00","feeInfo":"기본 30분 300원 / 추가 10분당 200원","phone":"032-340-0923","updatedAt":"2025-06-24","sido":"경기도","sigungu":"부천시","dong":""},{"name":"상동시장","type":"공영","category":"노외","address":"경기도 부천시 원미구 석천로38번길 51","lat":37.49070496,"lng":126.7630199,"totalSpaces":49,"isFree":false,"operatingDays":"평일+토요일+공휴일","weekdayOpen":"00:00","weekdayClose":"23:59","weekendOpen":"00:00","weekendClose":"23:59","holidayOpen":"00:00","holidayClose":"23:59","feeInfo":"기본 30분 300원 / 추가 10분당 200원","phone":"032-340-0997","updatedAt":"2025-06-24","sido":"경기도","sigungu":"부천시","dong":""},{"name":"버들공원","type":"공영","category":"부설","address":"경기도 부천시 소사구 옥길로56번길 140","lat":37.46105888,"lng":126.8255451,"totalSpaces":49,"isFree":false,"operatingDays":"평일+토요일+공휴일","weekdayOpen":"10:00","weekdayClose":"21:00","weekendOpen":"10:00","weekendClose":"21:00","holidayOpen":"10:00","holidayClose":"21:00","feeInfo":"기본 30분 400원 / 추가 10분당 200원","phone":"032-340-0997","updatedAt":"2025-06-24","sido":"경기도","sigungu":"부천시","dong":""},{"name":"부천역 남부","type":"공영","category":"노외","address":"경기도 부천시 소사구 심곡본동 550-10","lat":37.483582,"lng":126.783051,"totalSpaces":48,"isFree":false,"operatingDays":"평일+토요일+공휴일","weekdayOpen":"00:00","weekdayClose":"23:59","weekendOpen":"00:00","weekendClose":"23:59","holidayOpen":"00:00","holidayClose":"23:59","feeInfo":"기본 30분 900원 / 추가 10분당 400원","phone":"032-340-0997","updatedAt":"2025-06-24","sido":"경기도","sigungu":"부천시","dong":""},{"name":"원미철골","type":"공영","category":"노외","address":"경기도 부천시 원미구 원미동 134-15","lat":37.49256614,"lng":126.7851685,"totalSpaces":48,"isFree":false,"operatingDays":"평일","weekdayOpen":"10:00","weekdayClose":"18:00","weekendOpen":"00:00","weekendClose":"00:00","holidayOpen":"00:00","holidayClose":"00:00","feeInfo":"기본 30분 300원 / 추가 10분당 200원","phone":"032-340-0923","updatedAt":"2025-06-24","sido":"경기도","sigungu":"부천시","dong":""},{"name":"성주중학교옆","type":"공영","category":"노외","address":"경기도 부천시 원미구 송내동 416-6","lat":37.476752,"lng":126.766661,"totalSpaces":47,"isFree":false,"operatingDays":"평일+토요일+공휴일","weekdayOpen":"00:00","weekdayClose":"23:59","weekendOpen":"00:00","weekendClose":"23:59","holidayOpen":"00:00","holidayClose":"23:59","feeInfo":"기본 30분 300원 / 추가 10분당 200원","phone":"032-340-0997","updatedAt":"2025-06-24","sido":"경기도","sigungu":"부천시","dong":""},{"name":"오정물류센터","type":"공영","category":"노외","address":"경기도 부천시 오정구 오정동 808-5","lat":37.52847869,"lng":126.7763141,"totalSpaces":47,"isFree":false,"operatingDays":"평일+토요일+공휴일","weekdayOpen":"07:00","weekdayClose":"19:00","weekendOpen":"00:00","weekendClose":"23:59","holidayOpen":"00:00","holidayClose":"23:59","feeInfo":"기본 30분 300원 / 추가 10분당 200원","phone":"032-340-0997","updatedAt":"2025-06-24","sido":"경기도","sigungu":"부천시","dong":""},{"name":"샛말길","type":"공영","category":"노상","address":"경기도 부천시 오정구 고강동 218-7","lat":37.53406545,"lng":126.8172755,"totalSpaces":46,"isFree":false,"operatingDays":"평일","weekdayOpen":"09:00","weekdayClose":"18:00","weekendOpen":"00:00","weekendClose":"00:00","holidayOpen":"00:00","holidayClose":"00:00","feeInfo":"기본 0분 0원 / 추가 0분당 0원","phone":"032-340-0925","updatedAt":"2025-06-24","sido":"경기도","sigungu":"부천시","dong":""},{"name":"도당공원2","type":"공영","category":"부설","address":"경기도 부천시 원미구 도당동 산 25-5","lat":37.51704947,"lng":126.7931946,"totalSpaces":45,"isFree":false,"operatingDays":"평일+토요일+공휴일","weekdayOpen":"10:00","weekdayClose":"21:00","weekendOpen":"10:00","weekendClose":"21:00","holidayOpen":"10:00","holidayClose":"21:00","feeInfo":"기본 30분 400원 / 추가 10분당 200원","phone":"032-340-0997","updatedAt":"2025-06-24","sido":"경기도","sigungu":"부천시","dong":""},{"name":"고강차고지진입로","type":"공영","category":"노상","address":"경기도 부천시 오정구 고강동 1-12","lat":37.53689951,"lng":126.8215324,"totalSpaces":43,"isFree":false,"operatingDays":"평일","weekdayOpen":"09:00","weekdayClose":"18:00","weekendOpen":"00:00","weekendClose":"00:00","holidayOpen":"00:00","holidayClose":"00:00","feeInfo":"기본 0분 0원 / 추가 0분당 0원","phone":"032-340-0925","updatedAt":"2025-06-24","sido":"경기도","sigungu":"부천시","dong":""},{"name":"심곡시민의강2","type":"공영","category":"노외","address":"경기도 부천시 원미구 부흥로 441","lat":37.4875011,"lng":126.788992,"totalSpaces":40,"isFree":false,"operatingDays":"평일+토요일+공휴일","weekdayOpen":"00:00","weekdayClose":"23:59","weekendOpen":"00:00","weekendClose":"23:59","holidayOpen":"00:00","holidayClose":"23:59","feeInfo":"기본 30분 300원 / 추가 10분당 200원","phone":"032-340-0997","updatedAt":"2025-06-24","sido":"경기도","sigungu":"부천시","dong":""},{"name":"도당교1호","type":"공영","category":"노외","address":"경기도 부천시 오정구 오정동 617-3","lat":37.52278016,"lng":126.7934843,"totalSpaces":39,"isFree":false,"operatingDays":"평일+토요일+공휴일","weekdayOpen":"18:00","weekdayClose":"09:00","weekendOpen":"18:00","weekendClose":"09:00","holidayOpen":"18:00","holidayClose":"09:00","feeInfo":"기본 0분 0원 / 추가 0분당 0원","phone":"032-340-0925","updatedAt":"2025-06-24","sido":"경기도","sigungu":"부천시","dong":""},{"name":"송내파인","type":"공영","category":"노외","address":"경기도 부천시 소사구 송내동 317-4","lat":37.48495406,"lng":126.7553402,"totalSpaces":36,"isFree":false,"operatingDays":"평일+토요일+공휴일","weekdayOpen":"00:00","weekdayClose":"23:59","weekendOpen":"00:00","weekendClose":"23:59","holidayOpen":"00:00","holidayClose":"23:59","feeInfo":"기본 0분 0원 / 추가 0분당 0원","phone":"032-340-0925","updatedAt":"2025-06-24","sido":"경기도","sigungu":"부천시","dong":""},{"name":"도당공원1","type":"공영","category":"부설","address":"경기도 부천시 원미구 도당동 산25-5","lat":37.51704947,"lng":126.7931946,"totalSpaces":35,"isFree":false,"operatingDays":"평일+토요일+공휴일","weekdayOpen":"10:00","weekdayClose":"21:00","weekendOpen":"10:00","weekendClose":"21:00","holidayOpen":"10:00","holidayClose":"21:00","feeInfo":"기본 30분 400원 / 추가 10분당 200원","phone":"032-340-0997","updatedAt":"2025-06-24","sido":"경기도","sigungu":"부천시","dong":""},{"name":"까치로","type":"공영","category":"노외","address":"경기도 부천시 오정구 작동 406","lat":37.50854641,"lng":126.808288,"totalSpaces":34,"isFree":false,"operatingDays":"평일+토요일+공휴일","weekdayOpen":"00:00","weekdayClose":"23:59","weekendOpen":"00:00","weekendClose":"23:59","holidayOpen":"00:00","holidayClose":"23:59","feeInfo":"기본 30분 300원 / 추가 10분당 200원","phone":"032-340-0997","updatedAt":"2025-06-24","sido":"경기도","sigungu":"부천시","dong":""},{"name":"고강제일시장","type":"공영","category":"노외","address":"경기도 부천시 오정구 고강동 389","lat":37.52669874,"lng":126.8208159,"totalSpaces":34,"isFree":false,"operatingDays":"평일+토요일+공휴일","weekdayOpen":"00:00","weekdayClose":"23:59","weekendOpen":"00:00","weekendClose":"23:59","holidayOpen":"00:00","holidayClose":"23:59","feeInfo":"기본 30분 300원 / 추가 10분당 200원","phone":"032-340-0997","updatedAt":"2025-06-24","sido":"경기도","sigungu":"부천시","dong":""},{"name":"대성병원옆","type":"공영","category":"노외","address":"경기도 부천시 원미구 심곡동 110-9","lat":37.49271508,"lng":126.784216,"totalSpaces":28,"isFree":false,"operatingDays":"평일+토요일+공휴일","weekdayOpen":"00:00","weekdayClose":"23:59","weekendOpen":"00:00","weekendClose":"23:59","holidayOpen":"00:00","holidayClose":"23:59","feeInfo":"기본 30분 300원 / 추가 10분당 200원","phone":"032-340-0997","updatedAt":"2025-06-24","sido":"경기도","sigungu":"부천시","dong":""},{"name":"복사초앞","type":"공영","category":"노외","address":"경기도 부천시 소사구 소사본동 404-1","lat":37.46705747,"lng":126.798461,"totalSpaces":25,"isFree":false,"operatingDays":"평일+토요일+공휴일","weekdayOpen":"18:00","weekdayClose":"09:00","weekendOpen":"18:00","weekendClose":"09:00","holidayOpen":"18:00","holidayClose":"09:00","feeInfo":"기본 0분 0원 / 추가 0분당 0원","phone":"032-340-0925","updatedAt":"2025-06-24","sido":"경기도","sigungu":"부천시","dong":""},{"name":"호수로노외","type":"공영","category":"노외","address":"경기도 부천시 원미구 상동 521-10","lat":37.51305355,"lng":126.7524197,"totalSpaces":22,"isFree":false,"operatingDays":"평일+토요일+공휴일","weekdayOpen":"00:00","weekdayClose":"23:59","weekendOpen":"00:00","weekendClose":"23:59","holidayOpen":"00:00","holidayClose":"23:59","feeInfo":"기본 30분 300원 / 추가 10분당 200원","phone":"032-340-0997","updatedAt":"2025-06-24","sido":"경기도","sigungu":"부천시","dong":""},{"name":"교통정보센터","type":"공영","category":"노외","address":"경기도 부천시 원미구 중동 1089-1","lat":37.50169867,"lng":126.7807467,"totalSpaces":19,"isFree":false,"operatingDays":"평일+토요일+공휴일","weekdayOpen":"00:00","weekdayClose":"23:59","weekendOpen":"00:00","weekendClose":"23:59","holidayOpen":"00:00","holidayClose":"23:59","feeInfo":"기본 0분 0원 / 추가 0분당 0원","phone":"032-340-0925","updatedAt":"2025-06-24","sido":"경기도","sigungu":"부천시","dong":""},{"name":"원종역","type":"공영","category":"노외","address":"경기도 부천시 오정구 원종동 227-14","lat":37.52320508,"lng":126.804522,"totalSpaces":19,"isFree":false,"operatingDays":"평일+토요일+공휴일","weekdayOpen":"00:00","weekdayClose":"23:59","weekendOpen":"00:00","weekendClose":"23:59","holidayOpen":"00:00","holidayClose":"23:59","feeInfo":"기본 30분 900원 / 추가 10분당 400원","phone":"032-340-0997","updatedAt":"2025-06-24","sido":"경기도","sigungu":"부천시","dong":""},{"name":"구소새울","type":"공영","category":"노외","address":"경기도 부천시 소사구 소사본동 166-6","lat":37.47555067,"lng":126.792342,"totalSpaces":11,"isFree":false,"operatingDays":"평일+토요일+공휴일","weekdayOpen":"18:00","weekdayClose":"09:00","weekendOpen":"18:00","weekendClose":"09:00","holidayOpen":"18:00","holidayClose":"09:00","feeInfo":"기본 0분 0원 / 추가 0분당 0원","phone":"032-340-0925","updatedAt":"2025-06-24","sido":"경기도","sigungu":"부천시","dong":""}]}