{"sido":"경기도","sigungu":"수원시","totalCount":58,"validCount":57,"items":[{"name":"농수산시장","type":"공영","category":"부설","address":"경기도 수원시 권선구 세권로 243","lat":37.25489793,"lng":127.0304237,"totalSpaces":779,"isFree":false,"operatingDays":"평일+토요일+공휴일","weekdayOpen":"00:00","weekdayClose":"23:59","weekendOpen":"00:00","weekendClose":"23:59","holidayOpen":"00:00","holidayClose":"23:59","feeInfo":"기본 60분 300원 / 추가 10분당 200원","phone":"031-267-2036","updatedAt":"2026-01-15","sido":"경기도","sigungu":"수원시","dong":""},{"name":"화홍문공영","type":"공영","category":"노외","address":"경기도 수원시 장안구 팔달로 280","lat":37.28988748,"lng":127.0158124,"totalSpaces":457,"isFree":false,"operatingDays":"평일+토요일+공휴일","weekdayOpen":"00:00","weekdayClose":"23:59","weekendOpen":"00:00","weekendClose":"23:59","holidayOpen":"00:00","holidayClose":"23:59","feeInfo":"기본 30분 400원 / 추가 10분당 100원","phone":"031-695-0930","updatedAt":"2026-01-15","sido":"경기도","sigungu":"수원시","dong":""},{"name":"원천호수","type":"공영","category":"노외","address":"경기도 수원시 영통구 광교호수로 75","lat":37.27588505,"lng":127.0662683,"totalSpaces":404,"isFree":false,"operatingDays":"평일+토요일+공휴일","weekdayOpen":"00:00","weekdayClose":"23:59","weekendOpen":"00:00","weekendClose":"23:59","holidayOpen":"00:00","holidayClose":"23:59","feeInfo":"기본 180분 1,000원 / 추가 180분당 1,000원","phone":"031-695-0930","updatedAt":"2026-01-15","sido":"경기도","sigungu":"수원시","dong":""},{"name":"시청별관","type":"공영","category":"부설","address":"경기도 수원시 팔달구 효원로 241(인계동)","lat":37.2634535,"lng":127.0286621,"totalSpaces":364,"isFree":false,"operatingDays":"평일+공휴일","weekdayOpen":"00:00","weekdayClose":"22:00","weekendOpen":"00:00","weekendClose":"00:00","holidayOpen":"00:00","holidayClose":"23:59","feeInfo":"기본 30분 900원 / 추가 10분당 400원","phone":"031-695-0930","updatedAt":"2026-01-15","sido":"경기도","sigungu":"수원시","dong":""},{"name":"광교공영","type":"공영","category":"노외","address":"경기도 수원시 장안구 광교산로 160 (하광교동)","lat":37.30154124,"lng":127.0318348,"totalSpaces":357,"isFree":false,"operatingDays":"평일+토요일+공휴일","weekdayOpen":"00:00","weekdayClose":"23:59","weekendOpen":"00:00","weekendClose":"23:59","holidayOpen":"00:00","holidayClose":"23:59","feeInfo":"기본 180분 1,000원 / 추가 180분당 1,000원","phone":"031-695-0930","updatedAt":"2026-01-15","sido":"경기도","sigungu":"수원시","dong":""},{"name":"화성박물관,팔달구청","type":"공영","category":"부설","address":"경기도 수원시 팔달구 창룡대로 23","lat":37.28265077,"lng":127.0200791,"totalSpaces":340,"isFree":false,"operatingDays":"평일+공휴일","weekdayOpen":"00:00","weekdayClose":"23:59","weekendOpen":"00:00","weekendClose":"00:00","holidayOpen":"00:00","holidayClose":"23:59","feeInfo":"기본 30분 600원 / 추가 10분당 300원","phone":"031-695-0930","updatedAt":"2026-01-15","sido":"경기도","sigungu":"수원시","dong":""},{"name":"영통공영","type":"공영","category":"노외","address":"경기도 수원시 영통구 봉영로 1598","lat":37.25331525,"lng":127.0739484,"totalSpaces":313,"isFree":false,"operatingDays":"평일+토요일+공휴일","weekdayOpen":"00:00","weekdayClose":"23:59","weekendOpen":"00:00","weekendClose":"23:59","holidayOpen":"00:00","holidayClose":"23:59","feeInfo":"기본 30분 900원 / 추가 10분당 400원","phone":"031-695-0930","updatedAt":"2026-01-15","sido":"경기도","sigungu":"수원시","dong":""},{"name":"영통구청","type":"공영","category":"부설","address":"경기도 수원시 영통구 효원로 407","lat":37.25959894,"lng":127.0465078,"totalSpaces":292,"isFree":false,"operatingDays":"평일+토요일+공휴일","weekdayOpen":"00:00","weekdayClose":"23:59","weekendOpen":"00:00","weekendClose":"23:59","holidayOpen":"00:00","holidayClose":"23:59","feeInfo":"기본 30분 600원 / 추가 10분당 300원","phone":"031-695-0930","updatedAt":"2026-01-15","sido":"경기도","sigungu":"수원시","dong":""},{"name":"신대호수","type":"공영","category":"노외","address":"경기도 수원시 영통구 광교호수로 214","lat":37.28351029,"lng":127.0772467,"totalSpaces":291,"isFree":false,"operatingDays":"평일+토요일+공휴일","weekdayOpen":"00:00","weekdayClose":"23:59","weekendOpen":"00:00","weekendClose":"23:59","holidayOpen":"00:00","holidayClose":"23:59","feeInfo":"기본 180분 1,000원 / 추가 180분당 1,000원","phone":"031-695-0930","updatedAt":"2026-01-15","sido":"경기도","sigungu":"수원시","dong":""},{"name":"화서환승","type":"공영","category":"노외","address":"경기도 수원시 팔달구 덕영대로 691-13","lat":37.2858978,"lng":126.9903467,"totalSpaces":290,"isFree":false,"operatingDays":"평일+토요일+공휴일","weekdayOpen":"00:00","weekdayClose":"23:59","weekendOpen":"00:00","weekendClose":"23:59","holidayOpen":"00:00","holidayClose":"23:59","feeInfo":"기본 30분 500원 / 추가 10분당 200원","phone":"031-695-0930","updatedAt":"2026-01-15","sido":"경기도","sigungu":"수원시","dong":""},{"name":"행복한들","type":"공영","category":"노외","address":"경기도 수원시 영통구 광교호수로 171","lat":37.28335668,"lng":127.0719185,"totalSpaces":256,"isFree":false,"operatingDays":"평일+토요일+공휴일","weekdayOpen":"00:00","weekdayClose":"23:59","weekendOpen":"00:00","weekendClose":"23:59","holidayOpen":"00:00","holidayClose":"23:59","feeInfo":"기본 180분 1,000원 / 추가 180분당 1,000원","phone":"031-695-0930","updatedAt":"2026-01-15","sido":"경기도","sigungu":"수원시","dong":""},{"name":"권선구청 부설","type":"공영","category":"부설","address":"경기도 수원시 권선구 호매실로 12","lat":37.25763416,"lng":126.9718985,"totalSpaces":256,"isFree":false,"operatingDays":"평일+토요일+공휴일","weekdayOpen":"00:00","weekdayClose":"23:59","weekendOpen":"00:00","weekendClose":"23:59","holidayOpen":"00:00","holidayClose":"23:59","feeInfo":"기본 30분 600원 / 추가 10분당 300원","phone":"031-695-0930","updatedAt":"2026-01-15","sido":"경기도","sigungu":"수원시","dong":""},{"name":"교동공영","type":"공영","category":"노외","address":"경기도 수원시 팔달구 향교로 140","lat":37.27321263,"lng":127.0153514,"totalSpaces":252,"isFree":false,"operatingDays":"평일+토요일+공휴일","weekdayOpen":"00:00","weekdayClose":"23:59","weekendOpen":"00:00","weekendClose":"23:59","holidayOpen":"00:00","holidayClose":"23:59","feeInfo":"기본 30분 600원 / 추가 10분당 300원","phone":"031-695-0930","updatedAt":"2026-01-15","sido":"경기도","sigungu":"수원시","dong":""},{"name":"대황교화물","type":"공영","category":"노외","address":"경기도 수원시 권선구 정조로 224 (대황교동)","lat":37.23051924,"lng":127.0218832,"totalSpaces":230,"isFree":false,"operatingDays":"평일+토요일+공휴일","weekdayOpen":"00:00","weekdayClose":"23:59","weekendOpen":"00:00","weekendClose":"23:59","holidayOpen":"00:00","holidayClose":"23:59","feeInfo":"기본 30분 400원 / 추가 10분당 100원","phone":"031-267-4753","updatedAt":"2026-01-15","sido":"경기도","sigungu":"수원시","dong":""},{"name":"매탄공원","type":"공영","category":"노외","address":"경기도 수원시 영통구 매탄로 185","lat":37.26713341,"lng":127.0454804,"totalSpaces":223,"isFree":false,"operatingDays":"평일+토요일+공휴일","weekdayOpen":"00:00","weekdayClose":"23:59","weekendOpen":"00:00","weekendClose":"23:59","holidayOpen":"00:00","holidayClose":"23:59","feeInfo":"기본 180분 1,000원 / 추가 180분당 1,000원","phone":"031-695-0930","updatedAt":"2026-01-15","sido":"경기도","sigungu":"수원시","dong":""},{"name":"시청2부설","type":"공영","category":"부설","address":"경기도 수원시 팔달구 효원로 241(인계동)","lat":37.2634535,"lng":127.0286621,"totalSpaces":212,"isFree":false,"operatingDays":"평일+공휴일","weekdayOpen":"00:00","weekdayClose":"23:59","weekendOpen":"00:00","weekendClose":"00:00","holidayOpen":"00:00","holidayClose":"23:59","feeInfo":"기본 30분 900원 / 추가 10분당 400원","phone":"031-695-0930","updatedAt":"2026-01-15","sido":"경기도","sigungu":"수원시","dong":""},{"name":"영화동","type":"공영","category":"노외","address":"경기도 수원시 장안구 영화동250-1","lat":37.2931485668,"lng":127.0139655678,"totalSpaces":208,"isFree":false,"operatingDays":"평일+토요일+공휴일","weekdayOpen":"00:00","weekdayClose":"23:59","weekendOpen":"00:00","weekendClose":"23:59","holidayOpen":"00:00","holidayClose":"23:59","feeInfo":"기본 30분 400원 / 추가 10분당 200원","phone":"031-695-0930","updatedAt":"2026-01-15","sido":"경기도","sigungu":"수원시","dong":""},{"name":"곡반2공영","type":"공영","category":"노외","address":"경기도 수원시 권선구 곡선로49번길 14-5","lat":37.23952389,"lng":127.0306259,"totalSpaces":206,"isFree":false,"operatingDays":"평일+토요일+공휴일","weekdayOpen":"00:00","weekdayClose":"23:59","weekendOpen":"00:00","weekendClose":"23:59","holidayOpen":"00:00","holidayClose":"23:59","feeInfo":"기본 30분 600원 / 추가 10분당 300원","phone":"031-695-0930","updatedAt":"2026-01-15","sido":"경기도","sigungu":"수원시","dong":""},{"name":"수원화물공영차고지(고색)","type":"공영","category":"노외","address":"경기도 수원시 권선구 고색동 551","lat":37.2381349151,"lng":126.9885846708,"totalSpaces":205,"isFree":false,"operatingDays":"평일+토요일+공휴일","weekdayOpen":"00:00","weekdayClose":"23:59","weekendOpen":"00:00","weekendClose":"23:59","holidayOpen":"00:00","holidayClose":"23:59","feeInfo":"기본 30분 400원 / 추가 10분당 200원","phone":"031-278-9206","updatedAt":"2026-01-15","sido":"경기도","sigungu":"수원시","dong":""},{"name":"매봉공영","type":"공영","category":"노외","address":"경기도 수원시 영통구 동탄원천로1109번길 61","lat":37.26961675,"lng":127.0550603,"totalSpaces":200,"isFree":false,"operatingDays":"평일+토요일+공휴일","weekdayOpen":"00:00","weekdayClose":"23:59","weekendOpen":"00:00","weekendClose":"23:59","holidayOpen":"00:00","holidayClose":"23:59","feeInfo":"기본 30분 400원 / 추가 10분당 200원","phone":"031-695-0930","updatedAt":"2026-01-15","sido":"경기도","sigungu":"수원시","dong":""},{"name":"성균관대역환승(신)","type":"공영","category":"노외","address":"경기도 수원시 장안구 화산로 242","lat":37.30008654,"lng":126.9703313,"totalSpaces":191,"isFree":false,"operatingDays":"평일+토요일+공휴일","weekdayOpen":"00:00","weekdayClose":"23:59","weekendOpen":"00:00","weekendClose":"23:59","holidayOpen":"00:00","holidayClose":"23:59","feeInfo":"기본 30분 300원 / 추가 10분당 200원","phone":"031-695-0930","updatedAt":"2026-01-15","sido":"경기도","sigungu":"수원시","dong":""},{"name":"망포공영","type":"공영","category":"노외","address":"경기도 수원시 영통구 영통로 200번길 1","lat":37.24474576,"lng":127.0583336,"totalSpaces":179,"isFree":false,"operatingDays":"평일+토요일+공휴일","weekdayOpen":"00:00","weekdayClose":"23:59","weekendOpen":"00:00","weekendClose":"23:59","holidayOpen":"00:00","holidayClose":"23:59","feeInfo":"기본 30분 900원 / 추가 10분당 400원","phone":"031-204-7993","updatedAt":"2026-01-15","sido":"경기도","sigungu":"수원시","dong":""},{"name":"연무동공영","type":"공영","category":"노외","address":"경기도 수원시 장안구 경수대로 743번길 57","lat":37.28803395,"lng":127.0210366,"totalSpaces":176,"isFree":false,"operatingDays":"평일+토요일+공휴일","weekdayOpen":"00:00","weekdayClose":"23:59","weekendOpen":"00:00","weekendClose":"23:59","holidayOpen":"00:00","holidayClose":"23:59","feeInfo":"기본 30분 400원 / 추가 10분당 200원","phone":"031-695-0930","updatedAt":"2026-01-15","sido":"경기도","sigungu":"수원시","dong":""},{"name":"우만2동공영주차장","type":"공영","category":"노외","address":"경기도 수원시 팔달구 아주로 27번길 5","lat":37.2769076478,"lng":127.0433469164,"totalSpaces":173,"isFree":false,"operatingDays":"평일+토요일+공휴일","weekdayOpen":"00:00","weekdayClose":"23:59","weekendOpen":"00:00","weekendClose":"23:59","holidayOpen":"00:00","holidayClose":"23:59","feeInfo":"기본 30분 600원 / 추가 10분당 300원","phone":"031-695-0930","updatedAt":"2026-01-15","sido":"경기도","sigungu":"수원시","dong":""},{"name":"성대환승","type":"공영","category":"노외","address":"경기도 수원시 장안구 덕영대로 417번길1","lat":37.30128763,"lng":126.9686162,"totalSpaces":166,"isFree":false,"operatingDays":"평일+토요일+공휴일","weekdayOpen":"00:00","weekdayClose":"23:59","weekendOpen":"00:00","weekendClose":"23:59","holidayOpen":"00:00","holidayClose":"23:59","feeInfo":"기본 30분 300원 / 추가 10분당 200원","phone":"031-695-0930","updatedAt":"2026-01-15","sido":"경기도","sigungu":"수원시","dong":""},{"name":"화서시장공영주차장","type":"공영","category":"노외","address":"경기도 수원시 팔달구 팔달로 119번길 29","lat":37.2789217879,"lng":127.0021642775,"totalSpaces":159,"isFree":false,"operatingDays":"평일+토요일+공휴일","weekdayOpen":"00:00","weekdayClose":"23:59","weekendOpen":"00:00","weekendClose":"23:59","holidayOpen":"00:00","holidayClose":"23:59","feeInfo":"기본 30분 900원 / 추가 10분당 400원","phone":"031-695-0930","updatedAt":"2026-01-15","sido":"경기도","sigungu":"수원시","dong":""},{"name":"꽃뫼환승","type":"공영","category":"노외","address":"경기도 수원시 팔달구 화산로6번길 6","lat":37.28508836,"lng":126.9862825,"totalSpaces":143,"isFree":false,"operatingDays":"평일+토요일+공휴일","weekdayOpen":"00:00","weekdayClose":"23:59","weekendOpen":"00:00","weekendClose":"23:59","holidayOpen":"00:00","holidayClose":"23:59","feeInfo":"기본 30분 300원 / 추가 10분당 200원","phone":"031-695-0930","updatedAt":"2026-01-15","sido":"경기도","sigungu":"수원시","dong":""},{"name":"장안동공영","type":"공영","category":"노외","address":"경기도 수원시 팔달구 장안동 51","lat":37.2865189636,"lng":127.0144079967,"totalSpaces":138,"isFree":false,"operatingDays":"평일+토요일+공휴일","weekdayOpen":"00:00","weekdayClose":"23:59","weekendOpen":"00:00","weekendClose":"23:59","holidayOpen":"00:00","holidayClose":"23:59","feeInfo":"기본 30분 400원 / 추가 10분당 200원","phone":"031-695-0930","updatedAt":"2026-01-15","sido":"경기도","sigungu":"수원시","dong":""},{"name":"세류역환승","type":"공영","category":"노외","address":"경기도 수원시 권선구 장지동 44-10","lat":37.24341416,"lng":127.0145079,"totalSpaces":136,"isFree":false,"operatingDays":"평일+토요일+공휴일","weekdayOpen":"00:00","weekdayClose":"23:59","weekendOpen":"00:00","weekendClose":"23:59","holidayOpen":"00:00","holidayClose":"23:59","feeInfo":"기본 30분 300원 / 추가 10분당 200원","phone":"031-267-3722","updatedAt":"2026-01-15","sido":"경기도","sigungu":"수원시","dong":""},{"name":"수원역환승","type":"공영","category":"노외","address":"경기도 수원시 권선구 세화로 136(서둔동)","lat":37.26568452,"lng":126.998785,"totalSpaces":129,"isFree":false,"operatingDays":"평일+토요일+공휴일","weekdayOpen":"00:00","weekdayClose":"23:59","weekendOpen":"00:00","weekendClose":"23:59","holidayOpen":"00:00","holidayClose":"23:59","feeInfo":"기본 30분 500원 / 추가 10분당 200원","phone":"","updatedAt":"2026-01-15","sido":"경기도","sigungu":"수원시","dong":""},{"name":"우만공원공영","type":"공영","category":"노외","address":"경기도 수원시 팔달구 세지로 436","lat":37.28706781,"lng":127.0320999,"totalSpaces":119,"isFree":false,"operatingDays":"평일+토요일+공휴일","weekdayOpen":"00:00","weekdayClose":"23:59","weekendOpen":"00:00","weekendClose":"23:59","holidayOpen":"00:00","holidayClose":"23:59","feeInfo":"기본 30분 400원 / 추가 10분당 200원","phone":"031-695-0930","updatedAt":"2026-01-15","sido":"경기도","sigungu":"수원시","dong":""},{"name":"율전공영","type":"공영","category":"노외","address":"경기도 수원시 장안구 서부로2106번길 27","lat":37.29761545,"lng":126.9714256,"totalSpaces":118,"isFree":false,"operatingDays":"평일+토요일+공휴일","weekdayOpen":"00:00","weekdayClose":"23:59","weekendOpen":"00:00","weekendClose":"23:59","holidayOpen":"00:00","holidayClose":"23:59","feeInfo":"기본 30분 600원 / 추가 10분당 300원","phone":"031-695-0930","updatedAt":"2026-01-15","sido":"경기도","sigungu":"수원시","dong":""},{"name":"역세권1지구","type":"공영","category":"노외","address":"경기도 수원시 권선구 서둔동 393","lat":37.261139424,"lng":126.9904924111,"totalSpaces":105,"isFree":false,"operatingDays":"평일+토요일+공휴일","weekdayOpen":"00:00","weekdayClose":"23:59","weekendOpen":"00:00","weekendClose":"23:59","holidayOpen":"00:00","holidayClose":"23:59","feeInfo":"기본 30분 900원 / 추가 10분당 400원","phone":"031-695-0930","updatedAt":"2026-01-15","sido":"경기도","sigungu":"수원시","dong":""},{"name":"만석공원 제5","type":"공영","category":"노외","address":"경기도 수원시 장안구 송정로 9","lat":37.29757718,"lng":126.9991131,"totalSpaces":103,"isFree":false,"operatingDays":"평일+토요일+공휴일","weekdayOpen":"00:00","weekdayClose":"23:59","weekendOpen":"00:00","weekendClose":"23:59","holidayOpen":"00:00","holidayClose":"23:59","feeInfo":"기본 180분 1,000원 / 추가 180분당 1,000원","phone":"031-695-0930","updatedAt":"2026-01-15","sido":"경기도","sigungu":"수원시","dong":""},{"name":"곡반정동제7공영","type":"공영","category":"노외","address":"경기도 수원시 권선구 곡반정동 652-1","lat":37.2444036623,"lng":127.0351468107,"totalSpaces":92,"isFree":false,"operatingDays":"평일+토요일+공휴일","weekdayOpen":"00:00","weekdayClose":"23:59","weekendOpen":"00:00","weekendClose":"23:59","holidayOpen":"00:00","holidayClose":"23:59","feeInfo":"기본 30분 600원 / 추가 10분당 300원","phone":"031-695-0930","updatedAt":"2026-01-15","sido":"경기도","sigungu":"수원시","dong":""},{"name":"시청정문","type":"공영","category":"부설","address":"경기도 수원시 팔달구 효원로 241(인계동)","lat":37.2634535,"lng":127.0286621,"totalSpaces":90,"isFree":false,"operatingDays":"평일+공휴일","weekdayOpen":"00:00","weekdayClose":"23:59","weekendOpen":"00:00","weekendClose":"00:00","holidayOpen":"00:00","holidayClose":"23:59","feeInfo":"기본 30분 900원 / 추가 10분당 400원","phone":"031-695-0930","updatedAt":"2026-01-15","sido":"경기도","sigungu":"수원시","dong":""},{"name":"창룡공영","type":"공영","category":"노외","address":"경기도 수원시 팔달구 월드컵로 381번길 2","lat":37.29134418,"lng":127.0279964,"totalSpaces":85,"isFree":false,"operatingDays":"평일+토요일+공휴일","weekdayOpen":"00:00","weekdayClose":"23:59","weekendOpen":"00:00","weekendClose":"23:59","holidayOpen":"00:00","holidayClose":"23:59","feeInfo":"기본 30분 600원 / 추가 10분당 300원","phone":"031-695-0930","updatedAt":"2026-01-15","sido":"경기도","sigungu":"수원시","dong":""},{"name":"영통도서관","type":"공영","category":"부설","address":"경기도 수원시 영통구 청명로 151","lat":37.25718838,"lng":127.0720589,"totalSpaces":80,"isFree":false,"operatingDays":"평일+토요일+공휴일","weekdayOpen":"00:00","weekdayClose":"23:59","weekendOpen":"00:00","weekendClose":"20:00","holidayOpen":"00:00","holidayClose":"23:59","feeInfo":"기본 30분 400원 / 추가 10분당 100원","phone":"031-695-0930","updatedAt":"2026-01-15","sido":"경기도","sigungu":"수원시","dong":""},{"name":"만석공원 제1","type":"공영","category":"노외","address":"경기도 수원시 장안구 송정로 9","lat":37.29757718,"lng":126.9991131,"totalSpaces":77,"isFree":false,"operatingDays":"평일+토요일+공휴일","weekdayOpen":"00:00","weekdayClose":"23:59","weekendOpen":"00:00","weekendClose":"23:59","holidayOpen":"00:00","holidayClose":"23:59","feeInfo":"기본 180분 1,000원 / 추가 180분당 1,000원","phone":"031-695-0930","updatedAt":"2026-01-15","sido":"경기도","sigungu":"수원시","dong":""},{"name":"인계동주택","type":"공영","category":"노외","address":"경기도 수원시 팔달구 세지로 233","lat":37.27178632,"lng":127.023842,"totalSpaces":76,"isFree":false,"operatingDays":"평일+토요일+공휴일","weekdayOpen":"00:00","weekdayClose":"23:59","weekendOpen":"00:00","weekendClose":"23:59","holidayOpen":"00:00","holidayClose":"23:59","feeInfo":"기본 30분 400원 / 추가 10분당 200원","phone":"031-695-0930","updatedAt":"2026-01-15","sido":"경기도","sigungu":"수원시","dong":""},{"name":"선경도서관","type":"공영","category":"부설","address":"경기도 수원시 팔달구 신풍로23번길 68(신풍동)","lat":37.28386229,"lng":127.0104322,"totalSpaces":73,"isFree":false,"operatingDays":"평일+토요일+공휴일","weekdayOpen":"00:00","weekdayClose":"23:00","weekendOpen":"00:00","weekendClose":"23:00","holidayOpen":"00:00","holidayClose":"23:59","feeInfo":"기본 30분 600원 / 추가 10분당 300원","phone":"031-695-0930","updatedAt":"2026-01-15","sido":"경기도","sigungu":"수원시","dong":""},{"name":"파장동맛고을거리","type":"공영","category":"노외","address":"경기도 수원시 장안구 파장동 338-18","lat":37.3146687601,"lng":127.0007371587,"totalSpaces":70,"isFree":false,"operatingDays":"평일+토요일+공휴일","weekdayOpen":"00:00","weekdayClose":"23:59","weekendOpen":"00:00","weekendClose":"23:59","holidayOpen":"00:00","holidayClose":"23:59","feeInfo":"기본 30분 600원 / 추가 10분당 300원","phone":"031-695-0930","updatedAt":"2026-01-15","sido":"경기도","sigungu":"수원시","dong":""},{"name":"구운공원공영","type":"공영","category":"노외","address":"경기도 수원시 권선구 구운로14번길 42","lat":37.2787033,"lng":126.9758424,"totalSpaces":69,"isFree":false,"operatingDays":"평일+토요일+공휴일","weekdayOpen":"00:00","weekdayClose":"23:59","weekendOpen":"00:00","weekendClose":"23:59","holidayOpen":"00:00","holidayClose":"23:59","feeInfo":"기본 30분 600원 / 추가 10분당 300원","phone":"031-695-0930","updatedAt":"2026-01-15","sido":"경기도","sigungu":"수원시","dong":""},{"name":"카페거리1공영","type":"공영","category":"노외","address":"경기도 수원시 영통구 이의동 1307-3","lat":37.2940626616,"lng":127.0517297227,"totalSpaces":66,"isFree":false,"operatingDays":"평일+토요일+공휴일","weekdayOpen":"00:00","weekdayClose":"23:59","weekendOpen":"00:00","weekendClose":"23:59","holidayOpen":"00:00","holidayClose":"23:59","feeInfo":"기본 30분 600원 / 추가 10분당 300원","phone":"031-695-0930","updatedAt":"2026-01-15","sido":"경기도","sigungu":"수원시","dong":""},{"name":"권선지하공영","type":"공영","category":"노외","address":"경기도 수원시 권선구 세지로82번길 15-3","lat":37.25910245,"lng":127.0188254,"totalSpaces":66,"isFree":false,"operatingDays":"평일+토요일+공휴일","weekdayOpen":"00:00","weekdayClose":"23:59","weekendOpen":"00:00","weekendClose":"23:59","holidayOpen":"00:00","holidayClose":"23:59","feeInfo":"기본 30분 400원 / 추가 10분당 200원","phone":"031-695-0930","updatedAt":"2026-01-15","sido":"경기도","sigungu":"수원시","dong":""},{"name":"인계공영","type":"공영","category":"노외","address":"경기도 수원시 팔달구 장다리로 306번길 24","lat":37.27438661,"lng":127.0305873,"totalSpaces":64,"isFree":false,"operatingDays":"평일+토요일+공휴일","weekdayOpen":"00:00","weekdayClose":"23:59","weekendOpen":"00:00","weekendClose":"23:59","holidayOpen":"00:00","holidayClose":"23:59","feeInfo":"기본 30분 600원 / 추가 10분당 300원","phone":"031-695-0930","updatedAt":"2026-01-15","sido":"경기도","sigungu":"수원시","dong":""},{"name":"남수동","type":"공영","category":"노외","address":"경기도 수원시 팔달구 창룡대로26번길 19","lat":37.2809334,"lng":127.0194508,"totalSpaces":60,"isFree":false,"operatingDays":"평일+토요일+공휴일","weekdayOpen":"00:00","weekdayClose":"20:00","weekendOpen":"00:00","weekendClose":"20:00","holidayOpen":"00:00","holidayClose":"23:59","feeInfo":"기본 30분 400원 / 추가 10분당 200원","phone":"031-244-0020","updatedAt":"2026-01-15","sido":"경기도","sigungu":"수원시","dong":""},{"name":"신동공영","type":"공영","category":"노외","address":"경기도 수원시 영통구 신동 931-5","lat":37.2482419536,"lng":127.0446642623,"totalSpaces":60,"isFree":false,"operatingDays":"평일+토요일+공휴일","weekdayOpen":"00:00","weekdayClose":"23:59","weekendOpen":"00:00","weekendClose":"23:59","holidayOpen":"00:00","holidayClose":"23:59","feeInfo":"기본 30분 400원 / 추가 10분당 200원","phone":"031-695-0930","updatedAt":"2026-01-15","sido":"경기도","sigungu":"수원시","dong":""},{"name":"만석공원 제2","type":"공영","category":"노외","address":"경기도 수원시 장안구 송정로 9","lat":37.29757718,"lng":126.9991131,"totalSpaces":60,"isFree":false,"operatingDays":"평일+토요일+공휴일","weekdayOpen":"00:00","weekdayClose":"23:59","weekendOpen":"00:00","weekendClose":"23:59","holidayOpen":"00:00","holidayClose":"23:59","feeInfo":"기본 180분 1,000원 / 추가 180분당 1,000원","phone":"031-695-0930","updatedAt":"2026-01-15","sido":"경기도","sigungu":"수원시","dong":""},{"name":"백설공영","type":"공영","category":"노외","address":"경기도 수원시 장안구 정자천로133번길 26","lat":37.29513422,"lng":126.9911147,"totalSpaces":57,"isFree":false,"operatingDays":"평일+토요일+공휴일","weekdayOpen":"00:00","weekdayClose":"23:59","weekendOpen":"00:00","weekendClose":"23:59","holidayOpen":"00:00","holidayClose":"23:59","feeInfo":"기본 30분 600원 / 추가 10분당 300원","phone":"031-695-0930","updatedAt":"2026-01-15","sido":"경기도","sigungu":"수원시","dong":""},{"name":"광교홍재도서관","type":"공영","category":"부설","address":"경기도 수원시 영통구 대학로88","lat":37.3029355951,"lng":127.0474431295,"totalSpaces":52,"isFree":false,"operatingDays":"평일+토요일+공휴일","weekdayOpen":"00:00","weekdayClose":"23:59","weekendOpen":"00:00","weekendClose":"23:00","holidayOpen":"00:00","holidayClose":"23:59","feeInfo":"기본 30분 600원 / 추가 10분당 300원","phone":"031-695-0930","updatedAt":"2026-01-15","sido":"경기도","sigungu":"수원시","dong":""},{"name":"광교 대학로 공영","type":"공영","category":"노외","address":"경기도 수원시 영통구 원천동 577","lat":37.277697173,"lng":127.0502133837,"totalSpaces":51,"isFree":false,"operatingDays":"평일+토요일+공휴일","weekdayOpen":"00:00","weekdayClose":"23:59","weekendOpen":"00:00","weekendClose":"23:59","holidayOpen":"00:00","holidayClose":"23:59","feeInfo":"기본 30분 600원 / 추가 10분당 300원","phone":"031-695-0930","updatedAt":"2026-01-15","sido":"경기도","sigungu":"수원시","dong":""},{"name":"터미널공영","type":"공영","category":"노외","address":"경기도 수원시 권선구 경수대로 270","lat":37.25018811,"lng":127.0207006,"totalSpaces":51,"isFree":false,"operatingDays":"평일+토요일+공휴일","weekdayOpen":"00:00","weekdayClose":"23:59","weekendOpen":"00:00","weekendClose":"23:59","holidayOpen":"00:00","holidayClose":"23:59","feeInfo":"기본 30분 600원 / 추가 10분당 300원","phone":"031-695-0930","updatedAt":"2026-01-15","sido":"경기도","sigungu":"수원시","dong":""},{"name":"만석공원 제3","type":"공영","category":"노외","address":"경기도 수원시 장안구 송정로 9","lat":37.29757718,"lng":126.9991131,"totalSpaces":50,"isFree":false,"operatingDays":"평일+토요일+공휴일","weekdayOpen":"00:00","weekdayClose":"23:59","weekendOpen":"00:00","weekendClose":"23:59","holidayOpen":"00:00","holidayClose":"23:59","feeInfo":"기본 180분 1,000원 / 추가 180분당 1,000원","phone":"031-695-0930","updatedAt":"2026-01-15","sido":"경기도","sigungu":"수원시","dong":""},{"name":"광교 중앙마을 공영","type":"공영","category":"노외","address":"경기도 수원시 영통구 이의동 1274","lat":37.2984455634,"lng":127.0435348018,"totalSpaces":45,"isFree":false,"operatingDays":"평일+토요일+공휴일","weekdayOpen":"00:00","weekdayClose":"23:59","weekendOpen":"00:00","weekendClose":"23:59","holidayOpen":"00:00","holidayClose":"23:59","feeInfo":"기본 30분 600원 / 추가 10분당 300원","phone":"031-695-0930","updatedAt":"2026-01-15","sido":"경기도","sigungu":"수원시","dong":""},{"name":"만석공원 제4","type":"공영","category":"노외","address":"경기도 수원시 장안구 송정로 9","lat":37.29757718,"lng":126.9991131,"totalSpaces":43,"isFree":false,"operatingDays":"평일+토요일+공휴일","weekdayOpen":"00:00","weekdayClose":"23:59","weekendOpen":"00:00","weekendClose":"23:59","holidayOpen":"00:00","holidayClose":"23:59","feeInfo":"기본 180분 1,000원 / 추가 180분당 1,000원","phone":"031-695-0930","updatedAt":"2026-01-15","sido":"경기도","sigungu":"수원시","dong":""},{"name":"광교 1동 공영","type":"공영","category":"노외","address":"경기도 수원시 영통구 이의동 1260-6","lat":37.299177397,"lng":127.0442300382,"totalSpaces":35,"isFree":false,"operatingDays":"평일+토요일+공휴일","weekdayOpen":"00:00","weekdayClose":"23:59","weekendOpen":"00:00","weekendClose":"23:59","holidayOpen":"00:00","holidayClose":"23:59","feeInfo":"기본 30분 600원 / 추가 10분당 300원","phone":"031-695-0930","updatedAt":"2026-01-15","sido":"경기도","sigungu":"수원시","dong":""}]}