{"sido":"경기도","sigungu":"안산시","totalCount":129,"validCount":129,"items":[{"name":"대부도노외주차장(1)","type":"공영","category":"노외","address":"경기도 안산시 단원구 대부북동1841-10","lat":37.28627433,"lng":126.5745536,"totalSpaces":268,"isFree":true,"operatingDays":"평일+토요일+공휴일","weekdayOpen":"00:00","weekdayClose":"23:59","weekendOpen":"00:00","weekendClose":"23:59","holidayOpen":"00:00","holidayClose":"23:59","feeInfo":"무료","phone":"031-481-6316","updatedAt":"2025-07-11","sido":"경기도","sigungu":"안산시","dong":""},{"name":"사동 126호","type":"공영","category":"노외","address":"경기도 안산시 상록구 사동 1502-2","lat":37.27830804,"lng":126.8465912,"totalSpaces":206,"isFree":true,"operatingDays":"평일+토요일+공휴일","weekdayOpen":"00:00","weekdayClose":"23:59","weekendOpen":"00:00","weekendClose":"23:59","holidayOpen":"00:00","holidayClose":"23:59","feeInfo":"무료","phone":"031-481-5294","updatedAt":"2025-07-11","sido":"경기도","sigungu":"안산시","dong":""},{"name":"원곡동 노외주차장 45호","type":"공영","category":"노외","address":"경기도 안산시 단원구 원곡동 990-1","lat":37.33901748,"lng":126.7918429,"totalSpaces":191,"isFree":true,"operatingDays":"평일+토요일+공휴일","weekdayOpen":"00:00","weekdayClose":"23:59","weekendOpen":"00:00","weekendClose":"23:59","holidayOpen":"00:00","holidayClose":"23:59","feeInfo":"무료","phone":"031-481-6316","updatedAt":"2025-07-11","sido":"경기도","sigungu":"안산시","dong":""},{"name":"163호 주차장","type":"공영","category":"노외","address":"경기도 안산시 단원구 초지동 643","lat":37.3069709,"lng":126.7940914,"totalSpaces":186,"isFree":true,"operatingDays":"평일+토요일+공휴일","weekdayOpen":"00:00","weekdayClose":"23:59","weekendOpen":"00:00","weekendClose":"23:59","holidayOpen":"00:00","holidayClose":"23:59","feeInfo":"무료","phone":"031-481-6316","updatedAt":"2025-07-11","sido":"경기도","sigungu":"안산시","dong":""},{"name":"월피동 29호","type":"공영","category":"노외","address":"경기도 안산시 상록구 월피동 483-10","lat":37.338576,"lng":126.850056,"totalSpaces":182,"isFree":true,"operatingDays":"평일+토요일+공휴일","weekdayOpen":"00:00","weekdayClose":"23:59","weekendOpen":"00:00","weekendClose":"23:59","holidayOpen":"00:00","holidayClose":"23:59","feeInfo":"무료","phone":"031-481-5294","updatedAt":"2025-07-11","sido":"경기도","sigungu":"안산시","dong":""},{"name":"대부도노외주차장(2)","type":"공영","category":"노외","address":"경기도 안산시 단원구 대부북동1849-6","lat":37.28378843,"lng":126.570597,"totalSpaces":169,"isFree":true,"operatingDays":"평일+토요일+공휴일","weekdayOpen":"00:00","weekdayClose":"23:59","weekendOpen":"00:00","weekendClose":"23:59","holidayOpen":"00:00","holidayClose":"23:59","feeInfo":"무료","phone":"031-481-6316","updatedAt":"2025-07-11","sido":"경기도","sigungu":"안산시","dong":""},{"name":"대부북동 공영주차장 111호","type":"공영","category":"노외","address":"경기도 안산시 단원구 대부북동 1959","lat":37.27216114,"lng":126.566569,"totalSpaces":165,"isFree":true,"operatingDays":"평일+토요일+공휴일","weekdayOpen":"00:00","weekdayClose":"23:59","weekendOpen":"00:00","weekendClose":"23:59","holidayOpen":"00:00","holidayClose":"23:59","feeInfo":"무료","phone":"031-481-6316","updatedAt":"2025-07-11","sido":"경기도","sigungu":"안산시","dong":""},{"name":"안산스마트허브 원시동 노외주차장","type":"공영","category":"노외","address":"경기도 안산시 단원구 원시동 782-16(~ 초지동 647-2)","lat":37.30195767,"lng":126.7916945,"totalSpaces":158,"isFree":true,"operatingDays":"평일+토요일+공휴일","weekdayOpen":"00:00","weekdayClose":"23:59","weekendOpen":"00:00","weekendClose":"23:59","holidayOpen":"00:00","holidayClose":"23:59","feeInfo":"무료","phone":"031-481-6316","updatedAt":"2025-07-11","sido":"경기도","sigungu":"안산시","dong":""},{"name":"와동30호 노외주차장","type":"공영","category":"노외","address":"경기도 안산시 단원구 와동 320-9","lat":37.34808792,"lng":126.8242665,"totalSpaces":141,"isFree":true,"operatingDays":"평일+토요일+공휴일","weekdayOpen":"00:00","weekdayClose":"23:59","weekendOpen":"00:00","weekendClose":"23:59","holidayOpen":"00:00","holidayClose":"23:59","feeInfo":"무료","phone":"031-481-6316","updatedAt":"2025-07-11","sido":"경기도","sigungu":"안산시","dong":""},{"name":"사동 177호 노외주차장","type":"공영","category":"노외","address":"경기도 안산시 상록구 사사동 151-6","lat":37.2963837224,"lng":126.9321510211,"totalSpaces":140,"isFree":true,"operatingDays":"평일+토요일+공휴일","weekdayOpen":"00:00","weekdayClose":"23:59","weekendOpen":"00:00","weekendClose":"23:59","holidayOpen":"00:00","holidayClose":"23:59","feeInfo":"무료","phone":"031-481-5296","updatedAt":"2025-07-11","sido":"경기도","sigungu":"안산시","dong":""},{"name":"대부도 노외주차장(152호)","type":"공영","category":"노외","address":"경기도 안산시 단원구 대부북동 1870-201","lat":37.278844,"lng":126.551843,"totalSpaces":132,"isFree":true,"operatingDays":"평일+토요일+공휴일","weekdayOpen":"00:00","weekdayClose":"23:59","weekendOpen":"00:00","weekendClose":"23:59","holidayOpen":"00:00","holidayClose":"23:59","feeInfo":"무료","phone":"031-481-6316","updatedAt":"2025-07-11","sido":"경기도","sigungu":"안산시","dong":""},{"name":"165호 주차장","type":"공영","category":"노외","address":"경기도 안산시 단원구 원시동 422-1","lat":37.31400327,"lng":126.8007524,"totalSpaces":125,"isFree":true,"operatingDays":"평일+토요일+공휴일","weekdayOpen":"00:00","weekdayClose":"23:59","weekendOpen":"00:00","weekendClose":"23:59","holidayOpen":"00:00","holidayClose":"23:59","feeInfo":"무료","phone":"031-481-6316","updatedAt":"2025-07-11","sido":"경기도","sigungu":"안산시","dong":""},{"name":"138호 주차장","type":"공영","category":"노외","address":"경기도 안산시 단원구 고잔동 654-20","lat":37.329157,"lng":126.820023,"totalSpaces":115,"isFree":true,"operatingDays":"평일+토요일+공휴일","weekdayOpen":"00:00","weekdayClose":"23:59","weekendOpen":"00:00","weekendClose":"23:59","holidayOpen":"00:00","holidayClose":"23:59","feeInfo":"무료","phone":"031-481-6316","updatedAt":"2025-07-11","sido":"경기도","sigungu":"안산시","dong":""},{"name":"사동 47호","type":"공영","category":"노외","address":"경기도 안산시 상록구 사동 1466-16","lat":37.29850057,"lng":126.849499,"totalSpaces":112,"isFree":true,"operatingDays":"평일+토요일+공휴일","weekdayOpen":"00:00","weekdayClose":"23:59","weekendOpen":"00:00","weekendClose":"23:59","holidayOpen":"00:00","holidayClose":"23:59","feeInfo":"무료","phone":"031-481-5294","updatedAt":"2025-07-11","sido":"경기도","sigungu":"안산시","dong":""},{"name":"팔곡이동 128호","type":"공영","category":"노외","address":"경기도 안산시 상록구 팔곡이동 508-4","lat":37.29500596,"lng":126.877704,"totalSpaces":112,"isFree":true,"operatingDays":"평일+토요일+공휴일","weekdayOpen":"00:00","weekdayClose":"23:59","weekendOpen":"00:00","weekendClose":"23:59","holidayOpen":"00:00","holidayClose":"23:59","feeInfo":"무료","phone":"031-481-5294","updatedAt":"2025-07-11","sido":"경기도","sigungu":"안산시","dong":""},{"name":"팔곡이동 129호","type":"공영","category":"노외","address":"경기도 안산시 상록구 팔곡이동 608","lat":37.29707857,"lng":126.874877,"totalSpaces":110,"isFree":true,"operatingDays":"평일+토요일+공휴일","weekdayOpen":"00:00","weekdayClose":"23:59","weekendOpen":"00:00","weekendClose":"23:59","holidayOpen":"00:00","holidayClose":"23:59","feeInfo":"무료","phone":"031-481-5294","updatedAt":"2025-07-11","sido":"경기도","sigungu":"안산시","dong":""},{"name":"선부동26호노외주차장","type":"공영","category":"노외","address":"경기도 안산시 단원구 선부동 703-2","lat":37.3439782,"lng":126.803539,"totalSpaces":108,"isFree":true,"operatingDays":"평일+토요일+공휴일","weekdayOpen":"00:00","weekdayClose":"23:59","weekendOpen":"00:00","weekendClose":"23:59","holidayOpen":"00:00","holidayClose":"23:59","feeInfo":"무료","phone":"031-481-6316","updatedAt":"2025-07-11","sido":"경기도","sigungu":"안산시","dong":""},{"name":"선부3동 146호 주차장","type":"공영","category":"노외","address":"경기도 안산시 단원구 선부동 1133-15","lat":37.345151,"lng":126.812205,"totalSpaces":107,"isFree":true,"operatingDays":"평일+토요일+공휴일","weekdayOpen":"00:00","weekdayClose":"23:59","weekendOpen":"00:00","weekendClose":"23:59","holidayOpen":"00:00","holidayClose":"23:59","feeInfo":"무료","phone":"031-481-6316","updatedAt":"2025-07-11","sido":"경기도","sigungu":"안산시","dong":""},{"name":"166호 주차장","type":"공영","category":"노외","address":"경기도 안산시 단원구 초지동 641","lat":37.30714314,"lng":126.8012261,"totalSpaces":106,"isFree":true,"operatingDays":"평일+토요일+공휴일","weekdayOpen":"00:00","weekdayClose":"23:59","weekendOpen":"00:00","weekendClose":"23:59","holidayOpen":"00:00","holidayClose":"23:59","feeInfo":"무료","phone":"031-481-6316","updatedAt":"2025-07-11","sido":"경기도","sigungu":"안산시","dong":""},{"name":"사동 124호 노외주차장","type":"공영","category":"노외","address":"경기도 안산시 상록구 사동 854-2","lat":37.285429,"lng":126.848141,"totalSpaces":104,"isFree":true,"operatingDays":"평일+토요일+공휴일","weekdayOpen":"00:00","weekdayClose":"23:59","weekendOpen":"00:00","weekendClose":"23:59","holidayOpen":"00:00","holidayClose":"23:59","feeInfo":"무료","phone":"031-481-5294","updatedAt":"2025-07-11","sido":"경기도","sigungu":"안산시","dong":""},{"name":"사동 34호","type":"공영","category":"노외","address":"경기도 안산시 상록구 사동 526-2","lat":37.30119208,"lng":126.850463,"totalSpaces":94,"isFree":true,"operatingDays":"평일+토요일+공휴일","weekdayOpen":"00:00","weekdayClose":"23:59","weekendOpen":"00:00","weekendClose":"23:59","holidayOpen":"00:00","holidayClose":"23:59","feeInfo":"무료","phone":"031-481-5294","updatedAt":"2025-07-11","sido":"경기도","sigungu":"안산시","dong":""},{"name":"본오동 116호","type":"공영","category":"노외","address":"경기도 안산시 상록구 본오동 876-8","lat":37.304233,"lng":126.8601901,"totalSpaces":91,"isFree":true,"operatingDays":"평일+토요일+공휴일","weekdayOpen":"00:00","weekdayClose":"23:59","weekendOpen":"00:00","weekendClose":"23:59","holidayOpen":"00:00","holidayClose":"23:59","feeInfo":"무료","phone":"031-481-5294","updatedAt":"2025-07-11","sido":"경기도","sigungu":"안산시","dong":""},{"name":"와동주민센타주차장(31호)","type":"공영","category":"노외","address":"경기도 안산시 단원구 와동 94","lat":37.341571,"lng":126.826163,"totalSpaces":88,"isFree":true,"operatingDays":"평일+토요일+공휴일","weekdayOpen":"00:00","weekdayClose":"23:59","weekendOpen":"00:00","weekendClose":"23:59","holidayOpen":"00:00","holidayClose":"23:59","feeInfo":"무료","phone":"031-481-6316","updatedAt":"2025-07-11","sido":"경기도","sigungu":"안산시","dong":""},{"name":"와동 노외주자장(137호)","type":"공영","category":"노외","address":"경기도 안산시 단원구 와동 515-4","lat":37.334117,"lng":126.8256552,"totalSpaces":82,"isFree":true,"operatingDays":"평일+토요일+공휴일","weekdayOpen":"00:00","weekdayClose":"23:59","weekendOpen":"00:00","weekendClose":"23:59","holidayOpen":"00:00","holidayClose":"23:59","feeInfo":"무료","phone":"031-481-6316","updatedAt":"2025-07-11","sido":"경기도","sigungu":"안산시","dong":""},{"name":"선부동28호노외주차장","type":"공영","category":"노외","address":"경기도 안산시 단원구 선부동 산 151-12","lat":37.336561,"lng":126.8028577,"totalSpaces":81,"isFree":true,"operatingDays":"평일+토요일+공휴일","weekdayOpen":"00:00","weekdayClose":"23:59","weekendOpen":"00:00","weekendClose":"23:59","holidayOpen":"00:00","holidayClose":"23:59","feeInfo":"무료","phone":"031-481-6316","updatedAt":"2025-07-11","sido":"경기도","sigungu":"안산시","dong":""},{"name":"본오동 109호","type":"공영","category":"노외","address":"경기도 안산시 상록구 본오동 1147-2","lat":37.302031,"lng":126.8746944,"totalSpaces":77,"isFree":true,"operatingDays":"평일+토요일+공휴일","weekdayOpen":"00:00","weekdayClose":"23:59","weekendOpen":"00:00","weekendClose":"23:59","holidayOpen":"00:00","holidayClose":"23:59","feeInfo":"무료","phone":"031-481-5294","updatedAt":"2025-07-11","sido":"경기도","sigungu":"안산시","dong":""},{"name":"선부2동 140호 주차장","type":"공영","category":"노외","address":"경기도 안산시 단원구 선부동 677-6","lat":37.346759,"lng":126.807625,"totalSpaces":77,"isFree":true,"operatingDays":"평일+토요일+공휴일","weekdayOpen":"00:00","weekdayClose":"23:59","weekendOpen":"00:00","weekendClose":"23:59","holidayOpen":"00:00","holidayClose":"23:59","feeInfo":"무료","phone":"031-481-6316","updatedAt":"2025-07-11","sido":"경기도","sigungu":"안산시","dong":""},{"name":"선부2동 145호 주차장","type":"공영","category":"노외","address":"경기도 안산시 단원구 선부동 75-4","lat":37.342662,"lng":126.800622,"totalSpaces":69,"isFree":true,"operatingDays":"평일+토요일+공휴일","weekdayOpen":"00:00","weekdayClose":"23:59","weekendOpen":"00:00","weekendClose":"23:59","holidayOpen":"00:00","holidayClose":"23:59","feeInfo":"무료","phone":"031-481-6316","updatedAt":"2025-07-11","sido":"경기도","sigungu":"안산시","dong":""},{"name":"본오동 147호 노외주차장","type":"공영","category":"노외","address":"경기도 안산시 상록구 상록수안길 45","lat":37.301843,"lng":126.872135,"totalSpaces":65,"isFree":true,"operatingDays":"평일+토요일+공휴일","weekdayOpen":"00:00","weekdayClose":"23:59","weekendOpen":"00:00","weekendClose":"23:59","holidayOpen":"00:00","holidayClose":"23:59","feeInfo":"무료","phone":"031-481-5294","updatedAt":"2025-07-11","sido":"경기도","sigungu":"안산시","dong":""},{"name":"와동 135호 주차장","type":"공영","category":"노외","address":"경기도 안산시 단원구 와동 227","lat":37.336092,"lng":126.828465,"totalSpaces":64,"isFree":true,"operatingDays":"평일+토요일+공휴일","weekdayOpen":"00:00","weekdayClose":"23:59","weekendOpen":"00:00","weekendClose":"23:59","holidayOpen":"00:00","holidayClose":"23:59","feeInfo":"무료","phone":"031-481-6316","updatedAt":"2025-07-11","sido":"경기도","sigungu":"안산시","dong":""},{"name":"선부동 52호 노외주차장","type":"공영","category":"노외","address":"경기도 안산시 단원구 선부동 1121-14","lat":37.346958,"lng":126.812313,"totalSpaces":64,"isFree":true,"operatingDays":"평일+토요일+공휴일","weekdayOpen":"00:00","weekdayClose":"23:59","weekendOpen":"00:00","weekendClose":"23:59","holidayOpen":"00:00","holidayClose":"23:59","feeInfo":"무료","phone":"031-481-6316","updatedAt":"2025-07-11","sido":"경기도","sigungu":"안산시","dong":""},{"name":"선부동 141호 노외주차장","type":"공영","category":"노외","address":"경기도 안산시 단원구 석수동길 32-1","lat":37.344695,"lng":126.807856,"totalSpaces":61,"isFree":true,"operatingDays":"평일+토요일+공휴일","weekdayOpen":"00:00","weekdayClose":"23:59","weekendOpen":"00:00","weekendClose":"23:59","holidayOpen":"00:00","holidayClose":"23:59","feeInfo":"무료","phone":"031-481-6316","updatedAt":"2025-07-11","sido":"경기도","sigungu":"안산시","dong":""},{"name":"선부동 노외주차장(141호)","type":"공영","category":"노외","address":"경기도 안산시 단원구 석수동길 34","lat":37.344813,"lng":126.807715,"totalSpaces":61,"isFree":true,"operatingDays":"평일+토요일+공휴일","weekdayOpen":"00:00","weekdayClose":"23:59","weekendOpen":"00:00","weekendClose":"23:59","holidayOpen":"00:00","holidayClose":"23:59","feeInfo":"무료","phone":"031-481-6316","updatedAt":"2025-07-11","sido":"경기도","sigungu":"안산시","dong":""},{"name":"대부북동 51호 노외주차장","type":"공영","category":"노외","address":"경기도 안산시 단원구 대부북동 429-3","lat":37.2401345,"lng":126.5829601,"totalSpaces":58,"isFree":true,"operatingDays":"평일+토요일+공휴일","weekdayOpen":"00:00","weekdayClose":"23:59","weekendOpen":"00:00","weekendClose":"23:59","holidayOpen":"00:00","holidayClose":"23:59","feeInfo":"무료","phone":"031-481-6316","updatedAt":"2025-07-11","sido":"경기도","sigungu":"안산시","dong":""},{"name":"와동 54호 주차장","type":"공영","category":"노외","address":"경기도 안산시 단원구 와동 607-1","lat":37.331348,"lng":126.822763,"totalSpaces":55,"isFree":true,"operatingDays":"평일+토요일+공휴일","weekdayOpen":"00:00","weekdayClose":"23:59","weekendOpen":"00:00","weekendClose":"23:59","holidayOpen":"00:00","holidayClose":"23:59","feeInfo":"무료","phone":"031-481-6316","updatedAt":"2025-07-11","sido":"경기도","sigungu":"안산시","dong":""},{"name":"고잔2동노외주차장","type":"공영","category":"노외","address":"경기도 안산시 단원구 고잔동 44-1","lat":37.330654,"lng":126.8404675,"totalSpaces":55,"isFree":true,"operatingDays":"평일+토요일+공휴일","weekdayOpen":"00:00","weekdayClose":"23:59","weekendOpen":"00:00","weekendClose":"23:59","holidayOpen":"00:00","holidayClose":"23:59","feeInfo":"무료","phone":"031-481-6316","updatedAt":"2025-07-11","sido":"경기도","sigungu":"안산시","dong":""},{"name":"사동125호 노외주차장","type":"공영","category":"노외","address":"경기도 안산시 상록구 사동 1502-6","lat":37.2811932608,"lng":126.8432907277,"totalSpaces":54,"isFree":true,"operatingDays":"평일+토요일+공휴일","weekdayOpen":"00:00","weekdayClose":"23:59","weekendOpen":"00:00","weekendClose":"23:59","holidayOpen":"00:00","holidayClose":"23:59","feeInfo":"무료","phone":"031-481-5294","updatedAt":"2025-07-11","sido":"경기도","sigungu":"안산시","dong":""},{"name":"143호 주차장","type":"공영","category":"노외","address":"경기도 안산시 단원구 선부동 989-10","lat":37.340441,"lng":126.795748,"totalSpaces":54,"isFree":true,"operatingDays":"평일+토요일+공휴일","weekdayOpen":"00:00","weekdayClose":"23:59","weekendOpen":"00:00","weekendClose":"23:59","holidayOpen":"00:00","holidayClose":"23:59","feeInfo":"무료","phone":"031-481-6316","updatedAt":"2025-07-11","sido":"경기도","sigungu":"안산시","dong":""},{"name":"사동 127호","type":"공영","category":"노외","address":"경기도 안산시 상록구 사동 1502","lat":37.27871987,"lng":126.8522336,"totalSpaces":52,"isFree":true,"operatingDays":"평일+토요일+공휴일","weekdayOpen":"00:00","weekdayClose":"23:59","weekendOpen":"00:00","weekendClose":"23:59","holidayOpen":"00:00","holidayClose":"23:59","feeInfo":"무료","phone":"031-481-5294","updatedAt":"2025-07-11","sido":"경기도","sigungu":"안산시","dong":""},{"name":"부곡동 100호","type":"공영","category":"노외","address":"경기도 안산시 상록구 부곡동 537","lat":37.332897,"lng":126.8648055,"totalSpaces":50,"isFree":true,"operatingDays":"평일+토요일+공휴일","weekdayOpen":"00:00","weekdayClose":"23:59","weekendOpen":"00:00","weekendClose":"23:59","holidayOpen":"00:00","holidayClose":"23:59","feeInfo":"무료","phone":"031-481-5294","updatedAt":"2025-07-11","sido":"경기도","sigungu":"안산시","dong":""},{"name":"선부동 노외주차장 46호","type":"공영","category":"노외","address":"경기도 안산시 단원구 선부동 991-21","lat":37.34019739,"lng":126.79298,"totalSpaces":47,"isFree":true,"operatingDays":"평일+토요일+공휴일","weekdayOpen":"00:00","weekdayClose":"23:59","weekendOpen":"00:00","weekendClose":"23:59","holidayOpen":"00:00","holidayClose":"23:59","feeInfo":"무료","phone":"031-481-6316","updatedAt":"2025-07-11","sido":"경기도","sigungu":"안산시","dong":""},{"name":"사동 117호","type":"공영","category":"노외","address":"경기도 안산시 상록구 사동 1466-28","lat":37.29513341,"lng":126.8553335,"totalSpaces":42,"isFree":true,"operatingDays":"평일+토요일+공휴일","weekdayOpen":"00:00","weekdayClose":"23:59","weekendOpen":"00:00","weekendClose":"23:59","holidayOpen":"00:00","holidayClose":"23:59","feeInfo":"무료","phone":"031-481-5294","updatedAt":"2025-07-11","sido":"경기도","sigungu":"안산시","dong":""},{"name":"일동 112호","type":"공영","category":"노외","address":"경기도 안산시 상록구 일동 632-7","lat":37.309739,"lng":126.8685198,"totalSpaces":42,"isFree":true,"operatingDays":"평일+토요일+공휴일","weekdayOpen":"00:00","weekdayClose":"23:59","weekendOpen":"00:00","weekendClose":"23:59","holidayOpen":"00:00","holidayClose":"23:59","feeInfo":"무료","phone":"031-481-5294","updatedAt":"2025-07-11","sido":"경기도","sigungu":"안산시","dong":""},{"name":"이동 115호","type":"공영","category":"노외","address":"경기도 안산시 상록구 이동 190-7","lat":37.312607,"lng":126.856255,"totalSpaces":41,"isFree":true,"operatingDays":"평일+토요일+공휴일","weekdayOpen":"00:00","weekdayClose":"23:59","weekendOpen":"00:00","weekendClose":"23:59","holidayOpen":"00:00","holidayClose":"23:59","feeInfo":"무료","phone":"031-481-5294","updatedAt":"2025-07-11","sido":"경기도","sigungu":"안산시","dong":""},{"name":"팔곡동 48호","type":"공영","category":"노외","address":"경기도 안산시 상록구 팔곡이동 607","lat":37.29703605,"lng":126.8771164,"totalSpaces":40,"isFree":true,"operatingDays":"평일+토요일+공휴일","weekdayOpen":"00:00","weekdayClose":"23:59","weekendOpen":"00:00","weekendClose":"23:59","holidayOpen":"00:00","holidayClose":"23:59","feeInfo":"무료","phone":"031-481-5294","updatedAt":"2025-07-11","sido":"경기도","sigungu":"안산시","dong":""},{"name":"본오3동56호 노외주차장","type":"공영","category":"노외","address":"경기도 안산시 상록구 본오동 1079-1","lat":37.30045583,"lng":126.876885,"totalSpaces":40,"isFree":true,"operatingDays":"평일+토요일+공휴일","weekdayOpen":"00:00","weekdayClose":"23:59","weekendOpen":"00:00","weekendClose":"23:59","holidayOpen":"00:00","holidayClose":"23:59","feeInfo":"무료","phone":"031-481-5294","updatedAt":"2025-07-11","sido":"경기도","sigungu":"안산시","dong":""},{"name":"사동 119호 노외주차장","type":"공영","category":"노외","address":"경기도 안산시 상록구 사동 1466-32","lat":37.296119336,"lng":126.8535515002,"totalSpaces":38,"isFree":true,"operatingDays":"평일+토요일+공휴일","weekdayOpen":"00:00","weekdayClose":"23:59","weekendOpen":"00:00","weekendClose":"23:59","holidayOpen":"00:00","holidayClose":"23:59","feeInfo":"무료","phone":"031-481-5294","updatedAt":"2025-07-11","sido":"경기도","sigungu":"안산시","dong":""},{"name":"월피동 131호 노외주차장","type":"공영","category":"노외","address":"경기도 안산시 상록구 월피동 255-4","lat":37.3380119518,"lng":126.843393807,"totalSpaces":37,"isFree":true,"operatingDays":"평일+토요일+공휴일","weekdayOpen":"00:00","weekdayClose":"23:59","weekendOpen":"00:00","weekendClose":"23:59","holidayOpen":"00:00","holidayClose":"23:59","feeInfo":"무료","phone":"031-481-5300","updatedAt":"2025-07-11","sido":"경기도","sigungu":"안산시","dong":""},{"name":"선부동 144호 노외주차장","type":"공영","category":"노외","address":"경기도 안산시 단원구 선부동 17-3","lat":37.3386323,"lng":126.7965367,"totalSpaces":35,"isFree":true,"operatingDays":"평일+토요일+공휴일","weekdayOpen":"00:00","weekdayClose":"23:59","weekendOpen":"00:00","weekendClose":"23:59","holidayOpen":"00:00","holidayClose":"23:59","feeInfo":"무료","phone":"031-481-6316","updatedAt":"2025-07-11","sido":"경기도","sigungu":"안산시","dong":""},{"name":"사동 121호","type":"공영","category":"노외","address":"경기도 안산시 상록구 사동 1466-19","lat":37.294415,"lng":126.8449144,"totalSpaces":32,"isFree":true,"operatingDays":"평일+토요일+공휴일","weekdayOpen":"00:00","weekdayClose":"23:59","weekendOpen":"00:00","weekendClose":"23:59","holidayOpen":"00:00","holidayClose":"23:59","feeInfo":"무료","phone":"031-481-5294","updatedAt":"2025-07-11","sido":"경기도","sigungu":"안산시","dong":""},{"name":"와동 136호 주차장","type":"공영","category":"노외","address":"경기도 안산시 단원구 와동 205-1","lat":37.33398851,"lng":126.8284869,"totalSpaces":32,"isFree":true,"operatingDays":"평일+토요일+공휴일","weekdayOpen":"00:00","weekdayClose":"23:59","weekendOpen":"00:00","weekendClose":"23:59","holidayOpen":"00:00","holidayClose":"23:59","feeInfo":"무료","phone":"031-481-6316","updatedAt":"2025-07-11","sido":"경기도","sigungu":"안산시","dong":""},{"name":"선부동  27호 주차장","type":"공영","category":"노외","address":"경기도 안산시 단원구 선부동 705-2","lat":37.343442,"lng":126.801875,"totalSpaces":31,"isFree":true,"operatingDays":"평일+토요일+공휴일","weekdayOpen":"00:00","weekdayClose":"23:59","weekendOpen":"00:00","weekendClose":"23:59","holidayOpen":"00:00","holidayClose":"23:59","feeInfo":"무료","phone":"031-481-6316","updatedAt":"2025-07-11","sido":"경기도","sigungu":"안산시","dong":""},{"name":"사동 120호","type":"공영","category":"노외","address":"경기도 안산시 상록구 사동 1460-8","lat":37.295061,"lng":126.842326,"totalSpaces":26,"isFree":true,"operatingDays":"평일+토요일+공휴일","weekdayOpen":"00:00","weekdayClose":"23:59","weekendOpen":"00:00","weekendClose":"23:59","holidayOpen":"00:00","holidayClose":"23:59","feeInfo":"무료","phone":"031-481-5294","updatedAt":"2025-07-11","sido":"경기도","sigungu":"안산시","dong":""},{"name":"고잔동 광신연립 주차장","type":"공영","category":"노외","address":"경기도 안산시 단원구 적금로5길10","lat":37.329578,"lng":126.828294,"totalSpaces":25,"isFree":true,"operatingDays":"평일+토요일+공휴일","weekdayOpen":"00:00","weekdayClose":"23:59","weekendOpen":"00:00","weekendClose":"23:59","holidayOpen":"00:00","holidayClose":"23:59","feeInfo":"무료","phone":"031-481-6316","updatedAt":"2025-07-11","sido":"경기도","sigungu":"안산시","dong":""},{"name":"와동노외주차장","type":"공영","category":"노외","address":"경기도 안산시 단원구 와동 780-1","lat":37.346123,"lng":126.822243,"totalSpaces":24,"isFree":true,"operatingDays":"평일+토요일+공휴일","weekdayOpen":"00:00","weekdayClose":"23:59","weekendOpen":"00:00","weekendClose":"23:59","holidayOpen":"00:00","holidayClose":"23:59","feeInfo":"무료","phone":"031-481-6316","updatedAt":"2025-07-11","sido":"경기도","sigungu":"안산시","dong":""},{"name":"사동123호 노외주차장","type":"공영","category":"노외","address":"경기도 안산시 상록구 사동 1466-9","lat":37.2937488461,"lng":126.8451621606,"totalSpaces":23,"isFree":true,"operatingDays":"평일+토요일+공휴일","weekdayOpen":"00:00","weekdayClose":"23:59","weekendOpen":"00:00","weekendClose":"23:59","holidayOpen":"00:00","holidayClose":"23:59","feeInfo":"무료","phone":"031-481-5294","updatedAt":"2025-07-11","sido":"경기도","sigungu":"안산시","dong":""},{"name":"방아머리항 노외주차장","type":"공영","category":"노외","address":"경기도 안산시 단원구 대부황금로 1567-3","lat":37.296363,"lng":126.574435,"totalSpaces":22,"isFree":true,"operatingDays":"평일+토요일+공휴일","weekdayOpen":"00:00","weekdayClose":"23:59","weekendOpen":"00:00","weekendClose":"23:59","holidayOpen":"00:00","holidayClose":"23:59","feeInfo":"무료","phone":"031-481-6316","updatedAt":"2025-07-11","sido":"경기도","sigungu":"안산시","dong":""},{"name":"선부동 노외주차장","type":"공영","category":"노외","address":"경기도 안산시 단원구 선부동 779","lat":37.337335,"lng":126.804768,"totalSpaces":20,"isFree":true,"operatingDays":"평일+토요일+공휴일","weekdayOpen":"00:00","weekdayClose":"23:59","weekendOpen":"00:00","weekendClose":"23:59","holidayOpen":"00:00","holidayClose":"23:59","feeInfo":"무료","phone":"031-481-6316","updatedAt":"2025-07-11","sido":"경기도","sigungu":"안산시","dong":""},{"name":"주택가 주차장","type":"공영","category":"노외","address":"경기도 안산시 상록구 일동 102-18","lat":37.314944,"lng":126.8721297,"totalSpaces":20,"isFree":true,"operatingDays":"평일+토요일+공휴일","weekdayOpen":"00:00","weekdayClose":"23:59","weekendOpen":"00:00","weekendClose":"23:59","holidayOpen":"00:00","holidayClose":"23:59","feeInfo":"무료","phone":"031-481-5294","updatedAt":"2025-07-11","sido":"경기도","sigungu":"안산시","dong":""},{"name":"주택가 주차장","type":"공영","category":"노외","address":"경기도 안산시 상록구 월피동 496-2","lat":37.337458,"lng":126.843874,"totalSpaces":19,"isFree":true,"operatingDays":"평일+토요일+공휴일","weekdayOpen":"00:00","weekdayClose":"23:59","weekendOpen":"00:00","weekendClose":"23:59","holidayOpen":"00:00","holidayClose":"23:59","feeInfo":"무료","phone":"031-481-5294","updatedAt":"2025-07-11","sido":"경기도","sigungu":"안산시","dong":""},{"name":"아랫버대 노외주차장(77호)","type":"공영","category":"노외","address":"경기도 안산시 상록구 양상동 227-13","lat":37.3446435388,"lng":126.8521807067,"totalSpaces":18,"isFree":true,"operatingDays":"평일+토요일+공휴일","weekdayOpen":"00:00","weekdayClose":"23:59","weekendOpen":"00:00","weekendClose":"23:59","holidayOpen":"00:00","holidayClose":"23:59","feeInfo":"무료","phone":"031-481-5299","updatedAt":"2025-07-11","sido":"경기도","sigungu":"안산시","dong":""},{"name":"선부동 주택가주차장","type":"공영","category":"노외","address":"경기도 안산시 단원구 화정천서로 6길 15","lat":37.346438,"lng":126.816451,"totalSpaces":17,"isFree":true,"operatingDays":"평일+토요일+공휴일","weekdayOpen":"00:00","weekdayClose":"23:59","weekendOpen":"00:00","weekendClose":"23:59","holidayOpen":"00:00","holidayClose":"23:59","feeInfo":"무료","phone":"031-481-6316","updatedAt":"2025-07-11","sido":"경기도","sigungu":"안산시","dong":""},{"name":"주택가 주차장","type":"공영","category":"노외","address":"경기도 안산시 상록구 사동 1379-7","lat":37.286434,"lng":126.845155,"totalSpaces":16,"isFree":true,"operatingDays":"평일+토요일+공휴일","weekdayOpen":"00:00","weekdayClose":"23:59","weekendOpen":"00:00","weekendClose":"23:59","holidayOpen":"00:00","holidayClose":"23:59","feeInfo":"무료","phone":"031-481-5294","updatedAt":"2025-07-11","sido":"경기도","sigungu":"안산시","dong":""},{"name":"주택가 자투리 주차장","type":"공영","category":"노외","address":"경기도 안산시 단원구 와동 214","lat":37.335563,"lng":126.828883,"totalSpaces":16,"isFree":true,"operatingDays":"평일+토요일+공휴일","weekdayOpen":"00:00","weekdayClose":"23:59","weekendOpen":"00:00","weekendClose":"23:59","holidayOpen":"00:00","holidayClose":"23:59","feeInfo":"무료","phone":"031-481-6316","updatedAt":"2025-07-11","sido":"경기도","sigungu":"안산시","dong":""},{"name":"고잔동 주택가주차장","type":"공영","category":"노외","address":"경기도 안산시 단원구 평화안길 24-1","lat":37.328317,"lng":126.821157,"totalSpaces":13,"isFree":true,"operatingDays":"평일+토요일+공휴일","weekdayOpen":"00:00","weekdayClose":"23:59","weekendOpen":"00:00","weekendClose":"23:59","holidayOpen":"00:00","holidayClose":"23:59","feeInfo":"무료","phone":"031-481-6316","updatedAt":"2025-07-11","sido":"경기도","sigungu":"안산시","dong":""},{"name":"윗버대 노외주차장(75호)","type":"공영","category":"노외","address":"경기도 안산시 상록구 양상동 47-16","lat":37.354716,"lng":126.8465104,"totalSpaces":12,"isFree":true,"operatingDays":"평일+토요일+공휴일","weekdayOpen":"00:00","weekdayClose":"23:59","weekendOpen":"00:00","weekendClose":"23:59","holidayOpen":"00:00","holidayClose":"23:59","feeInfo":"무료","phone":"031-481-5294","updatedAt":"2025-07-11","sido":"경기도","sigungu":"안산시","dong":""},{"name":"주택가 주차장","type":"공영","category":"노외","address":"경기도 안산시 상록구 사동 1297-9","lat":37.296923,"lng":126.849622,"totalSpaces":12,"isFree":true,"operatingDays":"평일+토요일+공휴일","weekdayOpen":"00:00","weekdayClose":"23:59","weekendOpen":"00:00","weekendClose":"23:59","holidayOpen":"00:00","holidayClose":"23:59","feeInfo":"무료","phone":"031-481-5294","updatedAt":"2025-07-11","sido":"경기도","sigungu":"안산시","dong":""},{"name":"와동 주택가주차장","type":"공영","category":"노외","address":"경기도 안산시 단원구 사세충열로 35","lat":37.337249,"lng":126.829924,"totalSpaces":12,"isFree":true,"operatingDays":"평일+토요일+공휴일","weekdayOpen":"00:00","weekdayClose":"23:59","weekendOpen":"00:00","weekendClose":"23:59","holidayOpen":"00:00","holidayClose":"23:59","feeInfo":"무료","phone":"031-481-6316","updatedAt":"2025-07-11","sido":"경기도","sigungu":"안산시","dong":""},{"name":"와동 주택가주차장","type":"공영","category":"노외","address":"경기도 안산시 단원구 화정천동로 5길 11","lat":37.345655,"lng":126.8199829,"totalSpaces":12,"isFree":true,"operatingDays":"평일+토요일+공휴일","weekdayOpen":"00:00","weekdayClose":"23:59","weekendOpen":"00:00","weekendClose":"23:59","holidayOpen":"00:00","holidayClose":"23:59","feeInfo":"무료","phone":"031-481-6316","updatedAt":"2025-07-11","sido":"경기도","sigungu":"안산시","dong":""},{"name":"와동 주택가주차장","type":"공영","category":"노외","address":"경기도 안산시 단원구 광덕오름길 29","lat":37.336024,"lng":126.831452,"totalSpaces":12,"isFree":true,"operatingDays":"평일+토요일+공휴일","weekdayOpen":"00:00","weekdayClose":"23:59","weekendOpen":"00:00","weekendClose":"23:59","holidayOpen":"00:00","holidayClose":"23:59","feeInfo":"무료","phone":"031-481-6316","updatedAt":"2025-07-11","sido":"경기도","sigungu":"안산시","dong":""},{"name":"와동 주택가주차장","type":"공영","category":"노외","address":"경기도 안산시 단원구 사세충열로1길 15","lat":37.336129,"lng":126.8295431,"totalSpaces":12,"isFree":true,"operatingDays":"평일+토요일+공휴일","weekdayOpen":"00:00","weekdayClose":"23:59","weekendOpen":"00:00","weekendClose":"23:59","holidayOpen":"00:00","holidayClose":"23:59","feeInfo":"무료","phone":"031-481-6316","updatedAt":"2025-07-11","sido":"경기도","sigungu":"안산시","dong":""},{"name":"와동 주택가주차장","type":"공영","category":"노외","address":"경기도 안산시 단원구 사세충열로 39","lat":37.337729,"lng":126.829709,"totalSpaces":12,"isFree":true,"operatingDays":"평일+토요일+공휴일","weekdayOpen":"00:00","weekdayClose":"23:59","weekendOpen":"00:00","weekendClose":"23:59","holidayOpen":"00:00","holidayClose":"23:59","feeInfo":"무료","phone":"031-481-6316","updatedAt":"2025-07-11","sido":"경기도","sigungu":"안산시","dong":""},{"name":"주택가 주차장","type":"공영","category":"노외","address":"경기도 안산시 상록구 본오동 1120-13","lat":37.300833,"lng":126.870421,"totalSpaces":11,"isFree":true,"operatingDays":"평일+토요일+공휴일","weekdayOpen":"00:00","weekdayClose":"23:59","weekendOpen":"00:00","weekendClose":"23:59","holidayOpen":"00:00","holidayClose":"23:59","feeInfo":"무료","phone":"031-481-5294","updatedAt":"2025-07-11","sido":"경기도","sigungu":"안산시","dong":""},{"name":"와동 주택가 주차장","type":"공영","category":"노외","address":"경기도 안산시 단원구 와동 784-9","lat":37.347132,"lng":126.822956,"totalSpaces":11,"isFree":true,"operatingDays":"평일+토요일+공휴일","weekdayOpen":"00:00","weekdayClose":"23:59","weekendOpen":"00:00","weekendClose":"23:59","holidayOpen":"00:00","holidayClose":"23:59","feeInfo":"무료","phone":"031-481-6316","updatedAt":"2025-07-11","sido":"경기도","sigungu":"안산시","dong":""},{"name":"와동주택가주차장","type":"공영","category":"노외","address":"경기도 안산시 단원구 화정천동로3안길 15-1","lat":37.344434,"lng":126.820496,"totalSpaces":10,"isFree":true,"operatingDays":"평일+토요일+공휴일","weekdayOpen":"00:00","weekdayClose":"23:59","weekendOpen":"00:00","weekendClose":"23:59","holidayOpen":"00:00","holidayClose":"23:59","feeInfo":"무료","phone":"031-481-6316","updatedAt":"2025-07-11","sido":"경기도","sigungu":"안산시","dong":""},{"name":"와동 주택가주차장","type":"공영","category":"노외","address":"경기도 안산시 단원구 화정로2길 7","lat":37.331113,"lng":126.820514,"totalSpaces":10,"isFree":true,"operatingDays":"평일+토요일+공휴일","weekdayOpen":"00:00","weekdayClose":"23:59","weekendOpen":"00:00","weekendClose":"23:59","holidayOpen":"00:00","holidayClose":"23:59","feeInfo":"무료","phone":"031-481-6316","updatedAt":"2025-07-11","sido":"경기도","sigungu":"안산시","dong":""},{"name":"와동 주택가주차장","type":"공영","category":"노외","address":"경기도 안산시 단원구 와동공원로7길 17","lat":37.342241,"lng":126.823309,"totalSpaces":10,"isFree":true,"operatingDays":"평일+토요일+공휴일","weekdayOpen":"00:00","weekdayClose":"23:59","weekendOpen":"00:00","weekendClose":"23:59","holidayOpen":"00:00","holidayClose":"23:59","feeInfo":"무료","phone":"031-481-6316","updatedAt":"2025-07-11","sido":"경기도","sigungu":"안산시","dong":""},{"name":"주택가 소규모주차장","type":"공영","category":"노외","address":"경기도 안산시 단원구 보배3길 7","lat":37.331809,"lng":126.827943,"totalSpaces":10,"isFree":true,"operatingDays":"평일+토요일+공휴일","weekdayOpen":"00:00","weekdayClose":"23:59","weekendOpen":"00:00","weekendClose":"23:59","holidayOpen":"00:00","holidayClose":"23:59","feeInfo":"무료","phone":"031-481-6316","updatedAt":"2025-07-11","sido":"경기도","sigungu":"안산시","dong":""},{"name":"주택가 주차장","type":"공영","category":"노외","address":"경기도 안산시 상록구 광덕산3로 59-1","lat":37.333651,"lng":126.8453192,"totalSpaces":10,"isFree":true,"operatingDays":"평일+토요일+공휴일","weekdayOpen":"00:00","weekdayClose":"23:59","weekendOpen":"00:00","weekendClose":"23:59","holidayOpen":"00:00","holidayClose":"23:59","feeInfo":"무료","phone":"031-481-5294","updatedAt":"2025-07-11","sido":"경기도","sigungu":"안산시","dong":""},{"name":"주택가 주차장","type":"공영","category":"노외","address":"경기도 안산시 상록구 석삼말로 215","lat":37.310501,"lng":126.861052,"totalSpaces":10,"isFree":true,"operatingDays":"평일+토요일+공휴일","weekdayOpen":"00:00","weekdayClose":"23:59","weekendOpen":"00:00","weekendClose":"23:59","holidayOpen":"00:00","holidayClose":"23:59","feeInfo":"무료","phone":"031-481-5294","updatedAt":"2025-07-11","sido":"경기도","sigungu":"안산시","dong":""},{"name":"이동 주택가주차장","type":"공영","category":"노외","address":"경기도 안산시 상록구 석삼말로5길 19-10","lat":37.309329,"lng":126.864162,"totalSpaces":10,"isFree":true,"operatingDays":"평일+토요일+공휴일","weekdayOpen":"00:00","weekdayClose":"23:59","weekendOpen":"00:00","weekendClose":"23:59","holidayOpen":"00:00","holidayClose":"23:59","feeInfo":"무료","phone":"031-481-5294","updatedAt":"2025-07-11","sido":"경기도","sigungu":"안산시","dong":""},{"name":"주택가 주차장","type":"공영","category":"노외","address":"경기도 안산시 상록구 일동 124","lat":37.311775,"lng":126.868513,"totalSpaces":10,"isFree":true,"operatingDays":"평일+토요일+공휴일","weekdayOpen":"00:00","weekdayClose":"23:59","weekendOpen":"00:00","weekendClose":"23:59","holidayOpen":"00:00","holidayClose":"23:59","feeInfo":"무료","phone":"031-481-5294","updatedAt":"2025-07-11","sido":"경기도","sigungu":"안산시","dong":""},{"name":"선부동주택가주차장","type":"공영","category":"노외","address":"경기도 안산시 단원구 북촌1길 10","lat":37.3466941196,"lng":126.8172219783,"totalSpaces":10,"isFree":true,"operatingDays":"평일+토요일+공휴일","weekdayOpen":"00:00","weekdayClose":"23:59","weekendOpen":"00:00","weekendClose":"23:59","holidayOpen":"00:00","holidayClose":"23:59","feeInfo":"무료","phone":"031-481-6316","updatedAt":"2025-07-11","sido":"경기도","sigungu":"안산시","dong":""},{"name":"주택가 주차장","type":"공영","category":"노외","address":"경기도 안산시 단원구 선삼로6길 79-1","lat":37.347427,"lng":126.814775,"totalSpaces":10,"isFree":true,"operatingDays":"평일+토요일+공휴일","weekdayOpen":"00:00","weekdayClose":"23:59","weekendOpen":"00:00","weekendClose":"23:59","holidayOpen":"00:00","holidayClose":"23:59","feeInfo":"무료","phone":"031-481-6316","updatedAt":"2025-07-11","sido":"경기도","sigungu":"안산시","dong":""},{"name":"선부동 주택가주차장","type":"공영","category":"노외","address":"경기도 안산시 단원구 선부동 1141-21","lat":37.343223,"lng":126.814242,"totalSpaces":10,"isFree":true,"operatingDays":"평일+토요일+공휴일","weekdayOpen":"00:00","weekdayClose":"23:59","weekendOpen":"00:00","weekendClose":"23:59","holidayOpen":"00:00","holidayClose":"23:59","feeInfo":"무료","phone":"031-481-6316","updatedAt":"2025-07-11","sido":"경기도","sigungu":"안산시","dong":""},{"name":"고잔동 주택가주차장","type":"공영","category":"노외","address":"경기도 안산시 단원구 고잔동 618-7","lat":37.330813,"lng":126.832343,"totalSpaces":10,"isFree":true,"operatingDays":"평일+토요일+공휴일","weekdayOpen":"00:00","weekdayClose":"23:59","weekendOpen":"00:00","weekendClose":"23:59","holidayOpen":"00:00","holidayClose":"23:59","feeInfo":"무료","phone":"031-481-6316","updatedAt":"2025-07-11","sido":"경기도","sigungu":"안산시","dong":""},{"name":"고잔동 주택가주차장","type":"공영","category":"노외","address":"경기도 안산시 단원구 고잔동 619-5","lat":37.331611,"lng":126.831704,"totalSpaces":10,"isFree":true,"operatingDays":"평일+토요일+공휴일","weekdayOpen":"00:00","weekdayClose":"23:59","weekendOpen":"00:00","weekendClose":"23:59","holidayOpen":"00:00","holidayClose":"23:59","feeInfo":"무료","phone":"031-481-6316","updatedAt":"2025-07-11","sido":"경기도","sigungu":"안산시","dong":""},{"name":"고잔동 주택가주차장","type":"공영","category":"노외","address":"경기도 안산시 단원구 고잔동 628-3","lat":37.333146,"lng":126.830564,"totalSpaces":10,"isFree":true,"operatingDays":"평일+토요일+공휴일","weekdayOpen":"00:00","weekdayClose":"23:59","weekendOpen":"00:00","weekendClose":"23:59","holidayOpen":"00:00","holidayClose":"23:59","feeInfo":"무료","phone":"031-481-6316","updatedAt":"2025-07-11","sido":"경기도","sigungu":"안산시","dong":""},{"name":"노외 주차장(주택)","type":"공영","category":"노외","address":"경기도 안산시 단원구 북촌2길 8","lat":37.342431,"lng":126.805609,"totalSpaces":10,"isFree":true,"operatingDays":"평일+토요일+공휴일","weekdayOpen":"00:00","weekdayClose":"23:59","weekendOpen":"00:00","weekendClose":"23:59","holidayOpen":"00:00","holidayClose":"23:59","feeInfo":"무료","phone":"031-481-6316","updatedAt":"2025-07-11","sido":"경기도","sigungu":"안산시","dong":""},{"name":"선부동 노외주차장(주택)","type":"공영","category":"노외","address":"경기도 안산시 단원구 북촌6길 20-1","lat":37.343807,"lng":126.806937,"totalSpaces":10,"isFree":true,"operatingDays":"평일+토요일+공휴일","weekdayOpen":"00:00","weekdayClose":"23:59","weekendOpen":"00:00","weekendClose":"23:59","holidayOpen":"00:00","holidayClose":"23:59","feeInfo":"무료","phone":"031-481-6316","updatedAt":"2025-07-11","sido":"경기도","sigungu":"안산시","dong":""},{"name":"선부동 주택가주차장","type":"공영","category":"노외","address":"경기도 안산시 단원구 선부동 1059-7","lat":37.340768,"lng":126.8081682,"totalSpaces":10,"isFree":true,"operatingDays":"평일+토요일+공휴일","weekdayOpen":"00:00","weekdayClose":"23:59","weekendOpen":"00:00","weekendClose":"23:59","holidayOpen":"00:00","holidayClose":"23:59","feeInfo":"무료","phone":"031-481-6316","updatedAt":"2025-07-11","sido":"경기도","sigungu":"안산시","dong":""},{"name":"선부동 주택가주차장","type":"공영","category":"노외","address":"경기도 안산시 단원구 선부동 1066-3","lat":37.340851,"lng":126.807012,"totalSpaces":10,"isFree":true,"operatingDays":"평일+토요일+공휴일","weekdayOpen":"00:00","weekdayClose":"23:59","weekendOpen":"00:00","weekendClose":"23:59","holidayOpen":"00:00","holidayClose":"23:59","feeInfo":"무료","phone":"031-481-6316","updatedAt":"2025-07-11","sido":"경기도","sigungu":"안산시","dong":""},{"name":"주택가 주차장","type":"공영","category":"노외","address":"경기도 안산시 상록구 일동 546-4","lat":37.318907,"lng":126.861918,"totalSpaces":9,"isFree":true,"operatingDays":"평일+토요일+공휴일","weekdayOpen":"00:00","weekdayClose":"23:59","weekendOpen":"00:00","weekendClose":"23:59","holidayOpen":"00:00","holidayClose":"23:59","feeInfo":"무료","phone":"031-481-5294","updatedAt":"2025-07-11","sido":"경기도","sigungu":"안산시","dong":""},{"name":"주택가 주차장","type":"공영","category":"노외","address":"경기도 안산시 상록구 일동 625-4","lat":37.30681674,"lng":126.871544,"totalSpaces":9,"isFree":true,"operatingDays":"평일+토요일+공휴일","weekdayOpen":"00:00","weekdayClose":"23:59","weekendOpen":"00:00","weekendClose":"23:59","holidayOpen":"00:00","holidayClose":"23:59","feeInfo":"무료","phone":"031-481-5294","updatedAt":"2025-07-11","sido":"경기도","sigungu":"안산시","dong":""},{"name":"본오동 22호 노외주차장","type":"공영","category":"노외","address":"경기도 안산시 상록구 본오동 1152-18","lat":37.2850102547,"lng":126.8627013251,"totalSpaces":9,"isFree":true,"operatingDays":"평일+토요일+공휴일","weekdayOpen":"00:00","weekdayClose":"23:59","weekendOpen":"00:00","weekendClose":"23:59","holidayOpen":"00:00","holidayClose":"23:59","feeInfo":"무료","phone":"031-481-5294","updatedAt":"2025-07-11","sido":"경기도","sigungu":"안산시","dong":""},{"name":"용담뿌리 노외주차장(70호)","type":"공영","category":"노외","address":"경기도 안산시 상록구 건건동 940-5","lat":37.301404,"lng":126.899852,"totalSpaces":9,"isFree":true,"operatingDays":"평일+토요일+공휴일","weekdayOpen":"00:00","weekdayClose":"23:59","weekendOpen":"00:00","weekendClose":"23:59","holidayOpen":"00:00","holidayClose":"23:59","feeInfo":"무료","phone":"031-481-5294","updatedAt":"2025-07-11","sido":"경기도","sigungu":"안산시","dong":""},{"name":"선부동 소규모주차장","type":"공영","category":"노외","address":"경기도 안산시 단원구 선부동 1124-7","lat":37.347011,"lng":126.811601,"totalSpaces":9,"isFree":true,"operatingDays":"평일+토요일+공휴일","weekdayOpen":"00:00","weekdayClose":"23:59","weekendOpen":"00:00","weekendClose":"23:59","holidayOpen":"00:00","holidayClose":"23:59","feeInfo":"무료","phone":"031-481-6316","updatedAt":"2025-07-11","sido":"경기도","sigungu":"안산시","dong":""},{"name":"주택가 주차장","type":"공영","category":"노외","address":"경기도 안산시 상록구 부루지2길 11-1","lat":37.32968126,"lng":126.8512625,"totalSpaces":9,"isFree":true,"operatingDays":"평일+토요일+공휴일","weekdayOpen":"00:00","weekdayClose":"23:59","weekendOpen":"00:00","weekendClose":"23:59","holidayOpen":"00:00","holidayClose":"23:59","feeInfo":"무료","phone":"031-481-5294","updatedAt":"2025-07-11","sido":"경기도","sigungu":"안산시","dong":""},{"name":"선부동 주택가주차장","type":"공영","category":"노외","address":"경기도 안산시 단원구 선삼로6길 76-1","lat":37.347032,"lng":126.815034,"totalSpaces":9,"isFree":true,"operatingDays":"평일+토요일+공휴일","weekdayOpen":"00:00","weekdayClose":"23:59","weekendOpen":"00:00","weekendClose":"23:59","holidayOpen":"00:00","holidayClose":"23:59","feeInfo":"무료","phone":"031-481-6316","updatedAt":"2025-07-11","sido":"경기도","sigungu":"안산시","dong":""},{"name":"선부동 주택가주차장","type":"공영","category":"노외","address":"경기도 안산시 단원구 선부동 1065-9","lat":37.340403,"lng":126.807287,"totalSpaces":9,"isFree":true,"operatingDays":"평일+토요일+공휴일","weekdayOpen":"00:00","weekdayClose":"23:59","weekendOpen":"00:00","weekendClose":"23:59","holidayOpen":"00:00","holidayClose":"23:59","feeInfo":"무료","phone":"031-481-6316","updatedAt":"2025-07-11","sido":"경기도","sigungu":"안산시","dong":""},{"name":"사동 주택가주차장","type":"공영","category":"노외","address":"경기도 안산시 상록구 장화1안길 26","lat":37.282632,"lng":126.853756,"totalSpaces":8,"isFree":true,"operatingDays":"평일+토요일+공휴일","weekdayOpen":"00:00","weekdayClose":"23:59","weekendOpen":"00:00","weekendClose":"23:59","holidayOpen":"00:00","holidayClose":"23:59","feeInfo":"무료","phone":"031-481-5294","updatedAt":"2025-07-11","sido":"경기도","sigungu":"안산시","dong":""},{"name":"주택가 주차장","type":"공영","category":"노외","address":"경기도 안산시 상록구 고목로3길 4-33","lat":37.283639,"lng":126.860974,"totalSpaces":8,"isFree":true,"operatingDays":"평일+토요일+공휴일","weekdayOpen":"00:00","weekdayClose":"23:59","weekendOpen":"00:00","weekendClose":"23:59","holidayOpen":"00:00","holidayClose":"23:59","feeInfo":"무료","phone":"031-481-5294","updatedAt":"2025-07-11","sido":"경기도","sigungu":"안산시","dong":""},{"name":"주택가 주차장","type":"공영","category":"노외","address":"경기도 안산시 상록구 석호공원로2길 1","lat":37.301227,"lng":126.8491168,"totalSpaces":8,"isFree":true,"operatingDays":"평일+토요일+공휴일","weekdayOpen":"00:00","weekdayClose":"23:59","weekendOpen":"00:00","weekendClose":"23:59","holidayOpen":"00:00","holidayClose":"23:59","feeInfo":"무료","phone":"031-481-5294","updatedAt":"2025-07-11","sido":"경기도","sigungu":"안산시","dong":""},{"name":"주택가 주차장","type":"공영","category":"노외","address":"경기도 안산시 상록구 본오동 771-14","lat":37.2944850539,"lng":126.8748437421,"totalSpaces":8,"isFree":true,"operatingDays":"평일+토요일+공휴일","weekdayOpen":"00:00","weekdayClose":"23:59","weekendOpen":"00:00","weekendClose":"23:59","holidayOpen":"00:00","holidayClose":"23:59","feeInfo":"무료","phone":"031-481-5294","updatedAt":"2025-07-11","sido":"경기도","sigungu":"안산시","dong":""},{"name":"도시정비기금주차장","type":"공영","category":"노외","address":"경기도 안산시 상록구 부곡동 676-11","lat":37.3299214101,"lng":126.8602238545,"totalSpaces":8,"isFree":true,"operatingDays":"평일+토요일+공휴일","weekdayOpen":"00:00","weekdayClose":"23:59","weekendOpen":"00:00","weekendClose":"23:59","holidayOpen":"00:00","holidayClose":"23:59","feeInfo":"무료","phone":"031-481-5294","updatedAt":"2025-07-11","sido":"경기도","sigungu":"안산시","dong":""},{"name":"주택가 노외주차장","type":"공영","category":"노외","address":"경기도 안산시 상록구 일동 86-7","lat":37.3135436411,"lng":126.8689114197,"totalSpaces":8,"isFree":true,"operatingDays":"평일+토요일+공휴일","weekdayOpen":"00:00","weekdayClose":"23:59","weekendOpen":"00:00","weekendClose":"23:59","holidayOpen":"00:00","holidayClose":"23:59","feeInfo":"무료","phone":"031-481-5316","updatedAt":"2025-07-11","sido":"경기도","sigungu":"안산시","dong":""},{"name":"선부동 소규모주차장","type":"공영","category":"노외","address":"경기도 안산시 단원구 선부동 1121-12","lat":37.346525,"lng":126.812107,"totalSpaces":8,"isFree":true,"operatingDays":"평일+토요일+공휴일","weekdayOpen":"00:00","weekdayClose":"23:59","weekendOpen":"00:00","weekendClose":"23:59","holidayOpen":"00:00","holidayClose":"23:59","feeInfo":"무료","phone":"031-481-6316","updatedAt":"2025-07-11","sido":"경기도","sigungu":"안산시","dong":""},{"name":"와동 소규모주차장","type":"공영","category":"노외","address":"경기도 안산시 단원구 와동 695-23","lat":37.333251,"lng":126.829535,"totalSpaces":8,"isFree":true,"operatingDays":"평일+토요일+공휴일","weekdayOpen":"00:00","weekdayClose":"23:59","weekendOpen":"00:00","weekendClose":"23:59","holidayOpen":"00:00","holidayClose":"23:59","feeInfo":"무료","phone":"031-481-6316","updatedAt":"2025-07-11","sido":"경기도","sigungu":"안산시","dong":""},{"name":"주택가 자투리 주차장","type":"공영","category":"노외","address":"경기도 안산시 단원구 와동 102-3","lat":37.342331,"lng":126.829116,"totalSpaces":8,"isFree":true,"operatingDays":"평일+토요일+공휴일","weekdayOpen":"00:00","weekdayClose":"23:59","weekendOpen":"00:00","weekendClose":"23:59","holidayOpen":"00:00","holidayClose":"23:59","feeInfo":"무료","phone":"031-481-6316","updatedAt":"2025-07-11","sido":"경기도","sigungu":"안산시","dong":""},{"name":"주택가 자투리 주차장","type":"공영","category":"노외","address":"경기도 안산시 단원구 와동 121-10","lat":37.3401847,"lng":126.828381,"totalSpaces":8,"isFree":true,"operatingDays":"평일+토요일+공휴일","weekdayOpen":"00:00","weekdayClose":"23:59","weekendOpen":"00:00","weekendClose":"23:59","holidayOpen":"00:00","holidayClose":"23:59","feeInfo":"무료","phone":"031-481-6316","updatedAt":"2025-07-11","sido":"경기도","sigungu":"안산시","dong":""},{"name":"선부동주택가주차장","type":"공영","category":"노외","address":"경기도 안산시 단원구 선삼로6길 23","lat":37.346932,"lng":126.811728,"totalSpaces":8,"isFree":true,"operatingDays":"평일+토요일+공휴일","weekdayOpen":"00:00","weekdayClose":"23:59","weekendOpen":"00:00","weekendClose":"23:59","holidayOpen":"00:00","holidayClose":"23:59","feeInfo":"무료","phone":"031-481-6316","updatedAt":"2025-07-11","sido":"경기도","sigungu":"안산시","dong":""},{"name":"선부동 주택가주차장","type":"공영","category":"노외","address":"경기도 안산시 단원구 선부동 1026-7","lat":37.342948,"lng":126.804434,"totalSpaces":8,"isFree":true,"operatingDays":"평일+토요일+공휴일","weekdayOpen":"00:00","weekdayClose":"23:59","weekendOpen":"00:00","weekendClose":"23:59","holidayOpen":"00:00","holidayClose":"23:59","feeInfo":"무료","phone":"031-481-6316","updatedAt":"2025-07-11","sido":"경기도","sigungu":"안산시","dong":""},{"name":"주택가 주차장","type":"공영","category":"노외","address":"경기도 안산시 상록구 본오동 835-10","lat":37.29225958,"lng":126.870071,"totalSpaces":7,"isFree":true,"operatingDays":"평일+토요일+공휴일","weekdayOpen":"00:00","weekdayClose":"23:59","weekendOpen":"00:00","weekendClose":"23:59","holidayOpen":"00:00","holidayClose":"23:59","feeInfo":"무료","phone":"031-481-5294","updatedAt":"2025-07-11","sido":"경기도","sigungu":"안산시","dong":""},{"name":"주택가 주차장","type":"공영","category":"노외","address":"경기도 안산시 상록구 본오동 927-18","lat":37.288919,"lng":126.860827,"totalSpaces":7,"isFree":true,"operatingDays":"평일+토요일+공휴일","weekdayOpen":"00:00","weekdayClose":"23:59","weekendOpen":"00:00","weekendClose":"23:59","holidayOpen":"00:00","holidayClose":"23:59","feeInfo":"무료","phone":"031-481-5294","updatedAt":"2025-07-11","sido":"경기도","sigungu":"안산시","dong":""},{"name":"주택가 주차장","type":"공영","category":"노외","address":"경기도 안산시 상록구 사동 1310-14","lat":37.295405,"lng":126.850908,"totalSpaces":7,"isFree":true,"operatingDays":"평일+토요일+공휴일","weekdayOpen":"00:00","weekdayClose":"23:59","weekendOpen":"00:00","weekendClose":"23:59","holidayOpen":"00:00","holidayClose":"23:59","feeInfo":"무료","phone":"031-481-5294","updatedAt":"2025-07-11","sido":"경기도","sigungu":"안산시","dong":""},{"name":"주택가 주차장","type":"공영","category":"노외","address":"경기도 안산시 상록구 일동 91-2","lat":37.311202,"lng":126.867302,"totalSpaces":7,"isFree":true,"operatingDays":"평일+토요일+공휴일","weekdayOpen":"00:00","weekdayClose":"23:59","weekendOpen":"00:00","weekendClose":"23:59","holidayOpen":"00:00","holidayClose":"23:59","feeInfo":"무료","phone":"031-481-5294","updatedAt":"2025-07-11","sido":"경기도","sigungu":"안산시","dong":""},{"name":"도시정비기금주차장","type":"공영","category":"노외","address":"경기도 안산시 상록구 사동 1319-24","lat":37.2939840893,"lng":126.8513299683,"totalSpaces":7,"isFree":true,"operatingDays":"평일+토요일+공휴일","weekdayOpen":"00:00","weekdayClose":"23:59","weekendOpen":"00:00","weekendClose":"23:59","holidayOpen":"00:00","holidayClose":"23:59","feeInfo":"무료","phone":"031-481-5294","updatedAt":"2025-07-11","sido":"경기도","sigungu":"안산시","dong":""},{"name":"주택가 자투리 주차장","type":"공영","category":"노외","address":"경기도 안산시 단원구 선부동 1091-10","lat":37.343654,"lng":126.816339,"totalSpaces":7,"isFree":true,"operatingDays":"평일+토요일+공휴일","weekdayOpen":"00:00","weekdayClose":"23:59","weekendOpen":"00:00","weekendClose":"23:59","holidayOpen":"00:00","holidayClose":"23:59","feeInfo":"무료","phone":"031-481-6316","updatedAt":"2025-07-11","sido":"경기도","sigungu":"안산시","dong":""},{"name":"선부동 주택가주차장","type":"공영","category":"노외","address":"경기도 안산시 단원구 지곡로4길 39-1","lat":37.337026,"lng":126.804121,"totalSpaces":7,"isFree":true,"operatingDays":"평일+토요일+공휴일","weekdayOpen":"00:00","weekdayClose":"23:59","weekendOpen":"00:00","weekendClose":"23:59","holidayOpen":"00:00","holidayClose":"23:59","feeInfo":"무료","phone":"031-481-6316","updatedAt":"2025-07-11","sido":"경기도","sigungu":"안산시","dong":""},{"name":"선부동주택가주차장","type":"공영","category":"노외","address":"경기도 안산시 단원구 지곡로2길 27-5","lat":37.33619026,"lng":126.8041984,"totalSpaces":7,"isFree":true,"operatingDays":"평일+토요일+공휴일","weekdayOpen":"00:00","weekdayClose":"23:59","weekendOpen":"00:00","weekendClose":"23:59","holidayOpen":"00:00","holidayClose":"23:59","feeInfo":"무료","phone":"031-481-6316","updatedAt":"2025-07-11","sido":"경기도","sigungu":"안산시","dong":""},{"name":"주택가 주차장","type":"공영","category":"노외","address":"경기도 안산시 단원구 사세충열로4안길 4","lat":37.34111023,"lng":126.827565,"totalSpaces":7,"isFree":true,"operatingDays":"평일+토요일+공휴일","weekdayOpen":"00:00","weekdayClose":"23:59","weekendOpen":"00:00","weekendClose":"23:59","holidayOpen":"00:00","holidayClose":"23:59","feeInfo":"무료","phone":"031-481-6316","updatedAt":"2025-07-11","sido":"경기도","sigungu":"안산시","dong":""},{"name":"선부동 주택가주차장","type":"공영","category":"노외","address":"경기도 안산시 단원구 선삼로 16-1","lat":37.345119,"lng":126.816179,"totalSpaces":7,"isFree":true,"operatingDays":"평일+토요일+공휴일","weekdayOpen":"00:00","weekdayClose":"23:59","weekendOpen":"00:00","weekendClose":"23:59","holidayOpen":"00:00","holidayClose":"23:59","feeInfo":"무료","phone":"031-481-6316","updatedAt":"2025-07-11","sido":"경기도","sigungu":"안산시","dong":""},{"name":"선부동 주택가주차장","type":"공영","category":"노외","address":"경기도 안산시 단원구 선삼로 62","lat":37.34627251,"lng":126.811811,"totalSpaces":7,"isFree":true,"operatingDays":"평일+토요일+공휴일","weekdayOpen":"00:00","weekdayClose":"23:59","weekendOpen":"00:00","weekendClose":"23:59","holidayOpen":"00:00","holidayClose":"23:59","feeInfo":"무료","phone":"031-481-6316","updatedAt":"2025-07-11","sido":"경기도","sigungu":"안산시","dong":""},{"name":"선부동 주택가주차장","type":"공영","category":"노외","address":"경기도 안산시 단원구 북촌4길 17-1","lat":37.343521,"lng":126.806063,"totalSpaces":7,"isFree":true,"operatingDays":"평일+토요일+공휴일","weekdayOpen":"00:00","weekdayClose":"23:59","weekendOpen":"00:00","weekendClose":"23:59","holidayOpen":"00:00","holidayClose":"23:59","feeInfo":"무료","phone":"031-481-6316","updatedAt":"2025-07-11","sido":"경기도","sigungu":"안산시","dong":""},{"name":"선부동 주택가주차장","type":"공영","category":"노외","address":"경기도 안산시 단원구 선부동 1061-17","lat":37.340753,"lng":126.808635,"totalSpaces":7,"isFree":true,"operatingDays":"평일+토요일+공휴일","weekdayOpen":"00:00","weekdayClose":"23:59","weekendOpen":"00:00","weekendClose":"23:59","holidayOpen":"00:00","holidayClose":"23:59","feeInfo":"무료","phone":"031-481-6316","updatedAt":"2025-07-11","sido":"경기도","sigungu":"안산시","dong":""},{"name":"주택가 노외주차장","type":"공영","category":"노외","address":"경기도 안산시 상록구 이호로6길 11","lat":37.285748,"lng":126.867712,"totalSpaces":6,"isFree":true,"operatingDays":"평일+토요일+공휴일","weekdayOpen":"00:00","weekdayClose":"23:59","weekendOpen":"00:00","weekendClose":"23:59","holidayOpen":"00:00","holidayClose":"23:59","feeInfo":"무료","phone":"031-481-5294","updatedAt":"2025-07-11","sido":"경기도","sigungu":"안산시","dong":""},{"name":"주택가 주차장","type":"공영","category":"노외","address":"경기도 안산시 상록구 부곡동 551-6","lat":37.330625,"lng":126.867961,"totalSpaces":6,"isFree":true,"operatingDays":"평일+토요일+공휴일","weekdayOpen":"00:00","weekdayClose":"23:59","weekendOpen":"00:00","weekendClose":"23:59","holidayOpen":"00:00","holidayClose":"23:59","feeInfo":"무료","phone":"031-481-5294","updatedAt":"2025-07-11","sido":"경기도","sigungu":"안산시","dong":""},{"name":"주택가 자투리 주차장","type":"공영","category":"노외","address":"경기도 안산시 단원구 와동 107-10","lat":37.341273,"lng":126.828574,"totalSpaces":6,"isFree":true,"operatingDays":"평일+토요일+공휴일","weekdayOpen":"00:00","weekdayClose":"23:59","weekendOpen":"00:00","weekendClose":"23:59","holidayOpen":"00:00","holidayClose":"23:59","feeInfo":"무료","phone":"031-481-6316","updatedAt":"2025-07-11","sido":"경기도","sigungu":"안산시","dong":""},{"name":"와동 주택가주차장","type":"공영","category":"노외","address":"경기도 안산시 단원구 와동로 7길 9-1","lat":37.340625,"lng":126.828608,"totalSpaces":5,"isFree":true,"operatingDays":"평일+토요일+공휴일","weekdayOpen":"00:00","weekdayClose":"23:59","weekendOpen":"00:00","weekendClose":"23:59","holidayOpen":"00:00","holidayClose":"23:59","feeInfo":"무료","phone":"031-481-6316","updatedAt":"2025-07-11","sido":"경기도","sigungu":"안산시","dong":""}]}