{"sido":"경기도","sigungu":"여주시","totalCount":40,"validCount":40,"items":[{"name":"보건소옆무료주차장","type":"공영","category":"노외","address":"경기도 여주시 여흥로160번길 14","lat":37.29460883,"lng":127.6403935,"totalSpaces":350,"isFree":true,"operatingDays":"평일+토요일+공휴일","weekdayOpen":"00:00","weekdayClose":"23:59","weekendOpen":"00:00","weekendClose":"23:59","holidayOpen":"00:00","holidayClose":"23:59","feeInfo":"무료","phone":"031-887-2234","updatedAt":"2025-12-29","sido":"경기도","sigungu":"여주시","dong":"상동"},{"name":"신륵사관광단지주차장","type":"공영","category":"노외","address":"경기도 여주시 신륵사길 13-1","lat":37.29959686,"lng":127.6555388,"totalSpaces":346,"isFree":true,"operatingDays":"평일+토요일+공휴일","weekdayOpen":"00:00","weekdayClose":"23:59","weekendOpen":"00:00","weekendClose":"23:59","holidayOpen":"00:00","holidayClose":"23:59","feeInfo":"무료","phone":"031-887-2234","updatedAt":"2025-12-29","sido":"경기도","sigungu":"여주시","dong":"천송동"},{"name":"부영아파트 건너편상가앞","type":"공영","category":"노외","address":"경기도 여주시 점봉동 429-39","lat":37.26570682,"lng":127.6396314,"totalSpaces":200,"isFree":true,"operatingDays":"평일+토요일+공휴일","weekdayOpen":"00:00","weekdayClose":"23:59","weekendOpen":"00:00","weekendClose":"23:59","holidayOpen":"00:00","holidayClose":"23:59","feeInfo":"무료","phone":"031-887-2234","updatedAt":"2025-12-29","sido":"경기도","sigungu":"여주시","dong":"점봉동"},{"name":"오학동 공영주차장","type":"공영","category":"노외","address":"경기도 여주시 오학동 288","lat":37.30800204,"lng":127.6436828,"totalSpaces":152,"isFree":true,"operatingDays":"평일+토요일+공휴일","weekdayOpen":"00:00","weekdayClose":"23:59","weekendOpen":"00:00","weekendClose":"23:59","holidayOpen":"00:00","holidayClose":"23:59","feeInfo":"무료","phone":"031-887-2234","updatedAt":"2025-12-29","sido":"경기도","sigungu":"여주시","dong":"오학동"},{"name":"가남읍 1공영주차장","type":"공영","category":"노외","address":"경기도 여주시 가남읍 태평중앙2길 11-5","lat":37.20266626,"lng":127.5443944,"totalSpaces":71,"isFree":true,"operatingDays":"평일+토요일+공휴일","weekdayOpen":"00:00","weekdayClose":"23:59","weekendOpen":"00:00","weekendClose":"23:59","holidayOpen":"00:00","holidayClose":"23:59","feeInfo":"무료","phone":"031-887-2234","updatedAt":"2025-12-29","sido":"경기도","sigungu":"여주시","dong":"가남읍"},{"name":"세종대왕릉역공영주차장","type":"공영","category":"노외","address":"경기도 여주시 세종대왕면 신지리 717-4","lat":37.29215802,"lng":127.5731124,"totalSpaces":69,"isFree":true,"operatingDays":"평일+토요일+공휴일","weekdayOpen":"00:00","weekdayClose":"23:59","weekendOpen":"00:00","weekendClose":"23:59","holidayOpen":"00:00","holidayClose":"23:59","feeInfo":"무료","phone":"031-887-2234","updatedAt":"2025-12-29","sido":"경기도","sigungu":"여주시","dong":"세종대왕면"},{"name":"현암동 공영주차장","type":"공영","category":"노외","address":"경기도 여주시 현암동 179-24","lat":37.30901866,"lng":127.639758,"totalSpaces":68,"isFree":true,"operatingDays":"평일+토요일+공휴일","weekdayOpen":"00:00","weekdayClose":"23:59","weekendOpen":"00:00","weekendClose":"23:59","holidayOpen":"00:00","holidayClose":"23:59","feeInfo":"무료","phone":"031-887-2234","updatedAt":"2025-12-29","sido":"경기도","sigungu":"여주시","dong":"현암동"},{"name":"가남읍 2공영주차장","type":"공영","category":"노외","address":"경기도 여주시 가납읍 태평리 146-1","lat":37.20257533,"lng":127.5448305,"totalSpaces":48,"isFree":true,"operatingDays":"평일+토요일+공휴일","weekdayOpen":"00:00","weekdayClose":"23:59","weekendOpen":"00:00","weekendClose":"23:59","holidayOpen":"00:00","holidayClose":"23:59","feeInfo":"무료","phone":"031-887-2234","updatedAt":"2025-12-29","sido":"경기도","sigungu":"여주시","dong":"가납읍"},{"name":"북내공영주차장","type":"공영","category":"노외","address":"경기도 여주시 북내면 당전로 5","lat":37.32758624,"lng":127.6816178,"totalSpaces":43,"isFree":true,"operatingDays":"평일+토요일+공휴일","weekdayOpen":"00:00","weekdayClose":"23:59","weekendOpen":"00:00","weekendClose":"23:59","holidayOpen":"00:00","holidayClose":"23:59","feeInfo":"무료","phone":"031-887-2234","updatedAt":"2025-12-29","sido":"경기도","sigungu":"여주시","dong":"북내면"},{"name":"세종대왕동상옆(터미널사거리)","type":"공영","category":"노외","address":"경기도 여주시 소양로 107","lat":37.29049186,"lng":127.6342056,"totalSpaces":43,"isFree":true,"operatingDays":"평일+토요일+공휴일","weekdayOpen":"00:00","weekdayClose":"23:59","weekendOpen":"00:00","weekendClose":"23:59","holidayOpen":"00:00","holidayClose":"23:59","feeInfo":"무료","phone":"031-887-2234","updatedAt":"2025-12-29","sido":"경기도","sigungu":"여주시","dong":"홍문동"},{"name":"상동공영주차장","type":"공영","category":"노외","address":"경기도 여주시 청심로 233-7","lat":37.29486965,"lng":127.6454405,"totalSpaces":40,"isFree":true,"operatingDays":"평일+토요일+공휴일","weekdayOpen":"00:00","weekdayClose":"23:59","weekendOpen":"00:00","weekendClose":"23:59","holidayOpen":"00:00","holidayClose":"23:59","feeInfo":"무료","phone":"031-887-2234","updatedAt":"2025-12-29","sido":"경기도","sigungu":"여주시","dong":"상동"},{"name":"삼교동 공영주차장","type":"공영","category":"노외","address":"경기도 여주시 삼교동 459-6","lat":37.24523474,"lng":127.6517604,"totalSpaces":32,"isFree":true,"operatingDays":"평일+토요일+공휴일","weekdayOpen":"00:00","weekdayClose":"23:59","weekendOpen":"00:00","weekendClose":"23:59","holidayOpen":"00:00","holidayClose":"23:59","feeInfo":"무료","phone":"031-887-2234","updatedAt":"2025-12-29","sido":"경기도","sigungu":"여주시","dong":"삼교동"},{"name":"아이파크 앞 공영주차장","type":"공영","category":"노외","address":"경기도 여주시 현암동 703","lat":37.31078389,"lng":127.6341501,"totalSpaces":30,"isFree":true,"operatingDays":"평일+토요일+공휴일","weekdayOpen":"00:00","weekdayClose":"23:59","weekendOpen":"00:00","weekendClose":"23:59","holidayOpen":"00:00","holidayClose":"23:59","feeInfo":"무료","phone":"031-887-2234","updatedAt":"2025-12-29","sido":"경기도","sigungu":"여주시","dong":"현암동"},{"name":"가남태평공영주차장","type":"공영","category":"노외","address":"경기도 여주시 가남읍 태평2길 26","lat":37.20386091,"lng":127.5457742,"totalSpaces":27,"isFree":true,"operatingDays":"평일+토요일+공휴일","weekdayOpen":"00:00","weekdayClose":"23:59","weekendOpen":"00:00","weekendClose":"23:59","holidayOpen":"00:00","holidayClose":"23:59","feeInfo":"무료","phone":"031-887-2234","updatedAt":"2025-12-29","sido":"경기도","sigungu":"여주시","dong":"가남읍"},{"name":"놀이터옆 주차장","type":"공영","category":"노외","address":"경기도 여주시 소양로27번길 5","lat":37.29646573,"lng":127.6294962,"totalSpaces":18,"isFree":true,"operatingDays":"평일+토요일+공휴일","weekdayOpen":"00:00","weekdayClose":"23:59","weekendOpen":"00:00","weekendClose":"23:59","holidayOpen":"00:00","holidayClose":"23:59","feeInfo":"무료","phone":"031-887-2234","updatedAt":"2025-12-29","sido":"경기도","sigungu":"여주시","dong":"하동"},{"name":"법무지구 도시개발 주차장","type":"공영","category":"노외","address":"경기도 여주시 현암동 667-6","lat":37.31247007,"lng":127.632118,"totalSpaces":16,"isFree":true,"operatingDays":"평일+토요일+공휴일","weekdayOpen":"00:00","weekdayClose":"23:59","weekendOpen":"00:00","weekendClose":"23:59","holidayOpen":"00:00","holidayClose":"23:59","feeInfo":"무료","phone":"031-887-2234","updatedAt":"2025-12-29","sido":"경기도","sigungu":"여주시","dong":"현암동"},{"name":"능서면사무소앞","type":"공영","category":"노외","address":"경기도 여주시 세종대왕면 번도리 500-5","lat":37.29988215,"lng":127.5733658,"totalSpaces":14,"isFree":true,"operatingDays":"평일+토요일+공휴일","weekdayOpen":"00:00","weekdayClose":"23:59","weekendOpen":"00:00","weekendClose":"23:59","holidayOpen":"00:00","holidayClose":"23:59","feeInfo":"무료","phone":"031-887-2234","updatedAt":"2025-12-29","sido":"경기도","sigungu":"여주시","dong":"세종대왕면"},{"name":"여흥동 공영주차장","type":"공영","category":"노외","address":"경기도 여주시 여흥로160번길 16","lat":37.29457207,"lng":127.6395096,"totalSpaces":423,"isFree":false,"operatingDays":"평일+토요일+공휴일","weekdayOpen":"08:00","weekdayClose":"22:00","weekendOpen":"08:00","weekendClose":"22:00","holidayOpen":"00:00","holidayClose":"23:59","feeInfo":"기본 30분 500원 / 추가 10분당 200원","phone":"031-880-4008","updatedAt":"2025-12-29","sido":"경기도","sigungu":"여주시","dong":"상동"},{"name":"창동공영주차장(주차타워)","type":"공영","category":"노외","address":"경기도 여주시 세종로40번길 25","lat":37.29529194,"lng":127.6334528,"totalSpaces":209,"isFree":false,"operatingDays":"평일+토요일+공휴일","weekdayOpen":"08:00","weekdayClose":"22:00","weekendOpen":"08:00","weekendClose":"22:00","holidayOpen":"00:00","holidayClose":"23:59","feeInfo":"기본 30분 500원 / 추가 10분당 200원","phone":"031-880-4008","updatedAt":"2025-12-29","sido":"경기도","sigungu":"여주시","dong":"창동"},{"name":"한글시장 주차장","type":"공영","category":"노외","address":"경기도 여주시 여흥로109번길 17","lat":37.29727326,"lng":127.6360458,"totalSpaces":184,"isFree":false,"operatingDays":"평일+토요일+공휴일","weekdayOpen":"08:00","weekdayClose":"22:00","weekendOpen":"08:00","weekendClose":"22:00","holidayOpen":"00:00","holidayClose":"23:59","feeInfo":"기본 30분 500원 / 추가 10분당 200원","phone":"031-880-4008","updatedAt":"2025-12-29","sido":"경기도","sigungu":"여주시","dong":"창동"},{"name":"하동제일시장","type":"공영","category":"노외","address":"경기도 여주시 여흥로69번길 26-10","lat":37.29861406,"lng":127.6328031,"totalSpaces":119,"isFree":false,"operatingDays":"평일+토요일+공휴일","weekdayOpen":"00:00","weekdayClose":"23:59","weekendOpen":"00:00","weekendClose":"23:59","holidayOpen":"00:00","holidayClose":"23:59","feeInfo":"기본 30분 500원 / 추가 10분당 200원","phone":"031-880-4008","updatedAt":"2025-12-29","sido":"경기도","sigungu":"여주시","dong":"하동"},{"name":"시청부설주차장","type":"공영","category":"부설","address":"경기도 여주시 홍문동 4","lat":37.29821379,"lng":127.6366244,"totalSpaces":93,"isFree":false,"operatingDays":"평일","weekdayOpen":"09:00","weekdayClose":"18:30","weekendOpen":"00:00","weekendClose":"00:00","holidayOpen":"00:00","holidayClose":"00:00","feeInfo":"기본 40분 500원 / 추가 10분당 300원","phone":"031-880-4008","updatedAt":"2025-12-29","sido":"경기도","sigungu":"여주시","dong":"홍문동"},{"name":"강변로(상점가 앞)","type":"공영","category":"노상","address":"경기도 여주시 청심로 155-16","lat":37.298232,"lng":127.6380443,"totalSpaces":79,"isFree":false,"operatingDays":"평일","weekdayOpen":"10:00","weekdayClose":"19:00","weekendOpen":"00:00","weekendClose":"00:00","holidayOpen":"00:00","holidayClose":"00:00","feeInfo":"기본 30분 500원 / 추가 10분당 200원","phone":"031-880-4008","updatedAt":"2025-12-29","sido":"경기도","sigungu":"여주시","dong":"홍문동"},{"name":"하동 공영주차장","type":"공영","category":"노외","address":"경기도 여주시 하동 405-1","lat":37.29614796,"lng":127.631644,"totalSpaces":56,"isFree":false,"operatingDays":"평일+토요일+공휴일","weekdayOpen":"08:00","weekdayClose":"22:00","weekendOpen":"08:00","weekendClose":"22:00","holidayOpen":"00:00","holidayClose":"23:59","feeInfo":"기본 30분 500원 / 추가 10분당 200원","phone":"031-880-4008","updatedAt":"2025-12-29","sido":"경기도","sigungu":"여주시","dong":"하동"},{"name":"세종로(구법원입구 ～ 홍문현대(아) 앞)","type":"공영","category":"노상","address":"경기도 여주시 홍문동 217-2","lat":37.29257702,"lng":127.6357294,"totalSpaces":32,"isFree":false,"operatingDays":"평일","weekdayOpen":"10:00","weekdayClose":"19:00","weekendOpen":"00:00","weekendClose":"00:00","holidayOpen":"00:00","holidayClose":"00:00","feeInfo":"기본 30분 500원 / 추가 10분당 200원","phone":"031-880-4008","updatedAt":"2025-12-29","sido":"경기도","sigungu":"여주시","dong":"홍문동"},{"name":"세종로(김밥나라 ～ 현대의료기)","type":"공영","category":"노상","address":"경기도 여주시 홍문동 216-1","lat":37.29330378,"lng":127.6357877,"totalSpaces":26,"isFree":false,"operatingDays":"평일","weekdayOpen":"10:00","weekdayClose":"19:00","weekendOpen":"00:00","weekendClose":"00:00","holidayOpen":"00:00","holidayClose":"00:00","feeInfo":"기본 30분 500원 / 추가 10분당 200원","phone":"031-880-4008","updatedAt":"2025-12-29","sido":"경기도","sigungu":"여주시","dong":"홍문동"},{"name":"청심로(상리정미소 ～ KT)","type":"공영","category":"노상","address":"경기도 여주시 청심로 204","lat":37.2953525,"lng":127.6420461,"totalSpaces":26,"isFree":false,"operatingDays":"평일","weekdayOpen":"10:00","weekdayClose":"19:00","weekendOpen":"00:00","weekendClose":"00:00","holidayOpen":"00:00","holidayClose":"00:00","feeInfo":"기본 30분 500원 / 추가 10분당 200원","phone":"031-880-4008","updatedAt":"2025-12-29","sido":"경기도","sigungu":"여주시","dong":"상동"},{"name":"시민회관공영주차장","type":"공영","category":"노외","address":"경기도 여주시 홍문동 72-4","lat":37.29462119,"lng":127.6370012,"totalSpaces":25,"isFree":false,"operatingDays":"평일","weekdayOpen":"10:00","weekdayClose":"19:00","weekendOpen":"00:00","weekendClose":"00:00","holidayOpen":"00:00","holidayClose":"00:00","feeInfo":"기본 30분 500원 / 추가 10분당 200원","phone":"031-880-4008","updatedAt":"2025-12-29","sido":"경기도","sigungu":"여주시","dong":"홍문동"},{"name":"세종로(샘터식당 ～ 제중약국)","type":"공영","category":"노상","address":"경기도 여주시 청심로 146","lat":37.2978845,"lng":127.6362501,"totalSpaces":23,"isFree":false,"operatingDays":"평일","weekdayOpen":"10:00","weekdayClose":"19:00","weekendOpen":"00:00","weekendClose":"00:00","holidayOpen":"00:00","holidayClose":"00:00","feeInfo":"기본 30분 500원 / 추가 10분당 200원","phone":"031-880-4008","updatedAt":"2025-12-29","sido":"경기도","sigungu":"여주시","dong":"창동"},{"name":"세종로(경찰서 민원실 앞)","type":"공영","category":"노상","address":"경기도 여주시 홍문동 216-1","lat":37.29330378,"lng":127.6357877,"totalSpaces":21,"isFree":false,"operatingDays":"평일","weekdayOpen":"10:00","weekdayClose":"19:00","weekendOpen":"00:00","weekendClose":"00:00","holidayOpen":"00:00","holidayClose":"00:00","feeInfo":"기본 30분 500원 / 추가 10분당 200원","phone":"031-880-4008","updatedAt":"2025-12-29","sido":"경기도","sigungu":"여주시","dong":"홍문동"},{"name":"세종로(중앙시장입구 ～ 안경박사)","type":"공영","category":"노상","address":"경기도 여주시 청심로 146","lat":37.2978845,"lng":127.6362501,"totalSpaces":20,"isFree":false,"operatingDays":"평일","weekdayOpen":"10:00","weekdayClose":"19:00","weekendOpen":"00:00","weekendClose":"00:00","holidayOpen":"00:00","holidayClose":"00:00","feeInfo":"기본 30분 500원 / 추가 10분당 200원","phone":"031-880-4008","updatedAt":"2025-12-29","sido":"경기도","sigungu":"여주시","dong":"창동"},{"name":"청심로(코아인테리어 ～ 상리정미소)","type":"공영","category":"노상","address":"경기도 여주시 청심로 186","lat":37.29646503,"lng":127.6405433,"totalSpaces":20,"isFree":false,"operatingDays":"평일","weekdayOpen":"10:00","weekdayClose":"19:00","weekendOpen":"00:00","weekendClose":"00:00","holidayOpen":"00:00","holidayClose":"00:00","feeInfo":"기본 30분 500원 / 추가 10분당 200원","phone":"031-880-4008","updatedAt":"2025-12-29","sido":"경기도","sigungu":"여주시","dong":"상동"},{"name":"세종로(국민은행 ～ 구법원입구)","type":"공영","category":"노상","address":"경기도 여주시 홍문동 227","lat":37.29324255,"lng":127.6359097,"totalSpaces":18,"isFree":false,"operatingDays":"평일","weekdayOpen":"10:00","weekdayClose":"19:00","weekendOpen":"00:00","weekendClose":"00:00","holidayOpen":"00:00","holidayClose":"00:00","feeInfo":"기본 30분 500원 / 추가 10분당 200원","phone":"031-880-4008","updatedAt":"2025-12-29","sido":"경기도","sigungu":"여주시","dong":"홍문동"},{"name":"세종로(여주홈마트 ～ 터미널)","type":"공영","category":"노상","address":"경기도 여주시 세종로 67","lat":37.29188971,"lng":127.6360842319,"totalSpaces":18,"isFree":false,"operatingDays":"평일","weekdayOpen":"10:00","weekdayClose":"19:00","weekendOpen":"00:00","weekendClose":"00:00","holidayOpen":"00:00","holidayClose":"00:00","feeInfo":"기본 30분 500원 / 추가 10분당 200원","phone":"031-880-4008","updatedAt":"2025-12-29","sido":"경기도","sigungu":"여주시","dong":"홍문동"},{"name":"여흥로(여흥동사무소 ～ 여흥초교 후문)","type":"공영","category":"노상","address":"경기도 여주시 여흥로 151-2","lat":37.2954738,"lng":127.6403127,"totalSpaces":16,"isFree":false,"operatingDays":"평일","weekdayOpen":"10:00","weekdayClose":"19:00","weekendOpen":"00:00","weekendClose":"00:00","holidayOpen":"00:00","holidayClose":"00:00","feeInfo":"기본 30분 500원 / 추가 10분당 200원","phone":"031-880-4008","updatedAt":"2025-12-29","sido":"경기도","sigungu":"여주시","dong":"상동"},{"name":"세종로(시청앞 ～ 농협)","type":"공영","category":"노상","address":"경기도 여주시 홍문동 15-10","lat":37.29718729,"lng":127.6369498,"totalSpaces":12,"isFree":false,"operatingDays":"평일","weekdayOpen":"10:00","weekdayClose":"19:00","weekendOpen":"00:00","weekendClose":"00:00","holidayOpen":"00:00","holidayClose":"00:00","feeInfo":"기본 30분 500원 / 추가 10분당 200원","phone":"031-880-4008","updatedAt":"2025-12-29","sido":"경기도","sigungu":"여주시","dong":"홍문동"},{"name":"청심로(시청옆)","type":"공영","category":"노상","address":"경기도 여주시 청심로 155-12","lat":37.29805462,"lng":127.6379386,"totalSpaces":12,"isFree":false,"operatingDays":"평일","weekdayOpen":"10:00","weekdayClose":"19:00","weekendOpen":"00:00","weekendClose":"00:00","holidayOpen":"00:00","holidayClose":"00:00","feeInfo":"기본 30분 500원 / 추가 10분당 200원","phone":"031-880-4008","updatedAt":"2025-12-29","sido":"경기도","sigungu":"여주시","dong":"홍문동"},{"name":"세종로(기아자동차 ～ 백악관웨딩홀)","type":"공영","category":"노상","address":"경기도 여주시 홍문동 290","lat":37.2906526,"lng":127.634977,"totalSpaces":10,"isFree":false,"operatingDays":"평일","weekdayOpen":"10:00","weekdayClose":"19:00","weekendOpen":"00:00","weekendClose":"00:00","holidayOpen":"00:00","holidayClose":"00:00","feeInfo":"기본 30분 500원 / 추가 10분당 200원","phone":"031-880-4008","updatedAt":"2025-12-29","sido":"경기도","sigungu":"여주시","dong":"홍문동"},{"name":"세종로(우리은행 앞)","type":"공영","category":"노상","address":"경기도 여주시 홍문동 72-8","lat":37.29493135,"lng":127.6366953,"totalSpaces":10,"isFree":false,"operatingDays":"평일","weekdayOpen":"10:00","weekdayClose":"19:00","weekendOpen":"00:00","weekendClose":"00:00","holidayOpen":"00:00","holidayClose":"00:00","feeInfo":"기본 30분 500원 / 추가 10분당 200원","phone":"031-880-4008","updatedAt":"2025-12-29","sido":"경기도","sigungu":"여주시","dong":"홍문동"},{"name":"세종로(문구나라 ～ 코렉스자전거)","type":"공영","category":"노상","address":"경기도 여주시 창동 161-2","lat":37.29269872,"lng":127.6355282,"totalSpaces":8,"isFree":false,"operatingDays":"평일","weekdayOpen":"10:00","weekdayClose":"19:00","weekendOpen":"00:00","weekendClose":"00:00","holidayOpen":"00:00","holidayClose":"00:00","feeInfo":"기본 30분 500원 / 추가 10분당 200원","phone":"031-880-4008","updatedAt":"2025-12-29","sido":"경기도","sigungu":"여주시","dong":"창동"}]}