{"sido":"경기도","sigungu":"의왕시","totalCount":55,"validCount":55,"items":[{"name":"오전로 노상주차장","type":"공영","category":"노상","address":"경기도 의왕시 오전동 862","lat":37.35443569,"lng":126.9757039,"totalSpaces":70,"isFree":true,"operatingDays":"평일+토요일+공휴일","weekdayOpen":"00:00","weekdayClose":"23:59","weekendOpen":"00:00","weekendClose":"23:59","holidayOpen":"00:00","holidayClose":"23:59","feeInfo":"무료","phone":"031-8086-7469","updatedAt":"2025-07-10","sido":"경기도","sigungu":"의왕시","dong":"오전동"},{"name":"글로벌인재센터옆","type":"공영","category":"노외","address":"경기도 의왕시 복지로 36","lat":37.382234,"lng":126.976921,"totalSpaces":64,"isFree":true,"operatingDays":"평일+토요일+공휴일","weekdayOpen":"00:00","weekdayClose":"23:59","weekendOpen":"00:00","weekendClose":"23:59","holidayOpen":"00:00","holidayClose":"23:59","feeInfo":"무료","phone":"031-8086-7469","updatedAt":"2025-07-10","sido":"경기도","sigungu":"의왕시","dong":"내손동"},{"name":"경수대로391번길 노상주차장","type":"공영","category":"노상","address":"경기도 의왕시 경수대로391번길 7","lat":37.358747,"lng":126.963923,"totalSpaces":54,"isFree":true,"operatingDays":"평일+토요일+공휴일","weekdayOpen":"00:00","weekdayClose":"23:59","weekendOpen":"00:00","weekendClose":"23:59","holidayOpen":"00:00","holidayClose":"23:59","feeInfo":"무료","phone":"031-8086-7469","updatedAt":"2025-07-10","sido":"경기도","sigungu":"의왕시","dong":"오전동"},{"name":"철도박물관로 노상주차장","type":"공영","category":"노상","address":"경기도 의왕시 월암동 380-2","lat":37.31319435,"lng":126.952682,"totalSpaces":49,"isFree":true,"operatingDays":"평일+토요일+공휴일","weekdayOpen":"00:00","weekdayClose":"23:59","weekendOpen":"00:00","weekendClose":"23:59","holidayOpen":"00:00","holidayClose":"23:59","feeInfo":"무료","phone":"031-8086-7469","updatedAt":"2025-07-10","sido":"경기도","sigungu":"의왕시","dong":"월암동"},{"name":"복지로1 노상주차장","type":"공영","category":"노상","address":"경기도 의왕시 내손동 713-4","lat":37.38562036,"lng":126.9817777,"totalSpaces":49,"isFree":true,"operatingDays":"평일+토요일+공휴일","weekdayOpen":"00:00","weekdayClose":"23:59","weekendOpen":"00:00","weekendClose":"23:59","holidayOpen":"00:00","holidayClose":"23:59","feeInfo":"무료","phone":"031-8086-7469","updatedAt":"2025-07-10","sido":"경기도","sigungu":"의왕시","dong":"내손동"},{"name":"위인로 노상주차장","type":"공영","category":"노상","address":"경기도 의왕시 위인로 18","lat":37.344287,"lng":126.978142,"totalSpaces":35,"isFree":true,"operatingDays":"평일+토요일+공휴일","weekdayOpen":"00:00","weekdayClose":"23:59","weekendOpen":"00:00","weekendClose":"23:59","holidayOpen":"00:00","holidayClose":"23:59","feeInfo":"무료","phone":"031-8086-7469","updatedAt":"2025-07-10","sido":"경기도","sigungu":"의왕시","dong":"왕곡동"},{"name":"내손공원길 노상주차장","type":"공영","category":"노상","address":"경기도 의왕시 내손동 713-8","lat":37.38642789,"lng":126.9844564,"totalSpaces":34,"isFree":true,"operatingDays":"평일+토요일+공휴일","weekdayOpen":"00:00","weekdayClose":"23:59","weekendOpen":"00:00","weekendClose":"23:59","holidayOpen":"00:00","holidayClose":"23:59","feeInfo":"무료","phone":"031-8086-7469","updatedAt":"2025-07-10","sido":"경기도","sigungu":"의왕시","dong":"내손동"},{"name":"민방위교육장 주차장","type":"공영","category":"노외","address":"경기도 의왕시 내손중앙로 44","lat":37.386601,"lng":126.980555,"totalSpaces":30,"isFree":true,"operatingDays":"평일+토요일+공휴일","weekdayOpen":"00:00","weekdayClose":"23:59","weekendOpen":"00:00","weekendClose":"23:59","holidayOpen":"00:00","holidayClose":"23:59","feeInfo":"무료","phone":"031-8086-7469","updatedAt":"2025-07-10","sido":"경기도","sigungu":"의왕시","dong":"내손동"},{"name":"맑은내1길 노상주차장","type":"공영","category":"노상","address":"경기도 의왕시 맑은내1길","lat":37.355142,"lng":126.9645297,"totalSpaces":28,"isFree":true,"operatingDays":"평일+토요일+공휴일","weekdayOpen":"00:00","weekdayClose":"23:59","weekendOpen":"00:00","weekendClose":"23:59","holidayOpen":"00:00","holidayClose":"23:59","feeInfo":"무료","phone":"031-8086-7469","updatedAt":"2025-07-10","sido":"경기도","sigungu":"의왕시","dong":"고천동"},{"name":"이면도로 주차장","type":"공영","category":"노상","address":"경기도 의왕시 내손중앙3길","lat":37.385479,"lng":126.981793,"totalSpaces":27,"isFree":true,"operatingDays":"평일+토요일+공휴일","weekdayOpen":"00:00","weekdayClose":"23:59","weekendOpen":"00:00","weekendClose":"23:59","holidayOpen":"00:00","holidayClose":"23:59","feeInfo":"무료","phone":"031-8086-7469","updatedAt":"2025-07-10","sido":"경기도","sigungu":"의왕시","dong":"내손동"},{"name":"한백이길 노상주차장","type":"공영","category":"노상","address":"경기도 의왕시 한백이길 7(삼동)","lat":37.3223356,"lng":126.9493223,"totalSpaces":22,"isFree":true,"operatingDays":"평일+토요일+공휴일","weekdayOpen":"00:00","weekdayClose":"23:59","weekendOpen":"00:00","weekendClose":"23:59","holidayOpen":"00:00","holidayClose":"23:59","feeInfo":"무료","phone":"031-8086-7469","updatedAt":"2025-07-10","sido":"경기도","sigungu":"의왕시","dong":"삼동"},{"name":"이면도로 주차장","type":"공영","category":"노상","address":"경기도 의왕시 내손중앙6길","lat":37.384646,"lng":126.982805,"totalSpaces":21,"isFree":true,"operatingDays":"평일+토요일+공휴일","weekdayOpen":"00:00","weekdayClose":"23:59","weekendOpen":"00:00","weekendClose":"23:59","holidayOpen":"00:00","holidayClose":"23:59","feeInfo":"무료","phone":"031-8086-7469","updatedAt":"2025-07-10","sido":"경기도","sigungu":"의왕시","dong":"내손동"},{"name":"오전천복개2","type":"공영","category":"노상","address":"경기도 의왕시 오전천로29","lat":37.35027993,"lng":126.976795,"totalSpaces":20,"isFree":true,"operatingDays":"평일+토요일+공휴일","weekdayOpen":"00:00","weekdayClose":"23:59","weekendOpen":"00:00","weekendClose":"23:59","holidayOpen":"00:00","holidayClose":"23:59","feeInfo":"무료","phone":"031-8086-7469","updatedAt":"2025-07-10","sido":"경기도","sigungu":"의왕시","dong":"오전동"},{"name":"등칙골길 노상주차장","type":"공영","category":"노상","address":"경기도 의왕시 등칙골길 28(오전동)","lat":37.35203705,"lng":126.9755771,"totalSpaces":20,"isFree":true,"operatingDays":"평일+토요일+공휴일","weekdayOpen":"00:00","weekdayClose":"23:59","weekendOpen":"00:00","weekendClose":"23:59","holidayOpen":"00:00","holidayClose":"23:59","feeInfo":"무료","phone":"031-8086-7469","updatedAt":"2025-07-10","sido":"경기도","sigungu":"의왕시","dong":"오전동"},{"name":"내손중앙로1 노상주차장","type":"공영","category":"노상","address":"경기도 의왕시 내손동 713-4","lat":37.38562036,"lng":126.9817777,"totalSpaces":17,"isFree":true,"operatingDays":"평일+토요일+공휴일","weekdayOpen":"00:00","weekdayClose":"23:59","weekendOpen":"00:00","weekendClose":"23:59","holidayOpen":"00:00","holidayClose":"23:59","feeInfo":"무료","phone":"031-8086-7469","updatedAt":"2025-07-10","sido":"경기도","sigungu":"의왕시","dong":"내손동"},{"name":"현충탑길 노상주차장","type":"공영","category":"노상","address":"경기도 의왕시 현충탑길 30(고천동)","lat":37.34865036,"lng":126.9774462,"totalSpaces":16,"isFree":true,"operatingDays":"평일+토요일+공휴일","weekdayOpen":"00:00","weekdayClose":"23:59","weekendOpen":"00:00","weekendClose":"23:59","holidayOpen":"00:00","holidayClose":"23:59","feeInfo":"무료","phone":"031-8086-7469","updatedAt":"2025-07-10","sido":"경기도","sigungu":"의왕시","dong":"고천동"},{"name":"찬우물1길 노상주차장","type":"공영","category":"노상","address":"경기도 의왕시 찬우물1길 32","lat":37.354386,"lng":126.970692,"totalSpaces":16,"isFree":true,"operatingDays":"평일+토요일+공휴일","weekdayOpen":"00:00","weekdayClose":"23:59","weekendOpen":"00:00","weekendClose":"23:59","holidayOpen":"00:00","holidayClose":"23:59","feeInfo":"무료","phone":"031-8086-7469","updatedAt":"2025-07-10","sido":"경기도","sigungu":"의왕시","dong":"오전동"},{"name":"학현마을 공동주차장","type":"공영","category":"노외","address":"경기도 의왕시 학의동 156-1","lat":37.389892,"lng":127.013989,"totalSpaces":15,"isFree":true,"operatingDays":"평일+토요일+공휴일","weekdayOpen":"00:00","weekdayClose":"23:59","weekendOpen":"00:00","weekendClose":"23:59","holidayOpen":"00:00","holidayClose":"23:59","feeInfo":"무료","phone":"031-8086-7469","updatedAt":"2025-07-10","sido":"경기도","sigungu":"의왕시","dong":"학의동"},{"name":"사그내4길 노상주차장","type":"공영","category":"노상","address":"경기도 의왕시 사그내4길","lat":37.3483882,"lng":126.9767215,"totalSpaces":15,"isFree":true,"operatingDays":"평일+토요일+공휴일","weekdayOpen":"00:00","weekdayClose":"23:59","weekendOpen":"00:00","weekendClose":"23:59","holidayOpen":"00:00","holidayClose":"23:59","feeInfo":"무료","phone":"031-8086-7469","updatedAt":"2025-07-10","sido":"경기도","sigungu":"의왕시","dong":"고천동"},{"name":"내손중앙로2 노상주차장","type":"공영","category":"노상","address":"경기도 의왕시 내손순환로 4(내손동)","lat":37.38814078,"lng":126.9746193,"totalSpaces":14,"isFree":true,"operatingDays":"평일+토요일+공휴일","weekdayOpen":"00:00","weekdayClose":"23:59","weekendOpen":"00:00","weekendClose":"23:59","holidayOpen":"00:00","holidayClose":"23:59","feeInfo":"무료","phone":"031-8086-7469","updatedAt":"2025-07-10","sido":"경기도","sigungu":"의왕시","dong":"내손동"},{"name":"부곡중앙로 노상주차장","type":"공영","category":"노상","address":"경기도 의왕시 부곡중앙로 51","lat":37.32133935,"lng":126.9547145,"totalSpaces":14,"isFree":true,"operatingDays":"평일+토요일+공휴일","weekdayOpen":"00:00","weekdayClose":"23:59","weekendOpen":"00:00","weekendClose":"23:59","holidayOpen":"00:00","holidayClose":"23:59","feeInfo":"무료","phone":"031-8086-7469","updatedAt":"2025-07-10","sido":"경기도","sigungu":"의왕시","dong":"삼동"},{"name":"내손순환로 노상주차장","type":"공영","category":"노상","address":"경기도 의왕시 내손동 713-3","lat":37.38768991,"lng":126.9842064,"totalSpaces":14,"isFree":true,"operatingDays":"평일+토요일+공휴일","weekdayOpen":"00:00","weekdayClose":"23:59","weekendOpen":"00:00","weekendClose":"23:59","holidayOpen":"00:00","holidayClose":"23:59","feeInfo":"무료","phone":"031-8086-7469","updatedAt":"2025-07-10","sido":"경기도","sigungu":"의왕시","dong":"내손동"},{"name":"흥안대로 434번길 노상주차장","type":"공영","category":"노상","address":"경기도 의왕시 흥안대로434번길 77","lat":37.392149,"lng":126.979709,"totalSpaces":14,"isFree":true,"operatingDays":"평일+토요일+공휴일","weekdayOpen":"00:00","weekdayClose":"23:59","weekendOpen":"00:00","weekendClose":"23:59","holidayOpen":"00:00","holidayClose":"23:59","feeInfo":"무료","phone":"031-8086-7469","updatedAt":"2025-07-10","sido":"경기도","sigungu":"의왕시","dong":"포일동"},{"name":"양지편마을 공영주차장","type":"공영","category":"노외","address":"경기도 의왕시 청계2로","lat":37.393378,"lng":126.997799,"totalSpaces":13,"isFree":true,"operatingDays":"평일+토요일+공휴일","weekdayOpen":"00:00","weekdayClose":"23:59","weekendOpen":"00:00","weekendClose":"23:59","holidayOpen":"00:00","holidayClose":"23:59","feeInfo":"무료","phone":"031-8086-7469","updatedAt":"2025-07-10","sido":"경기도","sigungu":"의왕시","dong":"청계동"},{"name":"맑은내길 노상주차장","type":"공영","category":"노상","address":"경기도 의왕시 맑은내길 67(오전동)","lat":37.35632928,"lng":126.9627934,"totalSpaces":12,"isFree":true,"operatingDays":"평일+토요일+공휴일","weekdayOpen":"00:00","weekdayClose":"23:59","weekendOpen":"00:00","weekendClose":"23:59","holidayOpen":"00:00","holidayClose":"23:59","feeInfo":"무료","phone":"031-8086-7469","updatedAt":"2025-07-10","sido":"경기도","sigungu":"의왕시","dong":"오전동"},{"name":"왕송못서길2 노상주차장","type":"공영","category":"노상","address":"경기도 의왕시 초평동 583-30","lat":37.30350771,"lng":126.9425322,"totalSpaces":12,"isFree":true,"operatingDays":"평일+토요일+공휴일","weekdayOpen":"00:00","weekdayClose":"23:59","weekendOpen":"00:00","weekendClose":"23:59","holidayOpen":"00:00","holidayClose":"23:59","feeInfo":"무료","phone":"031-8086-7469","updatedAt":"2025-07-10","sido":"경기도","sigungu":"의왕시","dong":"초평동"},{"name":"부곡시장길 공영주차장","type":"공영","category":"노외","address":"경기도 의왕시 삼동 192-475","lat":37.31830407,"lng":126.9534428,"totalSpaces":10,"isFree":true,"operatingDays":"평일+토요일+공휴일","weekdayOpen":"00:00","weekdayClose":"23:59","weekendOpen":"00:00","weekendClose":"23:59","holidayOpen":"00:00","holidayClose":"23:59","feeInfo":"무료","phone":"031-8086-7469","updatedAt":"2025-07-10","sido":"경기도","sigungu":"의왕시","dong":"삼동"},{"name":"내손중앙2길 노상주차장","type":"공영","category":"노상","address":"경기도 의왕시 내손중앙2길","lat":37.38642789,"lng":126.9844564,"totalSpaces":7,"isFree":true,"operatingDays":"평일+토요일+공휴일","weekdayOpen":"00:00","weekdayClose":"23:59","weekendOpen":"00:00","weekendClose":"23:59","holidayOpen":"00:00","holidayClose":"23:59","feeInfo":"무료","phone":"031-8086-7469","updatedAt":"2025-07-10","sido":"경기도","sigungu":"의왕시","dong":"내손동"},{"name":"부곡초등3길 노상주차장","type":"공영","category":"노상","address":"경기도 의왕시 삼동 146-130","lat":37.31741124,"lng":126.9530746,"totalSpaces":7,"isFree":true,"operatingDays":"평일+토요일+공휴일","weekdayOpen":"00:00","weekdayClose":"23:59","weekendOpen":"00:00","weekendClose":"23:59","holidayOpen":"00:00","holidayClose":"23:59","feeInfo":"무료","phone":"031-8086-7469","updatedAt":"2025-07-10","sido":"경기도","sigungu":"의왕시","dong":"삼동"},{"name":"왕송못서길1 노상주차장","type":"공영","category":"노상","address":"경기도 의왕시 초평동 278-11","lat":37.31152596,"lng":126.9440928,"totalSpaces":7,"isFree":true,"operatingDays":"평일+토요일+공휴일","weekdayOpen":"00:00","weekdayClose":"23:59","weekendOpen":"00:00","weekendClose":"23:59","holidayOpen":"00:00","holidayClose":"23:59","feeInfo":"무료","phone":"031-8086-7469","updatedAt":"2025-07-10","sido":"경기도","sigungu":"의왕시","dong":"초평동"},{"name":"부곡중앙북4길 노상주차장","type":"공영","category":"노상","address":"경기도 의왕시 부곡중앙북4길","lat":37.32256593,"lng":126.9518815,"totalSpaces":5,"isFree":true,"operatingDays":"평일+토요일+공휴일","weekdayOpen":"00:00","weekdayClose":"23:59","weekendOpen":"00:00","weekendClose":"23:59","holidayOpen":"00:00","holidayClose":"23:59","feeInfo":"무료","phone":"031-8086-7469","updatedAt":"2025-07-10","sido":"경기도","sigungu":"의왕시","dong":"삼동"},{"name":"부곡중앙남1길 노상주차장","type":"공영","category":"노상","address":"경기도 의왕시 부곡중앙남1길","lat":37.318841,"lng":126.950221,"totalSpaces":4,"isFree":true,"operatingDays":"평일+토요일+공휴일","weekdayOpen":"00:00","weekdayClose":"23:59","weekendOpen":"00:00","weekendClose":"23:59","holidayOpen":"00:00","holidayClose":"23:59","feeInfo":"무료","phone":"031-8086-7469","updatedAt":"2025-07-10","sido":"경기도","sigungu":"의왕시","dong":""},{"name":"오전동 자투리주차장","type":"공영","category":"노상","address":"경기도 의왕시 전주남이길","lat":37.35110383,"lng":126.9754654,"totalSpaces":4,"isFree":true,"operatingDays":"평일+토요일+공휴일","weekdayOpen":"00:00","weekdayClose":"23:59","weekendOpen":"00:00","weekendClose":"23:59","holidayOpen":"00:00","holidayClose":"23:59","feeInfo":"무료","phone":"031-8086-7469","updatedAt":"2025-07-10","sido":"경기도","sigungu":"의왕시","dong":"오전동"},{"name":"백운호수제방 공영주차장","type":"공영","category":"노외","address":"경기도 의왕시 백운로 526","lat":37.383213,"lng":127.000759,"totalSpaces":473,"isFree":false,"operatingDays":"평일+토요일+공휴일","weekdayOpen":"00:00","weekdayClose":"23:59","weekendOpen":"00:00","weekendClose":"23:59","holidayOpen":"00:00","holidayClose":"23:59","feeInfo":"기본 60분 1,000원 / 추가 120분당 1,000원","phone":"031-8086-7469","updatedAt":"2025-07-10","sido":"경기도","sigungu":"의왕시","dong":"학의동"},{"name":"왕송호수공원 공영주차장","type":"공영","category":"노외","address":"경기도 의왕시 왕송못동로 307","lat":37.307106,"lng":126.953146,"totalSpaces":438,"isFree":false,"operatingDays":"평일+토요일+공휴일","weekdayOpen":"00:00","weekdayClose":"23:59","weekendOpen":"00:00","weekendClose":"23:59","holidayOpen":"00:00","holidayClose":"23:59","feeInfo":"기본 60분 1,000원 / 추가 120분당 1,000원","phone":"031-8086-7469","updatedAt":"2025-07-10","sido":"경기도","sigungu":"의왕시","dong":"월암동"},{"name":"의왕역 공영주차장","type":"공영","category":"노외","address":"경기도 의왕시 한백이길 7","lat":37.3223356,"lng":126.9493223,"totalSpaces":237,"isFree":false,"operatingDays":"평일+토요일+공휴일","weekdayOpen":"08:00","weekdayClose":"20:00","weekendOpen":"00:00","weekendClose":"23:59","holidayOpen":"00:00","holidayClose":"23:59","feeInfo":"기본 30분 600원 / 추가 10분당 200원","phone":"031-8086-7469","updatedAt":"2025-07-10","sido":"경기도","sigungu":"의왕시","dong":"삼동"},{"name":"내손체육공원 주차빌딩","type":"공영","category":"노외","address":"경기도 의왕시 내손순환로 139","lat":37.386975,"lng":126.984169,"totalSpaces":164,"isFree":false,"operatingDays":"평일+토요일+공휴일","weekdayOpen":"00:00","weekdayClose":"23:59","weekendOpen":"00:00","weekendClose":"23:59","holidayOpen":"00:00","holidayClose":"23:59","feeInfo":"기본 30분 600원 / 추가 10분당 200원","phone":"031-8086-7469","updatedAt":"2025-07-10","sido":"경기도","sigungu":"의왕시","dong":"내손동"},{"name":"산빛근린공원 공영주차장","type":"공영","category":"노외","address":"경기도 의왕시 이미로 34","lat":37.39916474,"lng":126.9880194,"totalSpaces":154,"isFree":false,"operatingDays":"평일+토요일+공휴일","weekdayOpen":"00:00","weekdayClose":"23:59","weekendOpen":"00:00","weekendClose":"23:59","holidayOpen":"00:00","holidayClose":"23:59","feeInfo":"기본 30분 500원 / 추가 10분당 200원","phone":"031-8086-7469","updatedAt":"2025-07-10","sido":"경기도","sigungu":"의왕시","dong":"포일동"},{"name":"내손 제3공영주차장","type":"공영","category":"노외","address":"경기도 의왕시 내손중앙로 46-9","lat":37.38548384,"lng":126.9792538,"totalSpaces":151,"isFree":false,"operatingDays":"평일+토요일+공휴일","weekdayOpen":"00:00","weekdayClose":"23:59","weekendOpen":"00:00","weekendClose":"23:59","holidayOpen":"00:00","holidayClose":"23:59","feeInfo":"기본 30분 600원 / 추가 10분당 200원","phone":"031-8086-7469","updatedAt":"2025-07-10","sido":"경기도","sigungu":"의왕시","dong":"내손동"},{"name":"청계산 공영주차장","type":"공영","category":"노외","address":"경기도 의왕시 청계동 77","lat":37.40581364,"lng":127.0252718,"totalSpaces":145,"isFree":false,"operatingDays":"평일+토요일+공휴일","weekdayOpen":"00:00","weekdayClose":"23:59","weekendOpen":"00:00","weekendClose":"23:59","holidayOpen":"00:00","holidayClose":"23:59","feeInfo":"기본 60분 1,000원 / 추가 120분당 1,000원","phone":"031-8086-7469","updatedAt":"2025-07-10","sido":"경기도","sigungu":"의왕시","dong":"청계동"},{"name":"포일숲속마을 공영주차장","type":"공영","category":"노외","address":"경기도 의왕시 이미로 16-7(포일동)","lat":37.4003113,"lng":126.9890705,"totalSpaces":138,"isFree":false,"operatingDays":"평일+토요일+공휴일","weekdayOpen":"00:00","weekdayClose":"23:59","weekendOpen":"00:00","weekendClose":"23:59","holidayOpen":"00:00","holidayClose":"23:59","feeInfo":"기본 30분 600원 / 추가 10분당 200원","phone":"031-8086-7469","updatedAt":"2025-07-10","sido":"경기도","sigungu":"의왕시","dong":"포일동"},{"name":"백운호수교각 공영주차장","type":"공영","category":"노외","address":"경기도 의왕시 의일로 25","lat":37.37435046,"lng":127.006204,"totalSpaces":92,"isFree":false,"operatingDays":"평일+토요일+공휴일","weekdayOpen":"00:00","weekdayClose":"23:59","weekendOpen":"00:00","weekendClose":"23:59","holidayOpen":"00:00","holidayClose":"23:59","feeInfo":"기본 60분 1,000원 / 추가 120분당 1,000원","phone":"031-8086-7469","updatedAt":"2025-07-10","sido":"경기도","sigungu":"의왕시","dong":"학의동"},{"name":"왕송호수 공영주차장","type":"공영","category":"노외","address":"경기도 의왕시 초평로 2","lat":37.318345,"lng":126.945771,"totalSpaces":87,"isFree":false,"operatingDays":"평일+토요일+공휴일","weekdayOpen":"00:00","weekdayClose":"23:59","weekendOpen":"00:00","weekendClose":"23:59","holidayOpen":"00:00","holidayClose":"23:59","feeInfo":"기본 60분 1,000원 / 추가 120분당 1,000원","phone":"031-8086-7469","updatedAt":"2025-07-10","sido":"경기도","sigungu":"의왕시","dong":"초평동"},{"name":"고천주민센터 공영주차장","type":"공영","category":"노외","address":"경기도 의왕시 사천로 11","lat":37.34580156,"lng":126.976896,"totalSpaces":86,"isFree":false,"operatingDays":"평일+토요일","weekdayOpen":"08:00","weekdayClose":"22:00","weekendOpen":"08:00","weekendClose":"22:00","holidayOpen":"00:00","holidayClose":"00:00","feeInfo":"기본 30분 800원 / 추가 10분당 300원","phone":"031-8086-7469","updatedAt":"2025-07-10","sido":"경기도","sigungu":"의왕시","dong":"왕곡동"},{"name":"고천지구 공영주차장","type":"공영","category":"노외","address":"경기도 의왕시 고천동 114-1","lat":37.342331,"lng":126.9707875,"totalSpaces":85,"isFree":false,"operatingDays":"평일+토요일+공휴일","weekdayOpen":"00:00","weekdayClose":"23:59","weekendOpen":"00:00","weekendClose":"23:59","holidayOpen":"00:00","holidayClose":"23:59","feeInfo":"기본 30분 600원 / 추가 10분당 200원","phone":"031-8086-7469","updatedAt":"2025-07-10","sido":"경기도","sigungu":"의왕시","dong":"고천동"},{"name":"오전천복개1","type":"공영","category":"노상","address":"경기도 의왕시 고천동 306-7","lat":37.34982087,"lng":126.9753641,"totalSpaces":77,"isFree":false,"operatingDays":"평일+토요일","weekdayOpen":"09:00","weekdayClose":"20:00","weekendOpen":"09:00","weekendClose":"18:00","holidayOpen":"00:00","holidayClose":"00:00","feeInfo":"기본 30분 600원 / 추가 10분당 200원","phone":"031-8086-7469","updatedAt":"2025-07-10","sido":"경기도","sigungu":"의왕시","dong":"고천동"},{"name":"내손 제1공영주차장","type":"공영","category":"노외","address":"경기도 의왕시 내손순환로 58","lat":37.383625,"lng":126.977702,"totalSpaces":76,"isFree":false,"operatingDays":"평일+토요일+공휴일","weekdayOpen":"00:00","weekdayClose":"23:59","weekendOpen":"00:00","weekendClose":"23:59","holidayOpen":"00:00","holidayClose":"23:59","feeInfo":"기본 30분 600원 / 추가 10분당 200원","phone":"031-8086-7469","updatedAt":"2025-07-10","sido":"경기도","sigungu":"의왕시","dong":"내손동"},{"name":"서울외곽순환고속도로하부","type":"공영","category":"노상","address":"경기도 의왕시 계원대학로 2","lat":37.379775,"lng":126.971633,"totalSpaces":70,"isFree":false,"operatingDays":"평일+토요일","weekdayOpen":"09:00","weekdayClose":"20:00","weekendOpen":"09:00","weekendClose":"18:00","holidayOpen":"00:00","holidayClose":"00:00","feeInfo":"기본 30분 800원 / 추가 10분당 300원","phone":"031-8086-7469","updatedAt":"2025-07-10","sido":"경기도","sigungu":"의왕시","dong":"내손동"},{"name":"내손 제2공영주차장","type":"공영","category":"노외","address":"경기도 의왕시 민백길 4","lat":37.386028,"lng":126.973424,"totalSpaces":68,"isFree":false,"operatingDays":"평일+토요일+공휴일","weekdayOpen":"00:00","weekdayClose":"23:59","weekendOpen":"00:00","weekendClose":"23:59","holidayOpen":"00:00","holidayClose":"23:59","feeInfo":"기본 30분 600원 / 추가 10분당 200원","phone":"031-8086-7469","updatedAt":"2025-07-10","sido":"경기도","sigungu":"의왕시","dong":"내손동"},{"name":"갈미어린이공원 공영주차장","type":"공영","category":"노외","address":"경기도 의왕시 오리나무1길 13(내손동)","lat":37.37526656,"lng":126.9688645,"totalSpaces":66,"isFree":false,"operatingDays":"평일+토요일+공휴일","weekdayOpen":"00:00","weekdayClose":"23:59","weekendOpen":"00:00","weekendClose":"23:59","holidayOpen":"00:00","holidayClose":"23:59","feeInfo":"기본 30분 600원 / 추가 10분당 200원","phone":"031-8086-7469","updatedAt":"2025-07-10","sido":"경기도","sigungu":"의왕시","dong":"내손동"},{"name":"백운커뮤니티센터 주차타워","type":"공영","category":"노외","address":"경기도 의왕시 백운중앙로 78","lat":37.37014745,"lng":127.0082079,"totalSpaces":60,"isFree":false,"operatingDays":"평일+토요일+공휴일","weekdayOpen":"00:00","weekdayClose":"23:59","weekendOpen":"00:00","weekendClose":"23:59","holidayOpen":"00:00","holidayClose":"23:59","feeInfo":"기본 30분 600원 / 추가 10분당 200원","phone":"031-8086-7469","updatedAt":"2025-07-10","sido":"경기도","sigungu":"의왕시","dong":"학의동"},{"name":"계원대학로 제2 공영주차장","type":"공영","category":"노외","address":"경기도 의왕시 내손동 745","lat":37.37972687,"lng":126.9736243,"totalSpaces":38,"isFree":false,"operatingDays":"평일+토요일+공휴일","weekdayOpen":"00:00","weekdayClose":"23:59","weekendOpen":"00:00","weekendClose":"23:59","holidayOpen":"00:00","holidayClose":"23:59","feeInfo":"기본 30분 800원 / 추가 10분당 300원","phone":"031-8086-7469","updatedAt":"2025-07-10","sido":"경기도","sigungu":"의왕시","dong":"내손동"},{"name":"왕곡천복개주차장","type":"공영","category":"노상","address":"경기도 의왕시 왕곡로16","lat":37.346728,"lng":126.976186,"totalSpaces":32,"isFree":false,"operatingDays":"평일+토요일","weekdayOpen":"09:00","weekdayClose":"20:00","weekendOpen":"09:00","weekendClose":"18:00","holidayOpen":"00:00","holidayClose":"00:00","feeInfo":"기본 30분 800원 / 추가 10분당 300원","phone":"031-8086-7469","updatedAt":"2025-07-10","sido":"경기도","sigungu":"의왕시","dong":"왕곡동"},{"name":"왕송고가하부 공영주차장","type":"공영","category":"노외","address":"경기도 의왕시 부곡중앙로 24","lat":37.32674157,"lng":126.9489125,"totalSpaces":31,"isFree":false,"operatingDays":"평일+토요일+공휴일","weekdayOpen":"00:00","weekdayClose":"23:59","weekendOpen":"00:00","weekendClose":"23:59","holidayOpen":"00:00","holidayClose":"23:59","feeInfo":"기본 30분 500원 / 추가 10분당 200원","phone":"031-8086-7469","updatedAt":"2025-07-10","sido":"경기도","sigungu":"의왕시","dong":"삼동"},{"name":"내손 제4공영주차장","type":"공영","category":"노외","address":"경기도 의왕시 내손중앙로 45-8","lat":37.38693266,"lng":126.9812378,"totalSpaces":20,"isFree":false,"operatingDays":"평일+토요일+공휴일","weekdayOpen":"00:00","weekdayClose":"23:59","weekendOpen":"00:00","weekendClose":"23:59","holidayOpen":"00:00","holidayClose":"23:59","feeInfo":"기본 30분 600원 / 추가 10분당 200원","phone":"031-8086-7469","updatedAt":"2025-07-10","sido":"경기도","sigungu":"의왕시","dong":"내손동"}]}