{"sido":"경기도","sigungu":"이천시","totalCount":113,"validCount":113,"items":[{"name":"장호원노상주차장(11개소)","type":"공영","category":"노상","address":"경기도 이천시 장호원읍 장감로 71","lat":37.11728259,"lng":127.6305842,"totalSpaces":657,"isFree":true,"operatingDays":"평일","weekdayOpen":"00:00","weekdayClose":"23:59","weekendOpen":"00:00","weekendClose":"00:00","holidayOpen":"00:00","holidayClose":"00:00","feeInfo":"무료","phone":"031-644-2333","updatedAt":"2025-11-26","sido":"경기도","sigungu":"이천시","dong":"장호원읍"},{"name":"백사 산수유꽃축제 주차장","type":"공영","category":"노외","address":"경기도 이천시 백사면 원적로775번길 17","lat":37.34078051,"lng":127.4622929,"totalSpaces":359,"isFree":true,"operatingDays":"평일+토요일+공휴일","weekdayOpen":"00:00","weekdayClose":"23:59","weekendOpen":"00:00","weekendClose":"23:59","holidayOpen":"00:00","holidayClose":"23:59","feeInfo":"무료","phone":"031-644-2333","updatedAt":"2025-11-26","sido":"경기도","sigungu":"이천시","dong":"백사면"},{"name":"설봉공원주차장 제1주차장","type":"공영","category":"노외","address":"경기도 이천시 관고동 355-2","lat":37.2786865,"lng":127.4279078,"totalSpaces":239,"isFree":true,"operatingDays":"평일+토요일+공휴일","weekdayOpen":"00:00","weekdayClose":"23:59","weekendOpen":"00:00","weekendClose":"23:59","holidayOpen":"00:00","holidayClose":"23:59","feeInfo":"무료","phone":"031-644-2333","updatedAt":"2025-11-26","sido":"경기도","sigungu":"이천시","dong":"관고동"},{"name":"장호원읍 오남리 재래시장 주차장","type":"공영","category":"노외","address":"경기도 이천시 장호원읍 서동대로8965번길 43-18","lat":37.11447968,"lng":127.6301067,"totalSpaces":217,"isFree":true,"operatingDays":"평일+토요일+공휴일","weekdayOpen":"00:00","weekdayClose":"23:59","weekendOpen":"00:00","weekendClose":"23:59","holidayOpen":"00:00","holidayClose":"23:59","feeInfo":"무료","phone":"031-644-2333","updatedAt":"2025-11-26","sido":"경기도","sigungu":"이천시","dong":"장호원읍"},{"name":"부발역사 임시주차장","type":"공영","category":"노외","address":"경기도 이천시 부발읍 아미리 1227","lat":37.26100735,"lng":127.4916733,"totalSpaces":193,"isFree":true,"operatingDays":"평일+토요일+공휴일","weekdayOpen":"00:00","weekdayClose":"23:59","weekendOpen":"00:00","weekendClose":"23:59","holidayOpen":"00:00","holidayClose":"23:59","feeInfo":"무료","phone":"031-644-2333","updatedAt":"2025-11-26","sido":"경기도","sigungu":"이천시","dong":"부발읍"},{"name":"서희역사관 노외주차장","type":"공영","category":"노외","address":"경기도 이천시 부발읍 마암리 123-5","lat":37.2784251,"lng":127.4807884,"totalSpaces":182,"isFree":true,"operatingDays":"평일+토요일+공휴일","weekdayOpen":"00:00","weekdayClose":"23:59","weekendOpen":"00:00","weekendClose":"23:59","holidayOpen":"00:00","holidayClose":"23:59","feeInfo":"무료","phone":"031-644-2333","updatedAt":"2025-11-26","sido":"경기도","sigungu":"이천시","dong":"부발읍"},{"name":"설봉공원주차장 제2주차장","type":"공영","category":"노외","address":"경기도 이천시 관고동 397-1","lat":37.27594699,"lng":127.4248421,"totalSpaces":172,"isFree":true,"operatingDays":"평일+토요일+공휴일","weekdayOpen":"00:00","weekdayClose":"23:59","weekendOpen":"00:00","weekendClose":"23:59","holidayOpen":"00:00","holidayClose":"23:59","feeInfo":"무료","phone":"031-644-2333","updatedAt":"2025-11-26","sido":"경기도","sigungu":"이천시","dong":"관고동"},{"name":"망현산길노상주차장(3개소)","type":"공영","category":"노상","address":"경기도 이천시 설봉로 152","lat":37.28599691,"lng":127.4436384,"totalSpaces":118,"isFree":true,"operatingDays":"평일","weekdayOpen":"00:00","weekdayClose":"23:59","weekendOpen":"00:00","weekendClose":"00:00","holidayOpen":"00:00","holidayClose":"00:00","feeInfo":"무료","phone":"031-644-2333","updatedAt":"2025-11-26","sido":"경기도","sigungu":"이천시","dong":"창전동"},{"name":"신둔역사 임시주차장(후면)","type":"공영","category":"노외","address":"경기도 이천시 신둔면 남정리365-3","lat":37.3162512,"lng":127.4053603,"totalSpaces":114,"isFree":true,"operatingDays":"평일+토요일+공휴일","weekdayOpen":"00:00","weekdayClose":"23:59","weekendOpen":"00:00","weekendClose":"23:59","holidayOpen":"00:00","holidayClose":"23:59","feeInfo":"무료","phone":"031-644-2333","updatedAt":"2025-11-26","sido":"경기도","sigungu":"이천시","dong":"신둔면"},{"name":"향교로노상주차장(8개소)(향교~일신주유소)","type":"공영","category":"노상","address":"경기도 이천시 향교로 36","lat":37.28475923,"lng":127.4412476,"totalSpaces":81,"isFree":true,"operatingDays":"평일","weekdayOpen":"00:00","weekdayClose":"23:59","weekendOpen":"00:00","weekendClose":"00:00","holidayOpen":"00:00","holidayClose":"00:00","feeInfo":"무료","phone":"031-644-2333","updatedAt":"2025-11-26","sido":"경기도","sigungu":"이천시","dong":"창전동"},{"name":"사기막골공영노외주차장","type":"공영","category":"노외","address":"경기도 이천시 경충대로2993번길 47","lat":37.29387247,"lng":127.412267,"totalSpaces":66,"isFree":true,"operatingDays":"평일+토요일+공휴일","weekdayOpen":"00:00","weekdayClose":"23:59","weekendOpen":"00:00","weekendClose":"23:59","holidayOpen":"00:00","holidayClose":"23:59","feeInfo":"무료","phone":"031-644-2333","updatedAt":"2025-11-26","sido":"경기도","sigungu":"이천시","dong":"사음동"},{"name":"고인돌주차장","type":"공영","category":"노외","address":"경기도 이천시 신둔면 석동로161번길 116","lat":37.33214971,"lng":127.4320672,"totalSpaces":61,"isFree":true,"operatingDays":"평일+토요일+공휴일","weekdayOpen":"00:00","weekdayClose":"23:59","weekendOpen":"00:00","weekendClose":"23:59","holidayOpen":"00:00","holidayClose":"23:59","feeInfo":"무료","phone":"031-644-2333","updatedAt":"2025-11-26","sido":"경기도","sigungu":"이천시","dong":"신둔면"},{"name":"신둔도예촌역 노상주차장","type":"공영","category":"노상","address":"경기도 이천시 중리동 241","lat":37.27811396,"lng":127.445788,"totalSpaces":59,"isFree":true,"operatingDays":"평일","weekdayOpen":"00:00","weekdayClose":"23:59","weekendOpen":"00:00","weekendClose":"00:00","holidayOpen":"00:00","holidayClose":"00:00","feeInfo":"무료","phone":"031-644-2333","updatedAt":"2025-11-26","sido":"경기도","sigungu":"이천시","dong":"중리동"},{"name":"시민회관사거리~온천사거리노상주차장(3개소)","type":"공영","category":"노상","address":"경기도 이천시 영창로 260","lat":37.28043727,"lng":127.4517644,"totalSpaces":54,"isFree":true,"operatingDays":"평일","weekdayOpen":"00:00","weekdayClose":"23:59","weekendOpen":"00:00","weekendClose":"00:00","holidayOpen":"00:00","holidayClose":"00:00","feeInfo":"무료","phone":"031-644-2333","updatedAt":"2025-11-26","sido":"경기도","sigungu":"이천시","dong":"창전동"},{"name":"신둔역사 임시주차장(정면)","type":"공영","category":"노외","address":"경기도 이천시 신둔면 수광리530-1","lat":37.31461614,"lng":127.4050367,"totalSpaces":50,"isFree":true,"operatingDays":"평일+토요일+공휴일","weekdayOpen":"00:00","weekdayClose":"23:59","weekendOpen":"00:00","weekendClose":"23:59","holidayOpen":"00:00","holidayClose":"23:59","feeInfo":"무료","phone":"031-644-2333","updatedAt":"2025-11-26","sido":"경기도","sigungu":"이천시","dong":"신둔면"},{"name":"송정동 노상주차장","type":"공영","category":"노상","address":"경기도 이천시 송정동 321-2","lat":37.2965561,"lng":127.4364307,"totalSpaces":45,"isFree":true,"operatingDays":"평일","weekdayOpen":"00:00","weekdayClose":"23:59","weekendOpen":"00:00","weekendClose":"00:00","holidayOpen":"00:00","holidayClose":"00:00","feeInfo":"무료","phone":"031-644-2333","updatedAt":"2025-11-26","sido":"경기도","sigungu":"이천시","dong":"송정동"},{"name":"마장택지지구 공영주차장4","type":"공영","category":"노외","address":"경기도 이천시 마장면 오천리 472-1","lat":37.2487991,"lng":127.3596117,"totalSpaces":41,"isFree":true,"operatingDays":"평일+토요일+공휴일","weekdayOpen":"00:00","weekdayClose":"23:59","weekendOpen":"00:00","weekendClose":"23:59","holidayOpen":"00:00","holidayClose":"23:59","feeInfo":"무료","phone":"031-644-2333","updatedAt":"2025-11-26","sido":"경기도","sigungu":"이천시","dong":"마장면"},{"name":"설봉로노상주차장(3개소)(향교~관고동사무소)","type":"공영","category":"노상","address":"경기도 이천시 설봉로 87","lat":37.28437926,"lng":127.4385292,"totalSpaces":32,"isFree":true,"operatingDays":"평일","weekdayOpen":"00:00","weekdayClose":"23:59","weekendOpen":"00:00","weekendClose":"00:00","holidayOpen":"00:00","holidayClose":"00:00","feeInfo":"무료","phone":"031-644-2333","updatedAt":"2025-11-26","sido":"경기도","sigungu":"이천시","dong":"창전동"},{"name":"서희로노상주차장(2개소)(중앙사거리~구샛별슈퍼)","type":"공영","category":"노상","address":"경기도 이천시 서희로 74","lat":37.28204705,"lng":127.4433705,"totalSpaces":31,"isFree":true,"operatingDays":"평일","weekdayOpen":"00:00","weekdayClose":"23:59","weekendOpen":"00:00","weekendClose":"00:00","holidayOpen":"00:00","holidayClose":"00:00","feeInfo":"무료","phone":"031-644-2333","updatedAt":"2025-11-26","sido":"경기도","sigungu":"이천시","dong":"창전동"},{"name":"백사노상주차장(2개소)(백사면사무소 앞)","type":"공영","category":"노상","address":"경기도 이천시 백사면 현방로 76","lat":37.33951528,"lng":127.4920072,"totalSpaces":30,"isFree":true,"operatingDays":"평일","weekdayOpen":"00:00","weekdayClose":"23:59","weekendOpen":"00:00","weekendClose":"00:00","holidayOpen":"00:00","holidayClose":"00:00","feeInfo":"무료","phone":"031-644-2333","updatedAt":"2025-11-26","sido":"경기도","sigungu":"이천시","dong":"백사면"},{"name":"설봉주차장 심포니교","type":"공영","category":"노외","address":"경기도 이천시 관고동 380-1","lat":37.2792006,"lng":127.4253625,"totalSpaces":30,"isFree":true,"operatingDays":"평일+토요일+공휴일","weekdayOpen":"00:00","weekdayClose":"23:59","weekendOpen":"00:00","weekendClose":"23:59","holidayOpen":"00:00","holidayClose":"23:59","feeInfo":"무료","phone":"031-644-2333","updatedAt":"2025-11-26","sido":"경기도","sigungu":"이천시","dong":"관고동"},{"name":"설봉주차장 커피점 옆","type":"공영","category":"노외","address":"경기도 이천시 경충대로2709번길 152","lat":37.27888416,"lng":127.4263202,"totalSpaces":30,"isFree":true,"operatingDays":"평일+토요일+공휴일","weekdayOpen":"00:00","weekdayClose":"23:59","weekendOpen":"00:00","weekendClose":"23:59","holidayOpen":"00:00","holidayClose":"23:59","feeInfo":"무료","phone":"031-644-2333","updatedAt":"2025-11-26","sido":"경기도","sigungu":"이천시","dong":"관고동"},{"name":"남천로 노상주차장","type":"공영","category":"노상","address":"경기도 이천시 중리동 236","lat":37.27756973,"lng":127.441596,"totalSpaces":29,"isFree":true,"operatingDays":"평일","weekdayOpen":"00:00","weekdayClose":"23:59","weekendOpen":"00:00","weekendClose":"00:00","holidayOpen":"00:00","holidayClose":"00:00","feeInfo":"무료","phone":"031-644-2333","updatedAt":"2025-11-26","sido":"경기도","sigungu":"이천시","dong":"중리동"},{"name":"마장택지지구 공영주차장3","type":"공영","category":"노외","address":"경기도 이천시 마장면 양촌리 372-6","lat":37.2557624,"lng":127.3554166,"totalSpaces":29,"isFree":true,"operatingDays":"평일+토요일+공휴일","weekdayOpen":"00:00","weekdayClose":"23:59","weekendOpen":"00:00","weekendClose":"23:59","holidayOpen":"00:00","holidayClose":"23:59","feeInfo":"무료","phone":"031-644-2333","updatedAt":"2025-11-26","sido":"경기도","sigungu":"이천시","dong":"마장면"},{"name":"애련정로노상주차장(3개소)(설봉중사거리~구시민회관사거리)","type":"공영","category":"노상","address":"경기도 이천시 애련정로 122","lat":37.28131103,"lng":127.4503312,"totalSpaces":27,"isFree":true,"operatingDays":"평일","weekdayOpen":"00:00","weekdayClose":"23:59","weekendOpen":"00:00","weekendClose":"00:00","holidayOpen":"00:00","holidayClose":"00:00","feeInfo":"무료","phone":"031-644-2333","updatedAt":"2025-11-26","sido":"경기도","sigungu":"이천시","dong":"창전동"},{"name":"설봉공원입구","type":"공영","category":"노상","address":"경기도 이천시 설봉로 33","lat":37.27943902,"lng":127.437439,"totalSpaces":27,"isFree":true,"operatingDays":"평일","weekdayOpen":"00:00","weekdayClose":"23:59","weekendOpen":"00:00","weekendClose":"00:00","holidayOpen":"00:00","holidayClose":"00:00","feeInfo":"무료","phone":"031-644-2333","updatedAt":"2025-11-26","sido":"경기도","sigungu":"이천시","dong":"관고동"},{"name":"오천리 공영주차장","type":"공영","category":"노외","address":"경기도 이천시 마장면 오천로24번길 11","lat":37.25390593,"lng":127.3507883,"totalSpaces":26,"isFree":true,"operatingDays":"평일+토요일+공휴일","weekdayOpen":"00:00","weekdayClose":"23:59","weekendOpen":"00:00","weekendClose":"23:59","holidayOpen":"00:00","holidayClose":"23:59","feeInfo":"무료","phone":"031-644-8086","updatedAt":"2025-11-26","sido":"경기도","sigungu":"이천시","dong":"마장면"},{"name":"서희동상오거리 노상주차장","type":"공영","category":"노상","address":"경기도 이천시 중리동 236","lat":37.27756973,"lng":127.441596,"totalSpaces":24,"isFree":true,"operatingDays":"평일","weekdayOpen":"00:00","weekdayClose":"23:59","weekendOpen":"00:00","weekendClose":"00:00","holidayOpen":"00:00","holidayClose":"00:00","feeInfo":"무료","phone":"031-644-2333","updatedAt":"2025-11-26","sido":"경기도","sigungu":"이천시","dong":"중리동"},{"name":"이천고앞노상주차장(1개소)","type":"공영","category":"노상","address":"경기도 이천시 아리역로16번길 20","lat":37.28681775,"lng":127.4483759,"totalSpaces":24,"isFree":true,"operatingDays":"평일","weekdayOpen":"00:00","weekdayClose":"23:59","weekendOpen":"00:00","weekendClose":"00:00","holidayOpen":"00:00","holidayClose":"00:00","feeInfo":"무료","phone":"031-644-2333","updatedAt":"2025-11-26","sido":"경기도","sigungu":"이천시","dong":"창전동"},{"name":"이황리 환승주차장","type":"공영","category":"노외","address":"경기도 이천시 장호원읍 경충대로597번길 243","lat":37.16216291,"lng":127.5749963,"totalSpaces":21,"isFree":true,"operatingDays":"평일+토요일+공휴일","weekdayOpen":"00:00","weekdayClose":"23:59","weekendOpen":"00:00","weekendClose":"23:59","holidayOpen":"00:00","holidayClose":"23:59","feeInfo":"무료","phone":"031-644-2333","updatedAt":"2025-11-26","sido":"경기도","sigungu":"이천시","dong":"장호원읍"},{"name":"시민회관사거리~온천사거리노상주차장(3개소)","type":"공영","category":"노상","address":"경기도 이천시 영창로 260","lat":37.28043727,"lng":127.4517644,"totalSpaces":20,"isFree":true,"operatingDays":"평일","weekdayOpen":"00:00","weekdayClose":"23:59","weekendOpen":"00:00","weekendClose":"00:00","holidayOpen":"00:00","holidayClose":"00:00","feeInfo":"무료","phone":"031-644-2333","updatedAt":"2025-11-26","sido":"경기도","sigungu":"이천시","dong":"창전동"},{"name":"창전사거리노상주차장(2개소)(일신주유소~설봉중)","type":"공영","category":"노상","address":"경기도 이천시 향교로 95-10","lat":37.28479878,"lng":127.4487609,"totalSpaces":18,"isFree":true,"operatingDays":"평일","weekdayOpen":"00:00","weekdayClose":"23:59","weekendOpen":"00:00","weekendClose":"00:00","holidayOpen":"00:00","holidayClose":"00:00","feeInfo":"무료","phone":"031-644-2333","updatedAt":"2025-11-26","sido":"경기도","sigungu":"이천시","dong":"창전동"},{"name":"부발 마암 노상주차장","type":"공영","category":"노상","address":"경기도 이천시 부발읍 마암리 산45","lat":37.2818099,"lng":127.4829539,"totalSpaces":13,"isFree":true,"operatingDays":"평일","weekdayOpen":"00:00","weekdayClose":"23:59","weekendOpen":"00:00","weekendClose":"00:00","holidayOpen":"00:00","holidayClose":"00:00","feeInfo":"무료","phone":"031-644-2333","updatedAt":"2025-11-26","sido":"경기도","sigungu":"이천시","dong":"부발읍"},{"name":"설봉공원삼거리~양정여고앞노상주차장(3개소)","type":"공영","category":"노상","address":"경기도 이천시 영창로124번길 16-13","lat":37.28240372,"lng":127.4357444,"totalSpaces":12,"isFree":true,"operatingDays":"평일","weekdayOpen":"00:00","weekdayClose":"23:59","weekendOpen":"00:00","weekendClose":"00:00","holidayOpen":"00:00","holidayClose":"00:00","feeInfo":"무료","phone":"031-644-2333","updatedAt":"2025-11-26","sido":"경기도","sigungu":"이천시","dong":"관고동"},{"name":"교육청앞노상주차장(1개소)","type":"공영","category":"노상","address":"경기도 이천시 이섭대천로1311번길 7","lat":37.28661994,"lng":127.4495493,"totalSpaces":11,"isFree":true,"operatingDays":"평일","weekdayOpen":"00:00","weekdayClose":"23:59","weekendOpen":"00:00","weekendClose":"00:00","holidayOpen":"00:00","holidayClose":"00:00","feeInfo":"무료","phone":"031-644-2333","updatedAt":"2025-11-26","sido":"경기도","sigungu":"이천시","dong":"창전동"},{"name":"라온팰리스 앞 노상주차장","type":"공영","category":"노상","address":"경기도 이천시 중리동 241","lat":37.27811396,"lng":127.445788,"totalSpaces":10,"isFree":true,"operatingDays":"평일","weekdayOpen":"00:00","weekdayClose":"23:59","weekendOpen":"00:00","weekendClose":"00:00","holidayOpen":"00:00","holidayClose":"00:00","feeInfo":"무료","phone":"031-644-2333","updatedAt":"2025-11-26","sido":"경기도","sigungu":"이천시","dong":"중리동"},{"name":"진가초등학교 노외주차장","type":"공영","category":"노외","address":"경기도 이천시 모가면 진가리 155-4","lat":37.17357071,"lng":127.4792706,"totalSpaces":2,"isFree":true,"operatingDays":"평일+토요일+공휴일","weekdayOpen":"00:00","weekdayClose":"23:59","weekendOpen":"00:00","weekendClose":"23:59","holidayOpen":"00:00","holidayClose":"23:59","feeInfo":"무료","phone":"031-644-2333","updatedAt":"2025-11-26","sido":"경기도","sigungu":"이천시","dong":"모가면"},{"name":"공설운동장공영주차장","type":"공영","category":"노외","address":"경기도 이천시 서희로 11(중리동)","lat":37.27651279,"lng":127.4407936,"totalSpaces":466,"isFree":false,"operatingDays":"평일+토요일+공휴일","weekdayOpen":"00:00","weekdayClose":"23:59","weekendOpen":"00:00","weekendClose":"23:59","holidayOpen":"00:00","holidayClose":"23:59","feeInfo":"기본 30분 500원 / 추가 10분당 200원","phone":"031-635-2070","updatedAt":"2025-04-11","sido":"경기도","sigungu":"이천시","dong":"중리동"},{"name":"공설운동장주차장","type":"공영","category":"노외","address":"경기도 이천시 서희로 11","lat":37.27651279,"lng":127.4407936,"totalSpaces":466,"isFree":false,"operatingDays":"평일+토요일+공휴일","weekdayOpen":"00:00","weekdayClose":"23:59","weekendOpen":"00:00","weekendClose":"23:59","holidayOpen":"00:00","holidayClose":"23:59","feeInfo":"기본 30분 500원 / 추가 10분당 200원","phone":"031-635-2070","updatedAt":"2025-11-26","sido":"경기도","sigungu":"이천시","dong":"중리동"},{"name":"택시쉼터공영주차장","type":"공영","category":"노외","address":"경기도 이천시 설봉로 122","lat":37.2862826,"lng":127.440284,"totalSpaces":230,"isFree":false,"operatingDays":"평일+토요일+공휴일","weekdayOpen":"00:00","weekdayClose":"23:59","weekendOpen":"00:00","weekendClose":"23:59","holidayOpen":"00:00","holidayClose":"23:59","feeInfo":"기본 30분 400원 / 추가 10분당 150원","phone":"031-635-2070","updatedAt":"2025-04-11","sido":"경기도","sigungu":"이천시","dong":"창전동"},{"name":"택시쉼터공영주차장","type":"공영","category":"노외","address":"경기도 이천시 설봉로 122","lat":37.28628212,"lng":127.4402875,"totalSpaces":230,"isFree":false,"operatingDays":"평일+토요일+공휴일","weekdayOpen":"00:00","weekdayClose":"23:59","weekendOpen":"00:00","weekendClose":"23:59","holidayOpen":"00:00","holidayClose":"23:59","feeInfo":"기본 30분 400원 / 추가 10분당 150원","phone":"031-644-2333","updatedAt":"2025-11-26","sido":"경기도","sigungu":"이천시","dong":"창전동"},{"name":"남천상가공영주차장","type":"공영","category":"노외","address":"경기도 이천시 어재연로10번길 25","lat":37.27801111,"lng":127.4444343,"totalSpaces":224,"isFree":false,"operatingDays":"평일+토요일+공휴일","weekdayOpen":"00:00","weekdayClose":"23:59","weekendOpen":"00:00","weekendClose":"23:59","holidayOpen":"00:00","holidayClose":"23:59","feeInfo":"기본 30분 600원 / 추가 10분당 250원","phone":"031-635-2070","updatedAt":"2025-04-11","sido":"경기도","sigungu":"이천시","dong":"중리동"},{"name":"남천상가주차장","type":"공영","category":"노외","address":"경기도 이천시 어재연로10번길 25","lat":37.27801111,"lng":127.4444343,"totalSpaces":224,"isFree":false,"operatingDays":"평일+토요일+공휴일","weekdayOpen":"00:00","weekdayClose":"23:59","weekendOpen":"00:00","weekendClose":"23:59","holidayOpen":"00:00","holidayClose":"23:59","feeInfo":"기본 30분 600원 / 추가 10분당 250원","phone":"031-635-2070","updatedAt":"2025-11-26","sido":"경기도","sigungu":"이천시","dong":"중리동"},{"name":"서희청소년공영주차장","type":"공영","category":"노외","address":"경기도 이천시 영창로 260","lat":37.28043727,"lng":127.4517644,"totalSpaces":196,"isFree":false,"operatingDays":"평일+토요일+공휴일","weekdayOpen":"00:00","weekdayClose":"23:59","weekendOpen":"00:00","weekendClose":"23:59","holidayOpen":"00:00","holidayClose":"23:59","feeInfo":"기본 30분 500원 / 추가 10분당 200원","phone":"031-635-2070","updatedAt":"2025-11-26","sido":"경기도","sigungu":"이천시","dong":"창전동"},{"name":"서희청소년문화센터공영주차장","type":"공영","category":"노외","address":"경기도 이천시 영창로 260","lat":37.28044552,"lng":127.451765,"totalSpaces":195,"isFree":false,"operatingDays":"평일+토요일+공휴일","weekdayOpen":"00:00","weekdayClose":"23:59","weekendOpen":"00:00","weekendClose":"23:59","holidayOpen":"00:00","holidayClose":"23:59","feeInfo":"기본 30분 500원 / 추가 10분당 200원","phone":"031-635-2070","updatedAt":"2025-04-11","sido":"경기도","sigungu":"이천시","dong":"창전동"},{"name":"북샛말공영주차장","type":"공영","category":"노외","address":"경기도 이천시 이섭대천로 1299","lat":37.28615075,"lng":127.4484666,"totalSpaces":177,"isFree":false,"operatingDays":"평일+토요일+공휴일","weekdayOpen":"00:00","weekdayClose":"23:59","weekendOpen":"00:00","weekendClose":"23:59","holidayOpen":"00:00","holidayClose":"23:59","feeInfo":"기본 30분 500원 / 추가 10분당 200원","phone":"031-635-2070","updatedAt":"2025-11-26","sido":"경기도","sigungu":"이천시","dong":"창전동"},{"name":"북샛말공영주차장","type":"공영","category":"노외","address":"경기도 이천시 이섭대천로 1299","lat":37.28615168,"lng":127.4484684,"totalSpaces":176,"isFree":false,"operatingDays":"평일+토요일+공휴일","weekdayOpen":"00:00","weekdayClose":"23:59","weekendOpen":"00:00","weekendClose":"23:59","holidayOpen":"00:00","holidayClose":"23:59","feeInfo":"기본 30분 500원 / 추가 10분당 200원","phone":"031-635-2070","updatedAt":"2025-04-11","sido":"경기도","sigungu":"이천시","dong":"창전동"},{"name":"8-2 터미널공영","type":"공영","category":"노상","address":"경기도 이천시 중리천로 102","lat":37.27756804,"lng":127.4481715,"totalSpaces":45,"isFree":false,"operatingDays":"평일+토요일+공휴일","weekdayOpen":"00:00","weekdayClose":"23:59","weekendOpen":"00:00","weekendClose":"23:59","holidayOpen":"00:00","holidayClose":"23:59","feeInfo":"기본 30분 600원 / 추가 10분당 250원","phone":"031-635-2070","updatedAt":"2025-04-11","sido":"경기도","sigungu":"이천시","dong":"중리동"},{"name":"터미널공영","type":"공영","category":"노상","address":"경기도 이천시 중리천로 102","lat":37.27756929,"lng":127.4481679,"totalSpaces":45,"isFree":false,"operatingDays":"평일","weekdayOpen":"09:00","weekdayClose":"18:00","weekendOpen":"00:00","weekendClose":"00:00","holidayOpen":"00:00","holidayClose":"00:00","feeInfo":"기본 30분 600원 / 추가 10분당 250원","phone":"031-635-2070","updatedAt":"2025-11-26","sido":"경기도","sigungu":"이천시","dong":"중리동"},{"name":"마장택지지구 공영주차장2","type":"공영","category":"노외","address":"경기도 이천시 마장면 오천리 406-3","lat":37.2540187,"lng":127.3529997,"totalSpaces":38,"isFree":false,"operatingDays":"평일+토요일+공휴일","weekdayOpen":"00:00","weekdayClose":"23:59","weekendOpen":"00:00","weekendClose":"23:59","holidayOpen":"00:00","holidayClose":"23:59","feeInfo":"기본 60분 500원 / 추가 10분당 200원","phone":"031-644-2333","updatedAt":"2025-11-26","sido":"경기도","sigungu":"이천시","dong":"마장면"},{"name":"마장택지지구 공영주차장1","type":"공영","category":"노외","address":"경기도 이천시 마장면 오천리 402-1","lat":37.2547299,"lng":127.3514275,"totalSpaces":35,"isFree":false,"operatingDays":"평일+토요일+공휴일","weekdayOpen":"00:00","weekdayClose":"23:59","weekendOpen":"00:00","weekendClose":"23:59","holidayOpen":"00:00","holidayClose":"23:59","feeInfo":"기본 60분 500원 / 추가 10분당 200원","phone":"031-644-2333","updatedAt":"2025-11-26","sido":"경기도","sigungu":"이천시","dong":"마장면"},{"name":"중리천로공영주차장","type":"공영","category":"노외","address":"경기도 이천시 중리천로 38","lat":37.28028028,"lng":127.442218,"totalSpaces":34,"isFree":false,"operatingDays":"평일+토요일+공휴일","weekdayOpen":"00:00","weekdayClose":"23:59","weekendOpen":"00:00","weekendClose":"23:59","holidayOpen":"00:00","holidayClose":"23:59","feeInfo":"기본 30분 600원 / 추가 10분당 250원","phone":"031-635-2070","updatedAt":"2025-04-11","sido":"경기도","sigungu":"이천시","dong":"중리동"},{"name":"중리천로공영주차장","type":"공영","category":"노외","address":"경기도 이천시 중리천로 38","lat":37.28027975,"lng":127.4422212,"totalSpaces":34,"isFree":false,"operatingDays":"평일+토요일+공휴일","weekdayOpen":"00:00","weekdayClose":"23:59","weekendOpen":"00:00","weekendClose":"23:59","holidayOpen":"00:00","holidayClose":"23:59","feeInfo":"기본 30분 600원 / 추가 10분당 250원","phone":"031-635-2070","updatedAt":"2025-11-26","sido":"경기도","sigungu":"이천시","dong":"중리동"},{"name":"기아오토랜드앞","type":"공영","category":"노상","address":"경기도 이천시 중리천로 125","lat":37.27605544,"lng":127.4493308,"totalSpaces":32,"isFree":false,"operatingDays":"평일","weekdayOpen":"09:00","weekdayClose":"18:00","weekendOpen":"00:00","weekendClose":"00:00","holidayOpen":"00:00","holidayClose":"00:00","feeInfo":"기본 30분 600원 / 추가 10분당 250원","phone":"031-635-2070","updatedAt":"2025-11-26","sido":"경기도","sigungu":"이천시","dong":"중리동"},{"name":"파티마병원뒤","type":"공영","category":"노상","address":"경기도 이천시 중리천로 137","lat":37.27519936,"lng":127.4499066,"totalSpaces":29,"isFree":false,"operatingDays":"평일","weekdayOpen":"09:00","weekdayClose":"18:00","weekendOpen":"00:00","weekendClose":"00:00","holidayOpen":"00:00","holidayClose":"00:00","feeInfo":"기본 30분 600원 / 추가 10분당 250원","phone":"031-635-2070","updatedAt":"2025-11-26","sido":"경기도","sigungu":"이천시","dong":"중리동"},{"name":"6-1 중리동주민센터아래","type":"공영","category":"노상","address":"경기도 이천시 서희로 42","lat":37.2793013,"lng":127.4426307,"totalSpaces":28,"isFree":false,"operatingDays":"평일","weekdayOpen":"10:00","weekdayClose":"19:00","weekendOpen":"00:00","weekendClose":"00:00","holidayOpen":"00:00","holidayClose":"00:00","feeInfo":"기본 30분 600원 / 추가 10분당 250원","phone":"031-635-2070","updatedAt":"2025-04-11","sido":"경기도","sigungu":"이천시","dong":"중리동"},{"name":"청솔공원앞","type":"공영","category":"노상","address":"경기도 이천시 중리천로 129-6","lat":37.27557775,"lng":127.4494552,"totalSpaces":28,"isFree":false,"operatingDays":"평일","weekdayOpen":"09:00","weekdayClose":"18:00","weekendOpen":"00:00","weekendClose":"00:00","holidayOpen":"00:00","holidayClose":"00:00","feeInfo":"기본 30분 600원 / 추가 10분당 250원","phone":"031-635-2070","updatedAt":"2025-11-26","sido":"경기도","sigungu":"이천시","dong":"중리동"},{"name":"중리동주민센터아래","type":"공영","category":"노상","address":"경기도 이천시 서희로 42","lat":37.27930013,"lng":127.4426304,"totalSpaces":28,"isFree":false,"operatingDays":"평일","weekdayOpen":"09:00","weekdayClose":"18:00","weekendOpen":"00:00","weekendClose":"00:00","holidayOpen":"00:00","holidayClose":"00:00","feeInfo":"기본 30분 600원 / 추가 10분당 250원","phone":"031-635-2070","updatedAt":"2025-11-26","sido":"경기도","sigungu":"이천시","dong":"중리동"},{"name":"8-5 기아오토랜드앞","type":"공영","category":"노상","address":"경기도 이천시 중리천로 125","lat":37.27605045,"lng":127.4493303,"totalSpaces":25,"isFree":false,"operatingDays":"평일","weekdayOpen":"10:00","weekdayClose":"19:00","weekendOpen":"00:00","weekendClose":"00:00","holidayOpen":"00:00","holidayClose":"00:00","feeInfo":"기본 30분 600원 / 추가 10분당 250원","phone":"031-635-2070","updatedAt":"2025-04-11","sido":"경기도","sigungu":"이천시","dong":"중리동"},{"name":"10-1 설봉공원입구","type":"공영","category":"노상","address":"경기도 이천시 설봉로 33","lat":37.27943921,"lng":127.4374306,"totalSpaces":25,"isFree":false,"operatingDays":"평일","weekdayOpen":"10:00","weekdayClose":"19:00","weekendOpen":"00:00","weekendClose":"00:00","holidayOpen":"00:00","holidayClose":"00:00","feeInfo":"기본 30분 600원 / 추가 10분당 250원","phone":"031-635-2070","updatedAt":"2025-04-11","sido":"경기도","sigungu":"이천시","dong":"관고동"},{"name":"남천공원입구","type":"공영","category":"노상","address":"경기도 이천시 어재연로 13","lat":37.27843235,"lng":127.4431927,"totalSpaces":25,"isFree":false,"operatingDays":"평일","weekdayOpen":"09:00","weekdayClose":"18:00","weekendOpen":"00:00","weekendClose":"00:00","holidayOpen":"00:00","holidayClose":"00:00","feeInfo":"기본 30분 600원 / 추가 10분당 250원","phone":"031-635-2070","updatedAt":"2025-11-26","sido":"경기도","sigungu":"이천시","dong":"중리동"},{"name":"관고2통보호수앞","type":"공영","category":"노상","address":"경기도 이천시 설봉로 48","lat":37.2808006,"lng":127.4383177,"totalSpaces":25,"isFree":false,"operatingDays":"평일","weekdayOpen":"09:00","weekdayClose":"18:00","weekendOpen":"00:00","weekendClose":"00:00","holidayOpen":"00:00","holidayClose":"00:00","feeInfo":"기본 30분 600원 / 추가 10분당 250원","phone":"031-635-2070","updatedAt":"2025-11-26","sido":"경기도","sigungu":"이천시","dong":"관고동"},{"name":"5-1 관고2통보호수앞","type":"공영","category":"노상","address":"경기도 이천시 설봉로 48","lat":37.28080396,"lng":127.4383189,"totalSpaces":24,"isFree":false,"operatingDays":"평일","weekdayOpen":"10:00","weekdayClose":"19:00","weekendOpen":"00:00","weekendClose":"00:00","holidayOpen":"00:00","holidayClose":"00:00","feeInfo":"기본 30분 600원 / 추가 10분당 250원","phone":"031-635-2070","updatedAt":"2025-04-11","sido":"경기도","sigungu":"이천시","dong":"관고동"},{"name":"6-2 중리동주민센터앞","type":"공영","category":"노상","address":"경기도 이천시 서희로 33","lat":37.27866329,"lng":127.4420731,"totalSpaces":24,"isFree":false,"operatingDays":"평일","weekdayOpen":"10:00","weekdayClose":"19:00","weekendOpen":"00:00","weekendClose":"00:00","holidayOpen":"00:00","holidayClose":"00:00","feeInfo":"기본 30분 600원 / 추가 10분당 250원","phone":"031-635-2070","updatedAt":"2025-04-11","sido":"경기도","sigungu":"이천시","dong":"중리동"},{"name":"7-2 남천공원입구","type":"공영","category":"노상","address":"경기도 이천시 어재연로 13","lat":37.27843005,"lng":127.4431947,"totalSpaces":24,"isFree":false,"operatingDays":"평일","weekdayOpen":"10:00","weekdayClose":"19:00","weekendOpen":"00:00","weekendClose":"00:00","holidayOpen":"00:00","holidayClose":"00:00","feeInfo":"기본 30분 600원 / 추가 10분당 250원","phone":"031-635-2070","updatedAt":"2025-04-11","sido":"경기도","sigungu":"이천시","dong":"중리동"},{"name":"2-2 이천성당앞","type":"공영","category":"노상","address":"경기도 이천시 중리천로 32","lat":37.28005602,"lng":127.441081,"totalSpaces":24,"isFree":false,"operatingDays":"평일","weekdayOpen":"10:00","weekdayClose":"19:00","weekendOpen":"00:00","weekendClose":"00:00","holidayOpen":"00:00","holidayClose":"00:00","feeInfo":"기본 30분 600원 / 추가 10분당 250원","phone":"031-635-2070","updatedAt":"2025-04-11","sido":"경기도","sigungu":"이천시","dong":"중리동"},{"name":"은혜예식장뒤","type":"공영","category":"노상","address":"경기도 이천시 중리천로 12","lat":37.28021515,"lng":127.4392207,"totalSpaces":24,"isFree":false,"operatingDays":"평일","weekdayOpen":"09:00","weekdayClose":"18:00","weekendOpen":"00:00","weekendClose":"00:00","holidayOpen":"00:00","holidayClose":"00:00","feeInfo":"기본 30분 600원 / 추가 10분당 250원","phone":"031-635-2070","updatedAt":"2025-11-26","sido":"경기도","sigungu":"이천시","dong":"중리동"},{"name":"이천성당앞","type":"공영","category":"노상","address":"경기도 이천시 중리천로 32","lat":37.28006286,"lng":127.4410821,"totalSpaces":24,"isFree":false,"operatingDays":"평일","weekdayOpen":"09:00","weekdayClose":"18:00","weekendOpen":"00:00","weekendClose":"00:00","holidayOpen":"00:00","holidayClose":"00:00","feeInfo":"기본 30분 600원 / 추가 10분당 250원","phone":"031-635-2070","updatedAt":"2025-11-26","sido":"경기도","sigungu":"이천시","dong":"중리동"},{"name":"CGV맞은편","type":"공영","category":"노상","address":"경기도 이천시 중리천로 57","lat":37.28020864,"lng":127.4442969,"totalSpaces":24,"isFree":false,"operatingDays":"평일","weekdayOpen":"09:00","weekdayClose":"18:00","weekendOpen":"00:00","weekendClose":"00:00","holidayOpen":"00:00","holidayClose":"00:00","feeInfo":"기본 30분 600원 / 추가 10분당 250원","phone":"031-635-2070","updatedAt":"2025-11-26","sido":"경기도","sigungu":"이천시","dong":"창전동"},{"name":"중리동주민센터앞","type":"공영","category":"노상","address":"경기도 이천시 서희로 33","lat":37.27866329,"lng":127.4420732,"totalSpaces":24,"isFree":false,"operatingDays":"평일","weekdayOpen":"09:00","weekdayClose":"18:00","weekendOpen":"00:00","weekendClose":"00:00","holidayOpen":"00:00","holidayClose":"00:00","feeInfo":"기본 30분 600원 / 추가 10분당 250원","phone":"031-635-2070","updatedAt":"2025-11-26","sido":"경기도","sigungu":"이천시","dong":"중리동"},{"name":"10-2 새설봉사거리","type":"공영","category":"노상","address":"경기도 이천시 남천로 1","lat":37.27842186,"lng":127.4377683,"totalSpaces":23,"isFree":false,"operatingDays":"평일","weekdayOpen":"10:00","weekdayClose":"19:00","weekendOpen":"00:00","weekendClose":"00:00","holidayOpen":"00:00","holidayClose":"00:00","feeInfo":"기본 30분 600원 / 추가 10분당 250원","phone":"031-635-2070","updatedAt":"2025-04-11","sido":"경기도","sigungu":"이천시","dong":"중리동"},{"name":"8-8 푸주옥앞","type":"공영","category":"노상","address":"경기도 이천시 중리천로 129-6","lat":37.27557498,"lng":127.4494494,"totalSpaces":23,"isFree":false,"operatingDays":"평일","weekdayOpen":"10:00","weekdayClose":"19:00","weekendOpen":"00:00","weekendClose":"00:00","holidayOpen":"00:00","holidayClose":"00:00","feeInfo":"기본 30분 600원 / 추가 10분당 250원","phone":"031-635-2070","updatedAt":"2025-04-11","sido":"경기도","sigungu":"이천시","dong":"중리동"},{"name":"1-2 은혜예식장뒤","type":"공영","category":"노상","address":"경기도 이천시 중리천로 12","lat":37.28024049,"lng":127.4392565,"totalSpaces":23,"isFree":false,"operatingDays":"평일","weekdayOpen":"10:00","weekdayClose":"19:00","weekendOpen":"00:00","weekendClose":"00:00","holidayOpen":"00:00","holidayClose":"00:00","feeInfo":"기본 30분 600원 / 추가 10분당 250원","phone":"031-635-2070","updatedAt":"2025-04-11","sido":"경기도","sigungu":"이천시","dong":"중리동"},{"name":"3-3 CGV앞","type":"공영","category":"노상","address":"경기도 이천시 중리천로 58","lat":37.27964545,"lng":127.4441586,"totalSpaces":23,"isFree":false,"operatingDays":"평일","weekdayOpen":"10:00","weekdayClose":"19:00","weekendOpen":"00:00","weekendClose":"00:00","holidayOpen":"00:00","holidayClose":"00:00","feeInfo":"기본 30분 600원 / 추가 10분당 250원","phone":"031-635-2070","updatedAt":"2025-04-11","sido":"경기도","sigungu":"이천시","dong":"중리동"},{"name":"sk주유소 앞","type":"공영","category":"노상","address":"경기도 이천시 중리동 435","lat":37.27480164,"lng":127.4496347,"totalSpaces":23,"isFree":false,"operatingDays":"평일","weekdayOpen":"09:00","weekdayClose":"18:00","weekendOpen":"00:00","weekendClose":"00:00","holidayOpen":"00:00","holidayClose":"00:00","feeInfo":"기본 30분 600원 / 추가 10분당 250원","phone":"031-635-2070","updatedAt":"2025-11-26","sido":"경기도","sigungu":"이천시","dong":"중리동"},{"name":"새설봉사거리","type":"공영","category":"노상","address":"경기도 이천시 남천로 1","lat":37.27842061,"lng":127.437767,"totalSpaces":23,"isFree":false,"operatingDays":"평일","weekdayOpen":"09:00","weekdayClose":"18:00","weekendOpen":"00:00","weekendClose":"00:00","holidayOpen":"00:00","holidayClose":"00:00","feeInfo":"기본 30분 600원 / 추가 10분당 250원","phone":"031-635-2070","updatedAt":"2025-11-26","sido":"경기도","sigungu":"이천시","dong":"중리동"},{"name":"실버 중앙사거리","type":"공영","category":"노상","address":"경기도 이천시 영창로 181","lat":37.28160598,"lng":127.4427617,"totalSpaces":23,"isFree":false,"operatingDays":"평일","weekdayOpen":"09:00","weekdayClose":"18:00","weekendOpen":"00:00","weekendClose":"00:00","holidayOpen":"00:00","holidayClose":"00:00","feeInfo":"기본 30분 600원 / 추가 10분당 250원","phone":"031-635-2070","updatedAt":"2025-11-26","sido":"경기도","sigungu":"이천시","dong":"창전동"},{"name":"8-6 파티마병원뒤","type":"공영","category":"노상","address":"경기도 이천시 중리천로 137","lat":37.27519732,"lng":127.4499087,"totalSpaces":22,"isFree":false,"operatingDays":"평일","weekdayOpen":"10:00","weekdayClose":"19:00","weekendOpen":"00:00","weekendClose":"00:00","holidayOpen":"00:00","holidayClose":"00:00","feeInfo":"기본 30분 600원 / 추가 10분당 250원","phone":"031-635-2070","updatedAt":"2025-04-11","sido":"경기도","sigungu":"이천시","dong":"중리동"},{"name":"2-4 주차장사무실맞은편","type":"공영","category":"노상","address":"경기도 이천시 중리천로 35","lat":37.28064909,"lng":127.4420207,"totalSpaces":22,"isFree":false,"operatingDays":"평일","weekdayOpen":"10:00","weekdayClose":"19:00","weekendOpen":"00:00","weekendClose":"00:00","holidayOpen":"00:00","holidayClose":"00:00","feeInfo":"기본 30분 600원 / 추가 10분당 250원","phone":"031-635-2070","updatedAt":"2025-04-11","sido":"경기도","sigungu":"이천시","dong":"창전동"},{"name":"주차장사무실맞은편","type":"공영","category":"노상","address":"경기도 이천시 중리천로 35","lat":37.28064923,"lng":127.4420179,"totalSpaces":22,"isFree":false,"operatingDays":"평일","weekdayOpen":"09:00","weekdayClose":"18:00","weekendOpen":"00:00","weekendClose":"00:00","holidayOpen":"00:00","holidayClose":"00:00","feeInfo":"기본 30분 600원 / 추가 10분당 250원","phone":"031-635-2070","updatedAt":"2025-11-26","sido":"경기도","sigungu":"이천시","dong":"창전동"},{"name":"관고사거리(구.세무서)","type":"공영","category":"노상","address":"경기도 이천시 설봉로 62","lat":37.28176525,"lng":127.4386215,"totalSpaces":22,"isFree":false,"operatingDays":"평일","weekdayOpen":"09:00","weekdayClose":"18:00","weekendOpen":"00:00","weekendClose":"00:00","holidayOpen":"00:00","holidayClose":"00:00","feeInfo":"기본 30분 600원 / 추가 10분당 250원","phone":"031-635-2070","updatedAt":"2025-11-26","sido":"경기도","sigungu":"이천시","dong":"관고동"},{"name":"8-7 청솔공원앞","type":"공영","category":"노상","address":"경기도 이천시 중리천로 129-6","lat":37.27557498,"lng":127.4494494,"totalSpaces":21,"isFree":false,"operatingDays":"평일","weekdayOpen":"10:00","weekdayClose":"19:00","weekendOpen":"00:00","weekendClose":"00:00","holidayOpen":"00:00","holidayClose":"00:00","feeInfo":"기본 30분 600원 / 추가 10분당 250원","phone":"031-635-2070","updatedAt":"2025-04-11","sido":"경기도","sigungu":"이천시","dong":"중리동"},{"name":"한아름공원앞(이마트)","type":"공영","category":"노상","address":"경기도 이천시 중리천로 18","lat":37.27999452,"lng":127.439811,"totalSpaces":21,"isFree":false,"operatingDays":"평일","weekdayOpen":"09:00","weekdayClose":"18:00","weekendOpen":"00:00","weekendClose":"00:00","holidayOpen":"00:00","holidayClose":"00:00","feeInfo":"기본 30분 600원 / 추가 10분당 250원","phone":"031-635-2070","updatedAt":"2025-11-26","sido":"경기도","sigungu":"이천시","dong":"중리동"},{"name":"1-1 관고교앞","type":"공영","category":"노상","address":"경기도 이천시 설봉로 46","lat":37.28047113,"lng":127.4381449,"totalSpaces":20,"isFree":false,"operatingDays":"평일","weekdayOpen":"10:00","weekdayClose":"19:00","weekendOpen":"00:00","weekendClose":"00:00","holidayOpen":"00:00","holidayClose":"00:00","feeInfo":"기본 30분 600원 / 추가 10분당 250원","phone":"031-635-2070","updatedAt":"2025-04-11","sido":"경기도","sigungu":"이천시","dong":"관고동"},{"name":"관고교앞","type":"공영","category":"노상","address":"경기도 이천시 설봉로 46","lat":37.28046699,"lng":127.4381488,"totalSpaces":20,"isFree":false,"operatingDays":"평일","weekdayOpen":"09:00","weekdayClose":"18:00","weekendOpen":"00:00","weekendClose":"00:00","holidayOpen":"00:00","holidayClose":"00:00","feeInfo":"기본 30분 600원 / 추가 10분당 250원","phone":"031-635-2070","updatedAt":"2025-11-26","sido":"경기도","sigungu":"이천시","dong":"관고동"},{"name":"7-1 명동타운옆","type":"공영","category":"노상","address":"경기도 이천시 어재연로 24","lat":37.27888045,"lng":127.4444272,"totalSpaces":19,"isFree":false,"operatingDays":"평일","weekdayOpen":"10:00","weekdayClose":"19:00","weekendOpen":"00:00","weekendClose":"00:00","holidayOpen":"00:00","holidayClose":"00:00","feeInfo":"기본 30분 600원 / 추가 10분당 250원","phone":"031-635-2070","updatedAt":"2025-04-11","sido":"경기도","sigungu":"이천시","dong":"중리동"},{"name":"3-2 세람저축은행맞은편","type":"공영","category":"노상","address":"경기도 이천시 중리천로 51","lat":37.28048329,"lng":127.443662,"totalSpaces":19,"isFree":false,"operatingDays":"평일","weekdayOpen":"10:00","weekdayClose":"19:00","weekendOpen":"00:00","weekendClose":"00:00","holidayOpen":"00:00","holidayClose":"00:00","feeInfo":"기본 30분 600원 / 추가 10분당 250원","phone":"031-635-2070","updatedAt":"2025-04-11","sido":"경기도","sigungu":"이천시","dong":"창전동"},{"name":"1-3 한아름공원앞(이마트)","type":"공영","category":"노상","address":"경기도 이천시 중리천로 18","lat":37.27998138,"lng":127.4398312,"totalSpaces":19,"isFree":false,"operatingDays":"평일","weekdayOpen":"10:00","weekdayClose":"19:00","weekendOpen":"00:00","weekendClose":"00:00","holidayOpen":"00:00","holidayClose":"00:00","feeInfo":"기본 30분 600원 / 추가 10분당 250원","phone":"031-635-2070","updatedAt":"2025-04-11","sido":"경기도","sigungu":"이천시","dong":"중리동"},{"name":"명동타운옆","type":"공영","category":"노상","address":"경기도 이천시 어재연로 24","lat":37.27888364,"lng":127.444422,"totalSpaces":19,"isFree":false,"operatingDays":"평일","weekdayOpen":"09:00","weekdayClose":"18:00","weekendOpen":"00:00","weekendClose":"00:00","holidayOpen":"00:00","holidayClose":"00:00","feeInfo":"기본 30분 600원 / 추가 10분당 250원","phone":"031-635-2070","updatedAt":"2025-11-26","sido":"경기도","sigungu":"이천시","dong":"중리동"},{"name":"5-2 관고사거리(구.세무서)","type":"공영","category":"노상","address":"경기도 이천시 설봉로 62","lat":37.28175156,"lng":127.438638,"totalSpaces":18,"isFree":false,"operatingDays":"평일","weekdayOpen":"10:00","weekdayClose":"19:00","weekendOpen":"00:00","weekendClose":"00:00","holidayOpen":"00:00","holidayClose":"00:00","feeInfo":"기본 30분 600원 / 추가 10분당 250원","phone":"031-635-2070","updatedAt":"2025-04-11","sido":"경기도","sigungu":"이천시","dong":"관고동"},{"name":"4-2 산림조합앞","type":"공영","category":"노상","address":"경기도 이천시 중리천로 71","lat":37.2793941,"lng":127.4455386,"totalSpaces":18,"isFree":false,"operatingDays":"평일","weekdayOpen":"10:00","weekdayClose":"19:00","weekendOpen":"00:00","weekendClose":"00:00","holidayOpen":"00:00","holidayClose":"00:00","feeInfo":"기본 30분 600원 / 추가 10분당 250원","phone":"031-635-2070","updatedAt":"2025-04-11","sido":"경기도","sigungu":"이천시","dong":"창전동"},{"name":"4-3 새마을금고앞","type":"공영","category":"노상","address":"경기도 이천시 중리천로 67","lat":37.27947543,"lng":127.4454281,"totalSpaces":18,"isFree":false,"operatingDays":"평일","weekdayOpen":"10:00","weekdayClose":"19:00","weekendOpen":"00:00","weekendClose":"00:00","holidayOpen":"00:00","holidayClose":"00:00","feeInfo":"기본 30분 600원 / 추가 10분당 250원","phone":"031-635-2070","updatedAt":"2025-04-11","sido":"경기도","sigungu":"이천시","dong":"창전동"},{"name":"산림조합앞","type":"공영","category":"노상","address":"경기도 이천시 중리천로 71","lat":37.27938894,"lng":127.4455383,"totalSpaces":18,"isFree":false,"operatingDays":"평일","weekdayOpen":"09:00","weekdayClose":"18:00","weekendOpen":"00:00","weekendClose":"00:00","holidayOpen":"00:00","holidayClose":"00:00","feeInfo":"기본 30분 600원 / 추가 10분당 250원","phone":"031-635-2070","updatedAt":"2025-11-26","sido":"경기도","sigungu":"이천시","dong":"창전동"},{"name":"새마을금고앞","type":"공영","category":"노상","address":"경기도 이천시 중리천로 67","lat":37.27947903,"lng":127.4454255,"totalSpaces":18,"isFree":false,"operatingDays":"평일","weekdayOpen":"09:00","weekdayClose":"18:00","weekendOpen":"00:00","weekendClose":"00:00","holidayOpen":"00:00","holidayClose":"00:00","feeInfo":"기본 30분 600원 / 추가 10분당 250원","phone":"031-635-2070","updatedAt":"2025-11-26","sido":"경기도","sigungu":"이천시","dong":"창전동"},{"name":"8-3 터미널뒤","type":"공영","category":"노상","address":"경기도 이천시 중리천로 96-23","lat":37.2768568,"lng":127.4475898,"totalSpaces":17,"isFree":false,"operatingDays":"평일","weekdayOpen":"10:00","weekdayClose":"19:00","weekendOpen":"00:00","weekendClose":"00:00","holidayOpen":"00:00","holidayClose":"00:00","feeInfo":"기본 30분 600원 / 추가 10분당 250원","phone":"031-635-2070","updatedAt":"2025-04-11","sido":"경기도","sigungu":"이천시","dong":"중리동"},{"name":"8-4 안흥지건너편","type":"공영","category":"노상","address":"경기도 이천시 중리천로 116","lat":37.27681507,"lng":127.4489507,"totalSpaces":17,"isFree":false,"operatingDays":"평일","weekdayOpen":"10:00","weekdayClose":"19:00","weekendOpen":"00:00","weekendClose":"00:00","holidayOpen":"00:00","holidayClose":"00:00","feeInfo":"기본 30분 600원 / 추가 10분당 250원","phone":"031-635-2070","updatedAt":"2025-04-11","sido":"경기도","sigungu":"이천시","dong":"중리동"},{"name":"2-1 관고전통시장입구앞","type":"공영","category":"노상","address":"경기도 이천시 중리천로 23","lat":37.28059501,"lng":127.4406716,"totalSpaces":17,"isFree":false,"operatingDays":"평일","weekdayOpen":"10:00","weekdayClose":"19:00","weekendOpen":"00:00","weekendClose":"00:00","holidayOpen":"00:00","holidayClose":"00:00","feeInfo":"기본 30분 600원 / 추가 10분당 250원","phone":"031-635-2070","updatedAt":"2025-04-11","sido":"경기도","sigungu":"이천시","dong":"창전동"},{"name":"3-1 세람저축은행앞","type":"공영","category":"노상","address":"경기도 이천시 중리천로 50","lat":37.27992766,"lng":127.4432662,"totalSpaces":17,"isFree":false,"operatingDays":"평일","weekdayOpen":"10:00","weekdayClose":"19:00","weekendOpen":"00:00","weekendClose":"00:00","holidayOpen":"00:00","holidayClose":"00:00","feeInfo":"기본 30분 600원 / 추가 10분당 250원","phone":"031-635-2070","updatedAt":"2025-04-11","sido":"경기도","sigungu":"이천시","dong":"중리동"},{"name":"터미널뒤","type":"공영","category":"노상","address":"경기도 이천시 중리천로 96-23","lat":37.27685693,"lng":127.4475931,"totalSpaces":17,"isFree":false,"operatingDays":"평일","weekdayOpen":"09:00","weekdayClose":"18:00","weekendOpen":"00:00","weekendClose":"00:00","holidayOpen":"00:00","holidayClose":"00:00","feeInfo":"기본 30분 600원 / 추가 10분당 250원","phone":"031-635-2070","updatedAt":"2025-11-26","sido":"경기도","sigungu":"이천시","dong":"중리동"},{"name":"안흥지건너편","type":"공영","category":"노상","address":"경기도 이천시 중리천로 116","lat":37.2768395,"lng":127.4489467,"totalSpaces":17,"isFree":false,"operatingDays":"평일","weekdayOpen":"09:00","weekdayClose":"18:00","weekendOpen":"00:00","weekendClose":"00:00","holidayOpen":"00:00","holidayClose":"00:00","feeInfo":"기본 30분 600원 / 추가 10분당 250원","phone":"031-635-2070","updatedAt":"2025-11-26","sido":"경기도","sigungu":"이천시","dong":"중리동"},{"name":"관고전통시장입구앞","type":"공영","category":"노상","address":"경기도 이천시 중리천로 23","lat":37.28059448,"lng":127.4406755,"totalSpaces":17,"isFree":false,"operatingDays":"평일","weekdayOpen":"09:00","weekdayClose":"18:00","weekendOpen":"00:00","weekendClose":"00:00","holidayOpen":"00:00","holidayClose":"00:00","feeInfo":"기본 30분 600원 / 추가 10분당 250원","phone":"031-635-2070","updatedAt":"2025-11-26","sido":"경기도","sigungu":"이천시","dong":"창전동"},{"name":"세람저축은행앞","type":"공영","category":"노상","address":"경기도 이천시 중리천로 50","lat":37.27993773,"lng":127.4432818,"totalSpaces":17,"isFree":false,"operatingDays":"평일","weekdayOpen":"09:00","weekdayClose":"18:00","weekendOpen":"00:00","weekendClose":"00:00","holidayOpen":"00:00","holidayClose":"00:00","feeInfo":"기본 30분 600원 / 추가 10분당 250원","phone":"031-635-2070","updatedAt":"2025-11-26","sido":"경기도","sigungu":"이천시","dong":"중리동"},{"name":"세람저축은행맞은편","type":"공영","category":"노상","address":"경기도 이천시 중리천로 51","lat":37.28047876,"lng":127.443665,"totalSpaces":17,"isFree":false,"operatingDays":"평일","weekdayOpen":"09:00","weekdayClose":"18:00","weekendOpen":"00:00","weekendClose":"00:00","holidayOpen":"00:00","holidayClose":"00:00","feeInfo":"기본 30분 600원 / 추가 10분당 250원","phone":"031-635-2070","updatedAt":"2025-11-26","sido":"경기도","sigungu":"이천시","dong":"창전동"},{"name":"실버 중앙사거리","type":"공영","category":"노상","address":"경기도 이천시 영창로 181","lat":37.28160598,"lng":127.4427697,"totalSpaces":16,"isFree":false,"operatingDays":"평일","weekdayOpen":"10:00","weekdayClose":"19:00","weekendOpen":"00:00","weekendClose":"00:00","holidayOpen":"00:00","holidayClose":"00:00","feeInfo":"기본 30분 600원 / 추가 10분당 250원","phone":"031-635-2070","updatedAt":"2025-04-11","sido":"경기도","sigungu":"이천시","dong":"창전동"},{"name":"주차장사무실앞","type":"공영","category":"노상","address":"경기도 이천시 중리천로 38","lat":37.28027975,"lng":127.4422212,"totalSpaces":16,"isFree":false,"operatingDays":"평일","weekdayOpen":"09:00","weekdayClose":"18:00","weekendOpen":"00:00","weekendClose":"00:00","holidayOpen":"00:00","holidayClose":"00:00","feeInfo":"기본 30분 600원 / 추가 10분당 250원","phone":"031-635-2070","updatedAt":"2025-11-26","sido":"경기도","sigungu":"이천시","dong":"중리동"},{"name":"2-3 주차장사무실앞","type":"공영","category":"노상","address":"경기도 이천시 중리천로 38","lat":37.28028028,"lng":127.442218,"totalSpaces":14,"isFree":false,"operatingDays":"평일","weekdayOpen":"10:00","weekdayClose":"19:00","weekendOpen":"00:00","weekendClose":"00:00","holidayOpen":"00:00","holidayClose":"00:00","feeInfo":"기본 30분 600원 / 추가 10분당 250원","phone":"031-635-2070","updatedAt":"2025-04-11","sido":"경기도","sigungu":"이천시","dong":"중리동"},{"name":"4-4 라온팰리스맞은편","type":"공영","category":"노상","address":"경기도 이천시 중리천로 81","lat":37.27866757,"lng":127.4465036,"totalSpaces":12,"isFree":false,"operatingDays":"평일","weekdayOpen":"10:00","weekdayClose":"19:00","weekendOpen":"00:00","weekendClose":"00:00","holidayOpen":"00:00","holidayClose":"00:00","feeInfo":"기본 30분 600원 / 추가 10분당 250원","phone":"031-635-2070","updatedAt":"2025-04-11","sido":"경기도","sigungu":"이천시","dong":"창전동"},{"name":"라온팰리스맞은편","type":"공영","category":"노상","address":"경기도 이천시 중리천로 81","lat":37.27866825,"lng":127.4465036,"totalSpaces":12,"isFree":false,"operatingDays":"평일","weekdayOpen":"09:00","weekdayClose":"18:00","weekendOpen":"00:00","weekendClose":"00:00","holidayOpen":"00:00","holidayClose":"00:00","feeInfo":"기본 30분 600원 / 추가 10분당 250원","phone":"031-635-2070","updatedAt":"2025-11-26","sido":"경기도","sigungu":"이천시","dong":"창전동"},{"name":"11-2 공설운동장뒤","type":"공영","category":"노상","address":"경기도 이천시 남천로16","lat":37.27781916,"lng":127.4390824,"totalSpaces":11,"isFree":false,"operatingDays":"평일","weekdayOpen":"10:00","weekdayClose":"19:00","weekendOpen":"00:00","weekendClose":"00:00","holidayOpen":"00:00","holidayClose":"00:00","feeInfo":"기본 30분 600원 / 추가 10분당 250원","phone":"031-635-2070","updatedAt":"2025-04-11","sido":"경기도","sigungu":"이천시","dong":"중리동"},{"name":"11-1 공설운동장앞","type":"공영","category":"노상","address":"경기도 이천시 남천로10","lat":37.27794591,"lng":127.4384806,"totalSpaces":11,"isFree":false,"operatingDays":"평일","weekdayOpen":"10:00","weekdayClose":"19:00","weekendOpen":"00:00","weekendClose":"00:00","holidayOpen":"00:00","holidayClose":"00:00","feeInfo":"기본 30분 600원 / 추가 10분당 250원","phone":"031-635-2070","updatedAt":"2025-04-11","sido":"경기도","sigungu":"이천시","dong":"중리동"},{"name":"공설운동장옆1","type":"공영","category":"노상","address":"경기도 이천시 남천로10","lat":37.277955,"lng":127.438485,"totalSpaces":11,"isFree":false,"operatingDays":"평일","weekdayOpen":"09:00","weekdayClose":"18:00","weekendOpen":"00:00","weekendClose":"00:00","holidayOpen":"00:00","holidayClose":"00:00","feeInfo":"기본 30분 600원 / 추가 10분당 250원","phone":"031-635-2070","updatedAt":"2025-11-26","sido":"경기도","sigungu":"이천시","dong":"중리동"},{"name":"공설운동장옆2","type":"공영","category":"노상","address":"경기도 이천시 남천로16","lat":37.2778,"lng":127.4390824,"totalSpaces":11,"isFree":false,"operatingDays":"평일","weekdayOpen":"09:00","weekdayClose":"18:00","weekendOpen":"00:00","weekendClose":"00:00","holidayOpen":"00:00","holidayClose":"00:00","feeInfo":"기본 30분 600원 / 추가 10분당 250원","phone":"031-635-2070","updatedAt":"2025-11-26","sido":"경기도","sigungu":"이천시","dong":"중리동"},{"name":"농협하나로마트앞","type":"공영","category":"노상","address":"경기도 이천시 영창로 235","lat":37.28115706,"lng":127.4486167,"totalSpaces":8,"isFree":false,"operatingDays":"평일","weekdayOpen":"09:00","weekdayClose":"18:00","weekendOpen":"00:00","weekendClose":"00:00","holidayOpen":"00:00","holidayClose":"00:00","feeInfo":"기본 30분 600원 / 추가 10분당 250원","phone":"031-635-2070","updatedAt":"2025-11-26","sido":"경기도","sigungu":"이천시","dong":"창전동"}]}