{"sido":"경기도","sigungu":"파주시","totalCount":92,"validCount":92,"items":[{"name":"통일동산","type":"공영","category":"노외","address":"경기도 파주시 탄현면 성동리 646","lat":37.77986563,"lng":126.685002,"totalSpaces":1248,"isFree":true,"operatingDays":"평일+토요일+공휴일","weekdayOpen":"09:00","weekdayClose":"23:59","weekendOpen":"09:00","weekendClose":"18:00","holidayOpen":"09:00","holidayClose":"18:00","feeInfo":"무료","phone":"031-909-6312","updatedAt":"2025-12-18","sido":"경기도","sigungu":"파주시","dong":"탄현면"},{"name":"심학산공원 공영","type":"공영","category":"노외","address":"경기도 파주시 숲속노을로 67","lat":37.70703288,"lng":126.7177373,"totalSpaces":383,"isFree":true,"operatingDays":"평일+토요일+공휴일","weekdayOpen":"00:00","weekdayClose":"23:59","weekendOpen":"00:00","weekendClose":"23:59","holidayOpen":"00:00","holidayClose":"23:59","feeInfo":"무료","phone":"031-940-4783","updatedAt":"2025-12-18","sido":"경기도","sigungu":"파주시","dong":"동패동"},{"name":"적암리 희망","type":"공영","category":"노외","address":"경기도 파주시 적성면 율곡로3064번길 54","lat":37.98516423,"lng":127.0039588,"totalSpaces":232,"isFree":true,"operatingDays":"평일+토요일+공휴일","weekdayOpen":"00:00","weekdayClose":"23:59","weekendOpen":"00:00","weekendClose":"23:59","holidayOpen":"00:00","holidayClose":"23:59","feeInfo":"무료","phone":"031-940-4783","updatedAt":"2025-12-18","sido":"경기도","sigungu":"파주시","dong":"적성면"},{"name":"헤이리 GATE 1","type":"공영","category":"노외","address":"경기도 파주시 탄현면 헤이리마을길 9","lat":37.78825497,"lng":126.6949906,"totalSpaces":189,"isFree":true,"operatingDays":"평일+토요일+공휴일","weekdayOpen":"00:00","weekdayClose":"23:59","weekendOpen":"00:00","weekendClose":"23:59","holidayOpen":"00:00","holidayClose":"23:59","feeInfo":"무료","phone":"031-940-4783","updatedAt":"2025-12-18","sido":"경기도","sigungu":"파주시","dong":"탄현면"},{"name":"운정2","type":"공영","category":"노외","address":"경기도 파주시 미래로 596","lat":37.73042337,"lng":126.7518587,"totalSpaces":183,"isFree":true,"operatingDays":"평일+토요일+공휴일","weekdayOpen":"00:00","weekdayClose":"23:59","weekendOpen":"00:00","weekendClose":"23:59","holidayOpen":"00:00","holidayClose":"23:59","feeInfo":"무료","phone":"031-940-4783","updatedAt":"2025-12-18","sido":"경기도","sigungu":"파주시","dong":"와동동"},{"name":"운정3","type":"공영","category":"노외","address":"경기도 파주시 와동동 1380","lat":37.72903522,"lng":126.7598718,"totalSpaces":162,"isFree":true,"operatingDays":"평일+토요일+공휴일","weekdayOpen":"00:00","weekdayClose":"23:59","weekendOpen":"00:00","weekendClose":"23:59","holidayOpen":"00:00","holidayClose":"23:59","feeInfo":"무료","phone":"031-940-4783","updatedAt":"2025-12-18","sido":"경기도","sigungu":"파주시","dong":"와동동"},{"name":"문발산업단지 노외","type":"공영","category":"노외","address":"경기도 파주시 산업단지길 180","lat":37.7307193,"lng":126.7088346,"totalSpaces":144,"isFree":true,"operatingDays":"평일+토요일+공휴일","weekdayOpen":"00:00","weekdayClose":"23:59","weekendOpen":"00:00","weekendClose":"23:59","holidayOpen":"00:00","holidayClose":"23:59","feeInfo":"무료","phone":"031-940-4783","updatedAt":"2025-12-18","sido":"경기도","sigungu":"파주시","dong":"신촌동"},{"name":"광탄2","type":"공영","category":"노외","address":"경기도 파주시 광탄면 혜음로1120번길 23","lat":37.78238913,"lng":126.848351,"totalSpaces":118,"isFree":true,"operatingDays":"평일+토요일+공휴일","weekdayOpen":"00:00","weekdayClose":"23:59","weekendOpen":"00:00","weekendClose":"23:59","holidayOpen":"00:00","holidayClose":"23:59","feeInfo":"무료","phone":"031-940-4783","updatedAt":"2025-12-18","sido":"경기도","sigungu":"파주시","dong":"광탄면"},{"name":"교하2-1","type":"공영","category":"노외","address":"경기도 파주시 교하로 693","lat":37.71041153,"lng":126.7033027,"totalSpaces":105,"isFree":true,"operatingDays":"평일+토요일+공휴일","weekdayOpen":"00:00","weekdayClose":"23:59","weekendOpen":"00:00","weekendClose":"23:59","holidayOpen":"00:00","holidayClose":"23:59","feeInfo":"무료","phone":"031-940-4783","updatedAt":"2025-12-18","sido":"경기도","sigungu":"파주시","dong":"서패동"},{"name":"탄현1","type":"공영","category":"노외","address":"경기도 파주시 탄현면 평화로 885-15","lat":37.78437418,"lng":126.6902857,"totalSpaces":100,"isFree":true,"operatingDays":"평일+토요일+공휴일","weekdayOpen":"00:00","weekdayClose":"23:59","weekendOpen":"00:00","weekendClose":"23:59","holidayOpen":"00:00","holidayClose":"23:59","feeInfo":"무료","phone":"031-940-4783","updatedAt":"2025-12-18","sido":"경기도","sigungu":"파주시","dong":"탄현면"},{"name":"파주 콘텐츠 월드 3","type":"공영","category":"노외","address":"경기도 파주시 파평면 장파리 1220-3","lat":37.94533009,"lng":126.8602508,"totalSpaces":99,"isFree":true,"operatingDays":"평일+토요일+공휴일","weekdayOpen":"00:00","weekdayClose":"23:59","weekendOpen":"00:00","weekendClose":"23:59","holidayOpen":"00:00","holidayClose":"23:59","feeInfo":"무료","phone":"031-940-4783","updatedAt":"2025-12-18","sido":"경기도","sigungu":"파주시","dong":"파평면"},{"name":"심학산 배수지 입구","type":"공영","category":"노외","address":"경기도 파주시 동패동 643-3","lat":37.7067842,"lng":126.7148562,"totalSpaces":96,"isFree":true,"operatingDays":"평일+토요일+공휴일","weekdayOpen":"00:00","weekdayClose":"23:59","weekendOpen":"00:00","weekendClose":"23:59","holidayOpen":"00:00","holidayClose":"23:59","feeInfo":"무료","phone":"031-940-4783","updatedAt":"2025-12-18","sido":"경기도","sigungu":"파주시","dong":"동패동"},{"name":"파주 콘텐츠 월드 2","type":"공영","category":"노외","address":"경기도 파주시 파평면 장파리 1206-1","lat":37.94670659,"lng":126.8546059,"totalSpaces":95,"isFree":true,"operatingDays":"평일+토요일+공휴일","weekdayOpen":"00:00","weekdayClose":"23:59","weekendOpen":"00:00","weekendClose":"23:59","holidayOpen":"00:00","holidayClose":"23:59","feeInfo":"무료","phone":"031-940-4783","updatedAt":"2025-12-18","sido":"경기도","sigungu":"파주시","dong":"파평면"},{"name":"파주 콘텐츠 월드 1","type":"공영","category":"노외","address":"경기도 파주시 적성면 답곡리 818-2","lat":37.94847418,"lng":126.8535681,"totalSpaces":88,"isFree":true,"operatingDays":"평일+토요일+공휴일","weekdayOpen":"00:00","weekdayClose":"23:59","weekendOpen":"00:00","weekendClose":"23:59","holidayOpen":"00:00","holidayClose":"23:59","feeInfo":"무료","phone":"031-940-4783","updatedAt":"2025-12-18","sido":"경기도","sigungu":"파주시","dong":"적성면"},{"name":"문산4","type":"공영","category":"노외","address":"경기도 파주시 문산읍 문향로49번길 71","lat":37.85603065,"lng":126.7810785,"totalSpaces":80,"isFree":true,"operatingDays":"평일+토요일+공휴일","weekdayOpen":"00:00","weekdayClose":"23:59","weekendOpen":"00:00","weekendClose":"23:59","holidayOpen":"00:00","holidayClose":"23:59","feeInfo":"무료","phone":"031-940-4783","updatedAt":"2025-12-18","sido":"경기도","sigungu":"파주시","dong":"문산읍"},{"name":"파주역 공영","type":"공영","category":"노외","address":"경기도 파주시 파주읍 주라위길 36","lat":37.81516353,"lng":126.7926041,"totalSpaces":77,"isFree":true,"operatingDays":"평일+토요일+공휴일","weekdayOpen":"00:00","weekdayClose":"23:59","weekendOpen":"00:00","weekendClose":"23:59","holidayOpen":"00:00","holidayClose":"23:59","feeInfo":"무료","phone":"031-940-4783","updatedAt":"2025-12-18","sido":"경기도","sigungu":"파주시","dong":"파주읍"},{"name":"이등병마을","type":"공영","category":"노외","address":"경기도 파주시 광탄면 청계말길 13","lat":37.78183818,"lng":126.8448923,"totalSpaces":66,"isFree":true,"operatingDays":"평일+토요일+공휴일","weekdayOpen":"00:00","weekdayClose":"23:59","weekendOpen":"00:00","weekendClose":"23:59","holidayOpen":"00:00","holidayClose":"23:59","feeInfo":"무료","phone":"031-940-4783","updatedAt":"2025-12-18","sido":"경기도","sigungu":"파주시","dong":"광탄면"},{"name":"파주4","type":"공영","category":"노외","address":"경기도 파주시 파주읍 향교말길 14","lat":37.83270955,"lng":126.8165445,"totalSpaces":60,"isFree":true,"operatingDays":"평일+토요일+공휴일","weekdayOpen":"00:00","weekdayClose":"23:59","weekendOpen":"00:00","weekendClose":"23:59","holidayOpen":"00:00","holidayClose":"23:59","feeInfo":"무료","phone":"031-940-4783","updatedAt":"2025-12-18","sido":"경기도","sigungu":"파주시","dong":"파주읍"},{"name":"산내마을1","type":"공영","category":"노외","address":"경기도 파주시 교하로159번길 42","lat":37.72357149,"lng":126.7402855,"totalSpaces":58,"isFree":true,"operatingDays":"평일+토요일+공휴일","weekdayOpen":"00:00","weekdayClose":"23:59","weekendOpen":"00:00","weekendClose":"23:59","holidayOpen":"00:00","holidayClose":"23:59","feeInfo":"무료","phone":"031-940-4783","updatedAt":"2025-12-18","sido":"경기도","sigungu":"파주시","dong":"목동동"},{"name":"금촌 9","type":"공영","category":"노외","address":"경기도 파주시 금촌동 948-5","lat":37.75818167,"lng":126.7752074,"totalSpaces":55,"isFree":true,"operatingDays":"평일+토요일+공휴일","weekdayOpen":"00:00","weekdayClose":"23:59","weekendOpen":"00:00","weekendClose":"23:59","holidayOpen":"00:00","holidayClose":"23:59","feeInfo":"무료","phone":"031-940-4783","updatedAt":"2025-12-18","sido":"경기도","sigungu":"파주시","dong":"금촌동"},{"name":"회동길","type":"공영","category":"노외","address":"경기도 파주시 문발동 513-16","lat":37.70845888,"lng":126.6876333,"totalSpaces":53,"isFree":true,"operatingDays":"평일+토요일+공휴일","weekdayOpen":"00:00","weekdayClose":"23:59","weekendOpen":"00:00","weekendClose":"23:59","holidayOpen":"00:00","holidayClose":"23:59","feeInfo":"무료","phone":"031-940-4783","updatedAt":"2025-12-18","sido":"경기도","sigungu":"파주시","dong":"문발동"},{"name":"적성마지","type":"공영","category":"노외","address":"경기도 파주시 적성면 마지리 36-98","lat":37.95712744,"lng":126.9172138,"totalSpaces":52,"isFree":true,"operatingDays":"평일+토요일+공휴일","weekdayOpen":"00:00","weekdayClose":"23:59","weekendOpen":"00:00","weekendClose":"23:59","holidayOpen":"00:00","holidayClose":"23:59","feeInfo":"무료","phone":"031-940-4783","updatedAt":"2025-12-18","sido":"경기도","sigungu":"파주시","dong":"적성면"},{"name":"한울마을","type":"공영","category":"노외","address":"경기도 파주시 동패로 93","lat":37.7114234,"lng":126.7391388,"totalSpaces":52,"isFree":true,"operatingDays":"평일+토요일+공휴일","weekdayOpen":"00:00","weekdayClose":"23:59","weekendOpen":"00:00","weekendClose":"23:59","holidayOpen":"00:00","holidayClose":"23:59","feeInfo":"무료","phone":"031-940-4783","updatedAt":"2025-12-18","sido":"경기도","sigungu":"파주시","dong":"동패동"},{"name":"운정1","type":"공영","category":"노외","address":"경기도 파주시 미래로 394","lat":37.71330087,"lng":126.746964,"totalSpaces":50,"isFree":true,"operatingDays":"평일+토요일+공휴일","weekdayOpen":"00:00","weekdayClose":"23:59","weekendOpen":"00:00","weekendClose":"23:59","holidayOpen":"00:00","holidayClose":"23:59","feeInfo":"무료","phone":"031-940-4783","updatedAt":"2025-12-18","sido":"경기도","sigungu":"파주시","dong":"야당동"},{"name":"법원2","type":"공영","category":"노외","address":"경기도 파주시 법원읍 사임당로857번길 34","lat":37.85025401,"lng":126.8760343,"totalSpaces":49,"isFree":true,"operatingDays":"평일+토요일+공휴일","weekdayOpen":"00:00","weekdayClose":"23:59","weekendOpen":"00:00","weekendClose":"23:59","holidayOpen":"00:00","holidayClose":"23:59","feeInfo":"무료","phone":"031-940-4783","updatedAt":"2025-12-18","sido":"경기도","sigungu":"파주시","dong":"법원읍"},{"name":"법원행복주택","type":"공영","category":"노외","address":"경기도 파주시 법원읍 대능리 556","lat":37.84698222,"lng":126.8768494,"totalSpaces":42,"isFree":true,"operatingDays":"평일+토요일+공휴일","weekdayOpen":"00:00","weekdayClose":"23:59","weekendOpen":"00:00","weekendClose":"23:59","holidayOpen":"00:00","holidayClose":"23:59","feeInfo":"무료","phone":"031-940-4783","updatedAt":"2025-12-18","sido":"경기도","sigungu":"파주시","dong":"법원읍"},{"name":"법원3리","type":"공영","category":"노외","address":"경기도 파주시 법원읍 사임당로857번길 53","lat":37.8513062,"lng":126.8755935,"totalSpaces":41,"isFree":true,"operatingDays":"평일+토요일+공휴일","weekdayOpen":"00:00","weekdayClose":"23:59","weekendOpen":"00:00","weekendClose":"23:59","holidayOpen":"00:00","holidayClose":"23:59","feeInfo":"무료","phone":"031-940-4783","updatedAt":"2025-12-18","sido":"경기도","sigungu":"파주시","dong":"법원읍"},{"name":"법원3","type":"공영","category":"노외","address":"경기도 파주시 법원읍 법원리 674-1","lat":37.854721,"lng":126.8753829,"totalSpaces":40,"isFree":true,"operatingDays":"평일+토요일+공휴일","weekdayOpen":"00:00","weekdayClose":"23:59","weekendOpen":"00:00","weekendClose":"23:59","holidayOpen":"00:00","holidayClose":"23:59","feeInfo":"무료","phone":"031-940-4783","updatedAt":"2025-12-18","sido":"경기도","sigungu":"파주시","dong":"법원읍"},{"name":"교하1-1","type":"공영","category":"노외","address":"경기도 파주시 교하로 713","lat":37.71143638,"lng":126.7015745,"totalSpaces":40,"isFree":true,"operatingDays":"평일+토요일+공휴일","weekdayOpen":"00:00","weekdayClose":"23:59","weekendOpen":"00:00","weekendClose":"23:59","holidayOpen":"00:00","holidayClose":"23:59","feeInfo":"무료","phone":"031-940-4783","updatedAt":"2025-12-18","sido":"경기도","sigungu":"파주시","dong":"서패동"},{"name":"파주1","type":"공영","category":"노외","address":"경기도 파주시 파주읍 술이홀로 433","lat":37.82939846,"lng":126.8349608,"totalSpaces":40,"isFree":true,"operatingDays":"평일+토요일+공휴일","weekdayOpen":"00:00","weekdayClose":"23:59","weekendOpen":"00:00","weekendClose":"23:59","holidayOpen":"00:00","holidayClose":"23:59","feeInfo":"무료","phone":"031-940-4783","updatedAt":"2025-12-18","sido":"경기도","sigungu":"파주시","dong":"파주읍"},{"name":"금촌2-15","type":"공영","category":"노외","address":"경기도 파주시 후곡로 99","lat":37.74853323,"lng":126.773879,"totalSpaces":40,"isFree":true,"operatingDays":"평일+토요일+공휴일","weekdayOpen":"00:00","weekdayClose":"23:59","weekendOpen":"00:00","weekendClose":"23:59","holidayOpen":"00:00","holidayClose":"23:59","feeInfo":"무료","phone":"031-940-4783","updatedAt":"2025-12-18","sido":"경기도","sigungu":"파주시","dong":"금촌동"},{"name":"앵골과선교 하부","type":"공영","category":"노외","address":"경기도 파주시 야당동 469-136","lat":37.70423992,"lng":126.7623838,"totalSpaces":39,"isFree":true,"operatingDays":"평일+토요일+공휴일","weekdayOpen":"00:00","weekdayClose":"23:59","weekendOpen":"00:00","weekendClose":"23:59","holidayOpen":"00:00","holidayClose":"23:59","feeInfo":"무료","phone":"031-940-4783","updatedAt":"2025-12-18","sido":"경기도","sigungu":"파주시","dong":"야당동"},{"name":"문산2","type":"공영","category":"노외","address":"경기도 파주시 문산읍 문향로39번길 51-1","lat":37.85460024,"lng":126.7829907,"totalSpaces":36,"isFree":true,"operatingDays":"평일+토요일+공휴일","weekdayOpen":"00:00","weekdayClose":"23:59","weekendOpen":"00:00","weekendClose":"23:59","holidayOpen":"00:00","holidayClose":"23:59","feeInfo":"무료","phone":"031-940-4783","updatedAt":"2025-12-18","sido":"경기도","sigungu":"파주시","dong":"문산읍"},{"name":"법원6","type":"공영","category":"노외","address":"경기도 파주시 법원읍 술이홀로895번길 14","lat":37.85117409,"lng":126.8737471,"totalSpaces":34,"isFree":true,"operatingDays":"평일+토요일+공휴일","weekdayOpen":"00:00","weekdayClose":"23:59","weekendOpen":"00:00","weekendClose":"23:59","holidayOpen":"00:00","holidayClose":"23:59","feeInfo":"무료","phone":"031-940-4783","updatedAt":"2025-12-18","sido":"경기도","sigungu":"파주시","dong":"법원읍"},{"name":"금촌1","type":"공영","category":"노외","address":"경기도 파주시 번영로 46","lat":37.75783371,"lng":126.7678848,"totalSpaces":33,"isFree":true,"operatingDays":"평일+토요일+공휴일","weekdayOpen":"00:00","weekdayClose":"23:59","weekendOpen":"00:00","weekendClose":"23:59","holidayOpen":"00:00","holidayClose":"23:59","feeInfo":"무료","phone":"031-940-4783","updatedAt":"2025-12-18","sido":"경기도","sigungu":"파주시","dong":"금촌동"},{"name":"가야1","type":"공영","category":"노외","address":"경기도 파주시 법원읍 가야리 380-2","lat":37.84960326,"lng":126.866297,"totalSpaces":33,"isFree":true,"operatingDays":"평일+토요일+공휴일","weekdayOpen":"00:00","weekdayClose":"23:59","weekendOpen":"00:00","weekendClose":"23:59","holidayOpen":"00:00","holidayClose":"23:59","feeInfo":"무료","phone":"031-940-4783","updatedAt":"2025-12-18","sido":"경기도","sigungu":"파주시","dong":"법원읍"},{"name":"적성구읍","type":"공영","category":"노외","address":"경기도 파주시 적성면 칠중7길 4","lat":37.95609408,"lng":126.9221857,"totalSpaces":31,"isFree":true,"operatingDays":"평일+토요일+공휴일","weekdayOpen":"00:00","weekdayClose":"23:59","weekendOpen":"00:00","weekendClose":"23:59","holidayOpen":"00:00","holidayClose":"23:59","feeInfo":"무료","phone":"031-940-4783","updatedAt":"2025-12-18","sido":"경기도","sigungu":"파주시","dong":"적성면"},{"name":"운정4","type":"공영","category":"노외","address":"경기도 파주시 야당동 1006-9","lat":37.71023351,"lng":126.7520252,"totalSpaces":31,"isFree":true,"operatingDays":"평일+토요일+공휴일","weekdayOpen":"00:00","weekdayClose":"23:59","weekendOpen":"00:00","weekendClose":"23:59","holidayOpen":"00:00","holidayClose":"23:59","feeInfo":"무료","phone":"031-940-4783","updatedAt":"2025-12-18","sido":"경기도","sigungu":"파주시","dong":"야당동"},{"name":"운정6동","type":"공영","category":"노외","address":"경기도 파주시 동패동 512-6","lat":37.71239028,"lng":126.7216863,"totalSpaces":30,"isFree":true,"operatingDays":"평일+토요일+공휴일","weekdayOpen":"00:00","weekdayClose":"23:59","weekendOpen":"00:00","weekendClose":"23:59","holidayOpen":"00:00","holidayClose":"23:59","feeInfo":"무료","phone":"031-940-4783","updatedAt":"2025-12-18","sido":"경기도","sigungu":"파주시","dong":"동패동"},{"name":"법원시가지 우회도로","type":"공영","category":"노외","address":"경기도 파주시 법원읍 대능리 224-5","lat":37.84781502,"lng":126.8686865,"totalSpaces":28,"isFree":true,"operatingDays":"평일+토요일+공휴일","weekdayOpen":"00:00","weekdayClose":"23:59","weekendOpen":"00:00","weekendClose":"23:59","holidayOpen":"00:00","holidayClose":"23:59","feeInfo":"무료","phone":"031-940-4783","updatedAt":"2025-12-18","sido":"경기도","sigungu":"파주시","dong":"법원읍"},{"name":"금파리","type":"공영","category":"노외","address":"경기도 파주시 파평면 청송로208번길 71","lat":37.92455774,"lng":126.8431047,"totalSpaces":28,"isFree":true,"operatingDays":"평일+토요일+공휴일","weekdayOpen":"00:00","weekdayClose":"23:59","weekendOpen":"00:00","weekendClose":"23:59","holidayOpen":"00:00","holidayClose":"23:59","feeInfo":"무료","phone":"031-940-4783","updatedAt":"2025-12-18","sido":"경기도","sigungu":"파주시","dong":"파평면"},{"name":"가야2","type":"공영","category":"노외","address":"경기도 파주시 법원읍 가야리 380-27","lat":37.84870074,"lng":126.8669873,"totalSpaces":26,"isFree":true,"operatingDays":"평일+토요일+공휴일","weekdayOpen":"00:00","weekdayClose":"23:59","weekendOpen":"00:00","weekendClose":"23:59","holidayOpen":"00:00","holidayClose":"23:59","feeInfo":"무료","phone":"031-940-4783","updatedAt":"2025-12-18","sido":"경기도","sigungu":"파주시","dong":"법원읍"},{"name":"동파리","type":"공영","category":"노외","address":"경기도 파주시 진동면 높은음자리길 85","lat":37.92665255,"lng":126.7864902,"totalSpaces":24,"isFree":true,"operatingDays":"평일+토요일+공휴일","weekdayOpen":"00:00","weekdayClose":"23:59","weekendOpen":"00:00","weekendClose":"23:59","holidayOpen":"00:00","holidayClose":"23:59","feeInfo":"무료","phone":"031-940-4783","updatedAt":"2025-12-18","sido":"경기도","sigungu":"파주시","dong":"진동면"},{"name":"금촌 1-8","type":"공영","category":"노외","address":"경기도 파주시 아동로 51","lat":37.76654956,"lng":126.7796181,"totalSpaces":24,"isFree":true,"operatingDays":"평일+토요일+공휴일","weekdayOpen":"00:00","weekdayClose":"23:59","weekendOpen":"00:00","weekendClose":"23:59","holidayOpen":"00:00","holidayClose":"23:59","feeInfo":"무료","phone":"031-940-4783","updatedAt":"2025-12-18","sido":"경기도","sigungu":"파주시","dong":"아동동"},{"name":"조리 1-2","type":"공영","category":"노외","address":"경기도 파주시 조리읍 순비골길 66","lat":37.74226962,"lng":126.8084329,"totalSpaces":24,"isFree":true,"operatingDays":"평일+토요일+공휴일","weekdayOpen":"00:00","weekdayClose":"23:59","weekendOpen":"00:00","weekendClose":"23:59","holidayOpen":"00:00","holidayClose":"23:59","feeInfo":"무료","phone":"031-940-4783","updatedAt":"2025-12-18","sido":"경기도","sigungu":"파주시","dong":"조리읍"},{"name":"초롱초","type":"공영","category":"노외","address":"경기도 파주시 동패동 561-25","lat":37.70948142,"lng":126.718776,"totalSpaces":24,"isFree":true,"operatingDays":"평일+토요일+공휴일","weekdayOpen":"00:00","weekdayClose":"23:59","weekendOpen":"00:00","weekendClose":"23:59","holidayOpen":"00:00","holidayClose":"23:59","feeInfo":"무료","phone":"031-940-4783","updatedAt":"2025-12-18","sido":"경기도","sigungu":"파주시","dong":"동패동"},{"name":"탄현","type":"공영","category":"노외","address":"경기도 파주시 탄현면 방촌로 1033","lat":37.82541031,"lng":126.7351089,"totalSpaces":22,"isFree":true,"operatingDays":"평일+토요일+공휴일","weekdayOpen":"00:00","weekdayClose":"23:59","weekendOpen":"00:00","weekendClose":"23:59","holidayOpen":"00:00","holidayClose":"23:59","feeInfo":"무료","phone":"031-940-4783","updatedAt":"2025-12-18","sido":"경기도","sigungu":"파주시","dong":"탄현면"},{"name":"파평2","type":"공영","category":"노외","address":"경기도 파주시 파평면 장마루15길 2","lat":37.94568134,"lng":126.8378293,"totalSpaces":21,"isFree":true,"operatingDays":"평일+토요일+공휴일","weekdayOpen":"00:00","weekdayClose":"23:59","weekendOpen":"00:00","weekendClose":"23:59","holidayOpen":"00:00","holidayClose":"23:59","feeInfo":"무료","phone":"031-940-4783","updatedAt":"2025-12-18","sido":"경기도","sigungu":"파주시","dong":"파평면"},{"name":"금촌5","type":"공영","category":"노외","address":"경기도 파주시 시청로 2","lat":37.75784599,"lng":126.774242,"totalSpaces":20,"isFree":true,"operatingDays":"평일+토요일+공휴일","weekdayOpen":"00:00","weekdayClose":"23:59","weekendOpen":"00:00","weekendClose":"23:59","holidayOpen":"00:00","holidayClose":"23:59","feeInfo":"무료","phone":"031-940-4783","updatedAt":"2025-12-18","sido":"경기도","sigungu":"파주시","dong":"금촌동"},{"name":"법원1","type":"공영","category":"노외","address":"경기도 파주시 법원읍 사임당로905번길 49","lat":37.84900931,"lng":126.8792729,"totalSpaces":20,"isFree":true,"operatingDays":"평일+토요일+공휴일","weekdayOpen":"00:00","weekdayClose":"23:59","weekendOpen":"00:00","weekendClose":"23:59","holidayOpen":"00:00","holidayClose":"23:59","feeInfo":"무료","phone":"031-940-4783","updatedAt":"2025-12-18","sido":"경기도","sigungu":"파주시","dong":"법원읍"},{"name":"한울마을2","type":"공영","category":"노외","address":"경기도 파주시 동패동 1890","lat":37.7115517,"lng":126.7396783,"totalSpaces":18,"isFree":true,"operatingDays":"평일+토요일+공휴일","weekdayOpen":"00:00","weekdayClose":"23:59","weekendOpen":"00:00","weekendClose":"23:59","holidayOpen":"00:00","holidayClose":"23:59","feeInfo":"무료","phone":"031-940-4783","updatedAt":"2025-12-18","sido":"경기도","sigungu":"파주시","dong":"동패동"},{"name":"하천부지","type":"공영","category":"노외","address":"경기도 파주시 법원읍 화합로 133","lat":37.84671386,"lng":126.8815313,"totalSpaces":18,"isFree":true,"operatingDays":"평일+토요일+공휴일","weekdayOpen":"00:00","weekdayClose":"23:59","weekendOpen":"00:00","weekendClose":"23:59","holidayOpen":"00:00","holidayClose":"23:59","feeInfo":"무료","phone":"031-940-4783","updatedAt":"2025-12-18","sido":"경기도","sigungu":"파주시","dong":"법원읍"},{"name":"법원7","type":"공영","category":"노외","address":"경기도 파주시 법원읍 사임당로880번길 45","lat":37.84672378,"lng":126.8782805,"totalSpaces":18,"isFree":true,"operatingDays":"평일+토요일+공휴일","weekdayOpen":"00:00","weekdayClose":"23:59","weekendOpen":"00:00","weekendClose":"23:59","holidayOpen":"00:00","holidayClose":"23:59","feeInfo":"무료","phone":"031-940-4783","updatedAt":"2025-12-18","sido":"경기도","sigungu":"파주시","dong":"법원읍"},{"name":"한태말","type":"공영","category":"노외","address":"경기도 파주시 월롱면 공수물길 3","lat":37.78165165,"lng":126.7878864,"totalSpaces":18,"isFree":true,"operatingDays":"평일+토요일+공휴일","weekdayOpen":"00:00","weekdayClose":"23:59","weekendOpen":"00:00","weekendClose":"23:59","holidayOpen":"00:00","holidayClose":"23:59","feeInfo":"무료","phone":"031-940-4783","updatedAt":"2025-12-18","sido":"경기도","sigungu":"파주시","dong":"월롱면"},{"name":"문산역 앞","type":"공영","category":"노외","address":"경기도 파주시 문산읍 문산리 17-134","lat":37.85488855,"lng":126.7868499,"totalSpaces":17,"isFree":true,"operatingDays":"평일+토요일+공휴일","weekdayOpen":"00:00","weekdayClose":"23:59","weekendOpen":"00:00","weekendClose":"23:59","holidayOpen":"00:00","holidayClose":"23:59","feeInfo":"무료","phone":"031-940-4783","updatedAt":"2025-12-18","sido":"경기도","sigungu":"파주시","dong":"문산읍"},{"name":"문산5","type":"공영","category":"노외","address":"경기도 파주시 문산읍 독서울2길 9","lat":37.86470829,"lng":126.8047891,"totalSpaces":17,"isFree":true,"operatingDays":"평일+토요일+공휴일","weekdayOpen":"00:00","weekdayClose":"23:59","weekendOpen":"00:00","weekendClose":"23:59","holidayOpen":"00:00","holidayClose":"23:59","feeInfo":"무료","phone":"031-940-4783","updatedAt":"2025-12-18","sido":"경기도","sigungu":"파주시","dong":"문산읍"},{"name":"천현초교","type":"공영","category":"노외","address":"경기도 파주시 법원읍 법원리 443-16","lat":37.84871989,"lng":126.8772819,"totalSpaces":17,"isFree":true,"operatingDays":"평일+토요일+공휴일","weekdayOpen":"00:00","weekdayClose":"23:59","weekendOpen":"00:00","weekendClose":"23:59","holidayOpen":"00:00","holidayClose":"23:59","feeInfo":"무료","phone":"031-940-4783","updatedAt":"2025-12-18","sido":"경기도","sigungu":"파주시","dong":"법원읍"},{"name":"파평1-2","type":"공영","category":"노외","address":"경기도 파주시 파평면 장마루12길 11","lat":37.94453926,"lng":126.8382834,"totalSpaces":17,"isFree":true,"operatingDays":"평일+토요일+공휴일","weekdayOpen":"00:00","weekdayClose":"23:59","weekendOpen":"00:00","weekendClose":"23:59","holidayOpen":"00:00","holidayClose":"23:59","feeInfo":"무료","phone":"031-940-4783","updatedAt":"2025-12-18","sido":"경기도","sigungu":"파주시","dong":"파평면"},{"name":"금촌4","type":"공영","category":"노외","address":"경기도 파주시 쇠재2길 22","lat":37.75287245,"lng":126.7789221,"totalSpaces":16,"isFree":true,"operatingDays":"평일+토요일+공휴일","weekdayOpen":"00:00","weekdayClose":"23:59","weekendOpen":"00:00","weekendClose":"23:59","holidayOpen":"00:00","holidayClose":"23:59","feeInfo":"무료","phone":"031-940-4783","updatedAt":"2025-12-18","sido":"경기도","sigungu":"파주시","dong":"금릉동"},{"name":"금촌8","type":"공영","category":"노외","address":"경기도 파주시 동산길 51","lat":37.75967563,"lng":126.7713179,"totalSpaces":15,"isFree":true,"operatingDays":"평일+토요일+공휴일","weekdayOpen":"00:00","weekdayClose":"23:59","weekendOpen":"00:00","weekendClose":"23:59","holidayOpen":"00:00","holidayClose":"23:59","feeInfo":"무료","phone":"031-940-4783","updatedAt":"2025-12-18","sido":"경기도","sigungu":"파주시","dong":"금촌동"},{"name":"파주2","type":"공영","category":"노외","address":"경기도 파주시 파주읍 술이홀로 432","lat":37.82932482,"lng":126.8346888,"totalSpaces":15,"isFree":true,"operatingDays":"평일+토요일+공휴일","weekdayOpen":"00:00","weekdayClose":"23:59","weekendOpen":"00:00","weekendClose":"23:59","holidayOpen":"00:00","holidayClose":"23:59","feeInfo":"무료","phone":"031-940-4783","updatedAt":"2025-12-18","sido":"경기도","sigungu":"파주시","dong":"파주읍"},{"name":"영태리","type":"공영","category":"노외","address":"경기도 파주시 월롱면 통일로 761","lat":37.77724808,"lng":126.7885191,"totalSpaces":15,"isFree":true,"operatingDays":"평일+토요일+공휴일","weekdayOpen":"00:00","weekdayClose":"23:59","weekendOpen":"00:00","weekendClose":"23:59","holidayOpen":"00:00","holidayClose":"23:59","feeInfo":"무료","phone":"031-940-4783","updatedAt":"2025-12-18","sido":"경기도","sigungu":"파주시","dong":"월롱면"},{"name":"축현리","type":"공영","category":"노외","address":"경기도 파주시 탄현면 축현리 485-7","lat":37.80207575,"lng":126.7170119,"totalSpaces":15,"isFree":true,"operatingDays":"평일+토요일+공휴일","weekdayOpen":"00:00","weekdayClose":"23:59","weekendOpen":"00:00","weekendClose":"23:59","holidayOpen":"00:00","holidayClose":"23:59","feeInfo":"무료","phone":"031-940-4783","updatedAt":"2025-12-18","sido":"경기도","sigungu":"파주시","dong":"탄현면"},{"name":"금촌7","type":"공영","category":"노외","address":"경기도 파주시 금정3길 16","lat":37.75652806,"lng":126.7753788,"totalSpaces":15,"isFree":true,"operatingDays":"평일+토요일+공휴일","weekdayOpen":"00:00","weekdayClose":"23:59","weekendOpen":"00:00","weekendClose":"23:59","holidayOpen":"00:00","holidayClose":"23:59","feeInfo":"무료","phone":"031-940-4783","updatedAt":"2025-12-18","sido":"경기도","sigungu":"파주시","dong":"금촌동"},{"name":"금촌 2-16","type":"공영","category":"노외","address":"경기도 파주시 동산8길 23","lat":37.75877048,"lng":126.7721555,"totalSpaces":13,"isFree":true,"operatingDays":"평일+토요일+공휴일","weekdayOpen":"00:00","weekdayClose":"23:59","weekendOpen":"00:00","weekendClose":"23:59","holidayOpen":"00:00","holidayClose":"23:59","feeInfo":"무료","phone":"031-940-4783","updatedAt":"2025-12-18","sido":"경기도","sigungu":"파주시","dong":"금촌동"},{"name":"선유리","type":"공영","category":"노외","address":"경기도 파주시 문산읍 선유리 1425","lat":37.86282128,"lng":126.7867517,"totalSpaces":13,"isFree":true,"operatingDays":"평일+토요일+공휴일","weekdayOpen":"00:00","weekdayClose":"23:59","weekendOpen":"00:00","weekendClose":"23:59","holidayOpen":"00:00","holidayClose":"23:59","feeInfo":"무료","phone":"031-940-4783","updatedAt":"2025-12-18","sido":"경기도","sigungu":"파주시","dong":"문산읍"},{"name":"금촌역","type":"공영","category":"노외","address":"경기도 파주시 금촌동 329-204","lat":37.76522241,"lng":126.7736543,"totalSpaces":10,"isFree":true,"operatingDays":"평일+토요일+공휴일","weekdayOpen":"00:00","weekdayClose":"23:59","weekendOpen":"00:00","weekendClose":"23:59","holidayOpen":"00:00","holidayClose":"23:59","feeInfo":"무료","phone":"031-940-4783","updatedAt":"2025-12-18","sido":"경기도","sigungu":"파주시","dong":"금촌동"},{"name":"교하1","type":"공영","category":"노외","address":"경기도 파주시 순못길 14-14","lat":37.72748939,"lng":126.7164492,"totalSpaces":10,"isFree":true,"operatingDays":"평일+토요일+공휴일","weekdayOpen":"00:00","weekdayClose":"23:59","weekendOpen":"00:00","weekendClose":"23:59","holidayOpen":"00:00","holidayClose":"23:59","feeInfo":"무료","phone":"031-940-4783","updatedAt":"2025-12-18","sido":"경기도","sigungu":"파주시","dong":"다율동"},{"name":"교하2","type":"공영","category":"노외","address":"경기도 파주시 순못길 114-17","lat":37.72810231,"lng":126.7164541,"totalSpaces":10,"isFree":true,"operatingDays":"평일+토요일+공휴일","weekdayOpen":"00:00","weekdayClose":"23:59","weekendOpen":"00:00","weekendClose":"23:59","holidayOpen":"00:00","holidayClose":"23:59","feeInfo":"무료","phone":"031-940-4783","updatedAt":"2025-12-18","sido":"경기도","sigungu":"파주시","dong":"다율동"},{"name":"금촌 1-12","type":"공영","category":"노외","address":"경기도 파주시 금정7길 43","lat":37.75668554,"lng":126.7746053,"totalSpaces":10,"isFree":true,"operatingDays":"평일+토요일+공휴일","weekdayOpen":"00:00","weekdayClose":"23:59","weekendOpen":"00:00","weekendClose":"23:59","holidayOpen":"00:00","holidayClose":"23:59","feeInfo":"무료","phone":"031-940-4783","updatedAt":"2025-12-18","sido":"경기도","sigungu":"파주시","dong":"금촌동"},{"name":"파평1-1","type":"공영","category":"노외","address":"경기도 파주시 파평면 장마루로 254","lat":37.94451944,"lng":126.8379649,"totalSpaces":8,"isFree":true,"operatingDays":"평일+토요일+공휴일","weekdayOpen":"00:00","weekdayClose":"23:59","weekendOpen":"00:00","weekendClose":"23:59","holidayOpen":"00:00","holidayClose":"23:59","feeInfo":"무료","phone":"031-940-4783","updatedAt":"2025-12-18","sido":"경기도","sigungu":"파주시","dong":"파평면"},{"name":"GTX-A 운정중앙역1","type":"공영","category":"노외","address":"경기도 파주시 동패동 2173-215","lat":37.71750206,"lng":126.7305487,"totalSpaces":525,"isFree":false,"operatingDays":"평일+토요일+공휴일","weekdayOpen":"09:00","weekdayClose":"22:00","weekendOpen":"00:00","weekendClose":"23:59","holidayOpen":"00:00","holidayClose":"23:59","feeInfo":"기본 30분 600원 / 추가 10분당 250원","phone":"031-909-6305","updatedAt":"2025-12-18","sido":"경기도","sigungu":"파주시","dong":"동패동"},{"name":"GTX-A 운정중앙역2","type":"공영","category":"노외","address":"경기도 파주시 동패동 산115-1","lat":37.71470688,"lng":126.7307578,"totalSpaces":482,"isFree":false,"operatingDays":"평일+토요일+공휴일","weekdayOpen":"09:00","weekdayClose":"22:00","weekendOpen":"00:00","weekendClose":"23:59","holidayOpen":"00:00","holidayClose":"23:59","feeInfo":"기본 30분 600원 / 추가 10분당 250원","phone":"031-909-6305","updatedAt":"2025-12-18","sido":"경기도","sigungu":"파주시","dong":"동패동"},{"name":"운정역 환승","type":"공영","category":"노외","address":"경기도 파주시 소리천로 155","lat":37.72619644,"lng":126.7662332,"totalSpaces":384,"isFree":false,"operatingDays":"평일+토요일+공휴일","weekdayOpen":"09:00","weekdayClose":"22:00","weekendOpen":"00:00","weekendClose":"23:59","holidayOpen":"00:00","holidayClose":"23:59","feeInfo":"기본 30분 600원 / 추가 10분당 250원","phone":"031-909-6305","updatedAt":"2025-12-18","sido":"경기도","sigungu":"파주시","dong":"와동동"},{"name":"산내마을2","type":"공영","category":"노외","address":"경기도 파주시 산내로 120","lat":37.72666409,"lng":126.7362709,"totalSpaces":305,"isFree":false,"operatingDays":"평일+토요일+공휴일","weekdayOpen":"09:00","weekdayClose":"22:00","weekendOpen":"00:00","weekendClose":"23:59","holidayOpen":"00:00","holidayClose":"23:59","feeInfo":"기본 30분 500원 / 추가 10분당 200원","phone":"031-909-6305","updatedAt":"2025-12-18","sido":"경기도","sigungu":"파주시","dong":"목동동"},{"name":"금촌2 공영","type":"공영","category":"노외","address":"경기도 파주시 금빛로 28","lat":37.75222276,"lng":126.7671114,"totalSpaces":303,"isFree":false,"operatingDays":"평일+토요일+공휴일","weekdayOpen":"09:00","weekdayClose":"22:00","weekendOpen":"00:00","weekendClose":"23:59","holidayOpen":"00:00","holidayClose":"23:59","feeInfo":"기본 30분 600원 / 추가 10분당 250원","phone":"031-909-6305","updatedAt":"2025-12-18","sido":"경기도","sigungu":"파주시","dong":"금촌동"},{"name":"야당역 환승","type":"공영","category":"노외","address":"경기도 파주시 소리천로 14","lat":37.71398629,"lng":126.7616476,"totalSpaces":302,"isFree":false,"operatingDays":"평일+토요일+공휴일","weekdayOpen":"09:00","weekdayClose":"22:00","weekendOpen":"00:00","weekendClose":"23:59","holidayOpen":"00:00","holidayClose":"23:59","feeInfo":"기본 30분 600원 / 추가 10분당 250원","phone":"031-909-6305","updatedAt":"2025-12-18","sido":"경기도","sigungu":"파주시","dong":"야당동"},{"name":"운정호수공원","type":"공영","category":"노외","address":"경기도 파주시 와동동 1412","lat":37.720108,"lng":126.7601224,"totalSpaces":253,"isFree":false,"operatingDays":"평일+토요일+공휴일","weekdayOpen":"09:00","weekdayClose":"22:00","weekendOpen":"00:00","weekendClose":"23:59","holidayOpen":"00:00","holidayClose":"23:59","feeInfo":"기본 30분 500원 / 추가 10분당 200원","phone":"031-909-6305","updatedAt":"2025-12-18","sido":"경기도","sigungu":"파주시","dong":"와동동"},{"name":"가람마을 공영","type":"공영","category":"노외","address":"경기도 파주시 가람로21번길 16-16","lat":37.73443064,"lng":126.7532826,"totalSpaces":231,"isFree":false,"operatingDays":"평일+토요일+공휴일","weekdayOpen":"09:00","weekdayClose":"22:00","weekendOpen":"00:00","weekendClose":"23:59","holidayOpen":"00:00","holidayClose":"23:59","feeInfo":"기본 30분 500원 / 추가 10분당 200원","phone":"031-909-6305","updatedAt":"2025-12-18","sido":"경기도","sigungu":"파주시","dong":"와동동"},{"name":"봉일천 공영","type":"공영","category":"노외","address":"경기도 파주시 조리읍 송비말길 113","lat":37.74531489,"lng":126.8055204,"totalSpaces":193,"isFree":false,"operatingDays":"평일+토요일+공휴일","weekdayOpen":"09:00","weekdayClose":"22:00","weekendOpen":"00:00","weekendClose":"23:59","holidayOpen":"00:00","holidayClose":"23:59","feeInfo":"기본 30분 500원 / 추가 10분당 200원","phone":"031-909-6305","updatedAt":"2025-12-18","sido":"경기도","sigungu":"파주시","dong":"조리읍"},{"name":"월롱역 환승주차장","type":"공영","category":"노외","address":"경기도 파주시 월롱면 통일로 988","lat":37.79806424,"lng":126.7925591,"totalSpaces":191,"isFree":false,"operatingDays":"평일+토요일+공휴일","weekdayOpen":"09:00","weekdayClose":"22:00","weekendOpen":"00:00","weekendClose":"23:59","holidayOpen":"00:00","holidayClose":"23:59","feeInfo":"기본 30분 500원 / 추가 10분당 200원","phone":"031-909-6305","updatedAt":"2025-12-18","sido":"경기도","sigungu":"파주시","dong":"월롱면"},{"name":"금촌통일시장","type":"공영","category":"노외","address":"경기도 파주시 명동길 51","lat":37.76342884,"lng":126.7731888,"totalSpaces":132,"isFree":false,"operatingDays":"평일+토요일+공휴일","weekdayOpen":"09:00","weekdayClose":"22:00","weekendOpen":"00:00","weekendClose":"23:59","holidayOpen":"00:00","holidayClose":"23:59","feeInfo":"기본 30분 400원 / 추가 10분당 150원","phone":"031-909-6305","updatedAt":"2025-12-18","sido":"경기도","sigungu":"파주시","dong":"금촌동"},{"name":"금촌2-8","type":"공영","category":"노외","address":"경기도 파주시 쇠재로 2","lat":37.74942212,"lng":126.7675023,"totalSpaces":128,"isFree":false,"operatingDays":"평일+토요일+공휴일","weekdayOpen":"09:00","weekdayClose":"22:00","weekendOpen":"00:00","weekendClose":"23:59","holidayOpen":"00:00","holidayClose":"23:59","feeInfo":"기본 30분 500원 / 추가 10분당 200원","phone":"031-909-6305","updatedAt":"2025-12-18","sido":"경기도","sigungu":"파주시","dong":"금촌동"},{"name":"문산자유시장","type":"공영","category":"노외","address":"경기도 파주시 문산읍 문산로 45","lat":37.8576972,"lng":126.7843703,"totalSpaces":123,"isFree":false,"operatingDays":"평일+토요일+공휴일","weekdayOpen":"09:00","weekdayClose":"22:00","weekendOpen":"00:00","weekendClose":"23:59","holidayOpen":"00:00","holidayClose":"23:59","feeInfo":"기본 30분 400원 / 추가 10분당 150원","phone":"031-909-6305","updatedAt":"2025-12-18","sido":"경기도","sigungu":"파주시","dong":"문산읍"},{"name":"금촌원앙길","type":"공영","category":"노외","address":"경기도 파주시 원앙길 48","lat":37.76530578,"lng":126.7765229,"totalSpaces":122,"isFree":false,"operatingDays":"평일+토요일+공휴일","weekdayOpen":"09:00","weekdayClose":"22:00","weekendOpen":"00:00","weekendClose":"23:59","holidayOpen":"00:00","holidayClose":"23:59","feeInfo":"기본 30분 500원 / 추가 10분당 200원","phone":"031-909-6305","updatedAt":"2025-12-18","sido":"경기도","sigungu":"파주시","dong":"아동동"},{"name":"금촌로터리","type":"공영","category":"노외","address":"경기도 파주시 한마음2길 18","lat":37.75624405,"lng":126.7729916,"totalSpaces":119,"isFree":false,"operatingDays":"평일+토요일+공휴일","weekdayOpen":"09:00","weekdayClose":"22:00","weekendOpen":"00:00","weekendClose":"23:59","holidayOpen":"00:00","holidayClose":"23:59","feeInfo":"기본 30분 500원 / 추가 10분당 200원","phone":"031-909-6305","updatedAt":"2025-12-18","sido":"경기도","sigungu":"파주시","dong":"금촌동"},{"name":"금촌역 선로하부 공영","type":"공영","category":"노외","address":"경기도 파주시 새꽃로 229","lat":37.76718338,"lng":126.7771482,"totalSpaces":56,"isFree":false,"operatingDays":"평일+토요일+공휴일","weekdayOpen":"09:00","weekdayClose":"22:00","weekendOpen":"00:00","weekendClose":"23:59","holidayOpen":"00:00","holidayClose":"23:59","feeInfo":"기본 30분 500원 / 추가 10분당 200원","phone":"031-909-6305","updatedAt":"2025-12-18","sido":"경기도","sigungu":"파주시","dong":"아동동"},{"name":"금촌3 공영","type":"공영","category":"노외","address":"경기도 파주시 금빛로 4","lat":37.75136158,"lng":126.767767,"totalSpaces":50,"isFree":false,"operatingDays":"평일+토요일+공휴일","weekdayOpen":"09:00","weekdayClose":"22:00","weekendOpen":"00:00","weekendClose":"23:59","holidayOpen":"00:00","holidayClose":"23:59","feeInfo":"기본 30분 600원 / 추가 10분당 250원","phone":"031-909-6305","updatedAt":"2025-12-18","sido":"경기도","sigungu":"파주시","dong":"금촌동"},{"name":"문산1","type":"공영","category":"노외","address":"경기도 파주시 문산읍 문산리 37-5","lat":37.85616547,"lng":126.7840433,"totalSpaces":50,"isFree":false,"operatingDays":"평일+토요일+공휴일","weekdayOpen":"09:00","weekdayClose":"22:00","weekendOpen":"00:00","weekendClose":"23:59","holidayOpen":"00:00","holidayClose":"23:59","feeInfo":"기본 30분 400원 / 추가 10분당 150원","phone":"031-909-6305","updatedAt":"2025-12-18","sido":"경기도","sigungu":"파주시","dong":"문산읍"},{"name":"금촌2-17","type":"공영","category":"노외","address":"경기도 파주시 문화로 46","lat":37.75865682,"lng":126.7771177,"totalSpaces":45,"isFree":false,"operatingDays":"평일+토요일+공휴일","weekdayOpen":"09:00","weekdayClose":"18:00","weekendOpen":"00:00","weekendClose":"23:59","holidayOpen":"00:00","holidayClose":"23:59","feeInfo":"기본 60분 1,000원 / 추가 20분당 500원","phone":"031-909-6305","updatedAt":"2025-12-18","sido":"경기도","sigungu":"파주시","dong":"금촌동"},{"name":"문산고가다리","type":"공영","category":"노외","address":"경기도 파주시 문산읍 문향로84번길 23","lat":37.85944143,"lng":126.7876502,"totalSpaces":40,"isFree":false,"operatingDays":"평일+토요일+공휴일","weekdayOpen":"09:00","weekdayClose":"18:00","weekendOpen":"00:00","weekendClose":"23:59","holidayOpen":"00:00","holidayClose":"23:59","feeInfo":"기본 30분 600원 / 추가 10분당 250원","phone":"031-909-6305","updatedAt":"2025-12-18","sido":"경기도","sigungu":"파주시","dong":"문산읍"},{"name":"광탄경매시장","type":"공영","category":"노외","address":"경기도 파주시 광탄면 혜음로 1126","lat":37.78186087,"lng":126.8473563,"totalSpaces":35,"isFree":false,"operatingDays":"평일+토요일+공휴일","weekdayOpen":"09:00","weekdayClose":"22:00","weekendOpen":"00:00","weekendClose":"23:59","holidayOpen":"00:00","holidayClose":"23:59","feeInfo":"기본 30분 400원 / 추가 10분당 150원","phone":"031-909-6305","updatedAt":"2025-12-18","sido":"경기도","sigungu":"파주시","dong":"광탄면"}]}