{"sido":"경기도","sigungu":"포천시","totalCount":49,"validCount":49,"items":[{"name":"일동장터 주차장","type":"공영","category":"노외","address":"경기도 포천시 일동면 화동로 1090-11","lat":37.95982484,"lng":127.3198006,"totalSpaces":340,"isFree":true,"operatingDays":"평일+토요일+공휴일","weekdayOpen":"00:00","weekdayClose":"23:59","weekendOpen":"00:00","weekendClose":"23:59","holidayOpen":"00:00","holidayClose":"23:59","feeInfo":"무료","phone":"031-538-3493","updatedAt":"2023-12-04","sido":"경기도","sigungu":"포천시","dong":"일동면"},{"name":"시가지 노상주차장","type":"공영","category":"노상","address":"경기도 포천시 영북면 영북로 168","lat":38.08929064,"lng":127.2751477,"totalSpaces":202,"isFree":true,"operatingDays":"평일+토요일+공휴일","weekdayOpen":"00:00","weekdayClose":"23:59","weekendOpen":"00:00","weekendClose":"23:59","holidayOpen":"00:00","holidayClose":"23:59","feeInfo":"무료","phone":"031-538-3493","updatedAt":"2023-12-04","sido":"경기도","sigungu":"포천시","dong":"영북면"},{"name":"청계천 복개주차장","type":"공영","category":"노외","address":"경기도 포천시 일동면 화동로 1032","lat":37.95564067,"lng":127.3166941,"totalSpaces":181,"isFree":true,"operatingDays":"평일+토요일+공휴일","weekdayOpen":"00:00","weekdayClose":"23:59","weekendOpen":"00:00","weekendClose":"23:59","holidayOpen":"00:00","holidayClose":"23:59","feeInfo":"무료","phone":"031-538-3493","updatedAt":"2023-12-04","sido":"경기도","sigungu":"포천시","dong":"일동면"},{"name":"제3쌈지공영주차장","type":"공영","category":"노외","address":"경기도 포천시 왕방로 248","lat":37.90207116,"lng":127.202144,"totalSpaces":175,"isFree":true,"operatingDays":"평일+토요일+공휴일","weekdayOpen":"00:00","weekdayClose":"23:59","weekendOpen":"00:00","weekendClose":"23:59","holidayOpen":"00:00","holidayClose":"23:59","feeInfo":"무료","phone":"031-538-3493","updatedAt":"2023-12-04","sido":"경기도","sigungu":"포천시","dong":"신읍동"},{"name":"왕방산 등산로 공영주차장","type":"공영","category":"노외","address":"경기도 포천시 신읍동 139-20","lat":37.8975758706,"lng":127.1953383171,"totalSpaces":136,"isFree":true,"operatingDays":"평일+토요일+공휴일","weekdayOpen":"00:00","weekdayClose":"23:59","weekendOpen":"00:00","weekendClose":"23:59","holidayOpen":"00:00","holidayClose":"23:59","feeInfo":"무료","phone":"031-538-3493","updatedAt":"2023-12-04","sido":"경기도","sigungu":"포천시","dong":"신읍동"},{"name":"호병천 복개주차장","type":"공영","category":"노외","address":"경기도 포천시 중앙로 77","lat":37.89396213,"lng":127.2003483,"totalSpaces":130,"isFree":true,"operatingDays":"평일+토요일+공휴일","weekdayOpen":"00:00","weekdayClose":"23:59","weekendOpen":"00:00","weekendClose":"23:59","holidayOpen":"00:00","holidayClose":"23:59","feeInfo":"무료","phone":"031-538-3493","updatedAt":"2023-12-04","sido":"경기도","sigungu":"포천시","dong":"신읍동"},{"name":"솔모루로 제1주차장","type":"공영","category":"노외","address":"경기도 포천시 소흘읍 솔모루로 130","lat":37.83225225,"lng":127.1501769,"totalSpaces":81,"isFree":true,"operatingDays":"평일+토요일+공휴일","weekdayOpen":"00:00","weekdayClose":"23:59","weekendOpen":"00:00","weekendClose":"23:59","holidayOpen":"00:00","holidayClose":"23:59","feeInfo":"무료","phone":"031-538-3493","updatedAt":"2023-12-04","sido":"경기도","sigungu":"포천시","dong":"소흘읍"},{"name":"시가지 노상주차장","type":"공영","category":"노상","address":"경기도 포천시 내촌면 내촌로 52","lat":37.78475463,"lng":127.2268579,"totalSpaces":80,"isFree":true,"operatingDays":"평일+토요일+공휴일","weekdayOpen":"00:00","weekdayClose":"23:59","weekendOpen":"00:00","weekendClose":"23:59","holidayOpen":"00:00","holidayClose":"23:59","feeInfo":"무료","phone":"031-538-3493","updatedAt":"2023-12-04","sido":"경기도","sigungu":"포천시","dong":"내촌면"},{"name":"선마로 쌈지공영주차장","type":"공영","category":"노외","address":"경기도 포천시 선단동 35-1","lat":37.85203587,"lng":127.1679003253,"totalSpaces":75,"isFree":true,"operatingDays":"평일+토요일+공휴일","weekdayOpen":"00:00","weekdayClose":"23:59","weekendOpen":"00:00","weekendClose":"23:59","holidayOpen":"00:00","holidayClose":"23:59","feeInfo":"무료","phone":"031-538-3493","updatedAt":"2023-12-04","sido":"경기도","sigungu":"포천시","dong":"선단동"},{"name":"태봉마을 임시주차장","type":"공영","category":"노외","address":"경기도 포천시 소흘읍 송우리 732","lat":37.8332720644,"lng":127.1433403583,"totalSpaces":74,"isFree":true,"operatingDays":"평일+토요일+공휴일","weekdayOpen":"00:00","weekdayClose":"23:59","weekendOpen":"00:00","weekendClose":"23:59","holidayOpen":"00:00","holidayClose":"23:59","feeInfo":"무료","phone":"031-538-3493","updatedAt":"2023-12-04","sido":"경기도","sigungu":"포천시","dong":"소흘읍"},{"name":"장암 공영주차장","type":"공영","category":"노외","address":"경기도 포천시 이동면 화동로 2119","lat":38.03684169,"lng":127.3667399,"totalSpaces":66,"isFree":true,"operatingDays":"평일+토요일+공휴일","weekdayOpen":"00:00","weekdayClose":"23:59","weekendOpen":"00:00","weekendClose":"23:59","holidayOpen":"00:00","holidayClose":"23:59","feeInfo":"무료","phone":"031-538-3493","updatedAt":"2023-12-04","sido":"경기도","sigungu":"포천시","dong":"이동면"},{"name":"양문로 주차장","type":"공영","category":"노외","address":"경기도 포천시 영중면 양문로9길 4","lat":38.00178136,"lng":127.2430411,"totalSpaces":64,"isFree":true,"operatingDays":"평일+토요일+공휴일","weekdayOpen":"00:00","weekdayClose":"23:59","weekendOpen":"00:00","weekendClose":"23:59","holidayOpen":"00:00","holidayClose":"23:59","feeInfo":"무료","phone":"031-538-3493","updatedAt":"2023-12-04","sido":"경기도","sigungu":"포천시","dong":"영중면"},{"name":"청계천 둔치주차장","type":"공영","category":"노외","address":"경기도 포천시 일동면 소야길 16-11","lat":37.95687829,"lng":127.3147787,"totalSpaces":59,"isFree":true,"operatingDays":"평일+토요일+공휴일","weekdayOpen":"00:00","weekdayClose":"23:59","weekendOpen":"00:00","weekendClose":"23:59","holidayOpen":"00:00","holidayClose":"23:59","feeInfo":"무료","phone":"031-538-3493","updatedAt":"2023-12-04","sido":"경기도","sigungu":"포천시","dong":"일동면"},{"name":"원모루 공영주차장","type":"공영","category":"노외","address":"경기도 포천시 신읍동 102","lat":37.89454927,"lng":127.1970964,"totalSpaces":55,"isFree":true,"operatingDays":"평일+토요일+공휴일","weekdayOpen":"00:00","weekdayClose":"23:59","weekendOpen":"00:00","weekendClose":"23:59","holidayOpen":"00:00","holidayClose":"23:59","feeInfo":"무료","phone":"031-538-3493","updatedAt":"2023-12-04","sido":"경기도","sigungu":"포천시","dong":"신읍동"},{"name":"시가지 노상주차장","type":"공영","category":"노상","address":"경기도 포천시 중앙로75번길 22-1","lat":37.89501927,"lng":127.1985105,"totalSpaces":51,"isFree":true,"operatingDays":"평일+토요일+공휴일","weekdayOpen":"00:00","weekdayClose":"23:59","weekendOpen":"00:00","weekendClose":"23:59","holidayOpen":"00:00","holidayClose":"23:59","feeInfo":"무료","phone":"031-538-3493","updatedAt":"2023-12-04","sido":"경기도","sigungu":"포천시","dong":"신읍동"},{"name":"포천감리교회공영주차장","type":"공영","category":"노외","address":"경기도 포천시 중앙로105번길 24","lat":37.89684789,"lng":127.1997755,"totalSpaces":47,"isFree":true,"operatingDays":"평일+토요일+공휴일","weekdayOpen":"00:00","weekdayClose":"23:59","weekendOpen":"00:00","weekendClose":"23:59","holidayOpen":"00:00","holidayClose":"23:59","feeInfo":"무료","phone":"031-538-3493","updatedAt":"2023-12-04","sido":"경기도","sigungu":"포천시","dong":"신읍동"},{"name":"가산로 주차장","type":"공영","category":"노외","address":"경기도 포천시 가산면 가산로 360","lat":37.84722547,"lng":127.1888903,"totalSpaces":44,"isFree":true,"operatingDays":"평일+토요일+공휴일","weekdayOpen":"00:00","weekdayClose":"23:59","weekendOpen":"00:00","weekendClose":"23:59","holidayOpen":"00:00","holidayClose":"23:59","feeInfo":"무료","phone":"031-538-3493","updatedAt":"2023-12-04","sido":"경기도","sigungu":"포천시","dong":"가산면"},{"name":"죽엽산로 주차장","type":"공영","category":"노외","address":"경기도 포천시 소흘읍 죽엽산로 15-20","lat":37.82755033,"lng":127.150689,"totalSpaces":39,"isFree":true,"operatingDays":"평일+토요일+공휴일","weekdayOpen":"00:00","weekdayClose":"23:59","weekendOpen":"00:00","weekendClose":"23:59","holidayOpen":"00:00","holidayClose":"23:59","feeInfo":"무료","phone":"031-538-3493","updatedAt":"2023-12-04","sido":"경기도","sigungu":"포천시","dong":"소흘읍"},{"name":"제1쌈지공영주차장","type":"공영","category":"노외","address":"경기도 포천시 포천로 1612","lat":37.90082576,"lng":127.2012192,"totalSpaces":37,"isFree":true,"operatingDays":"평일+토요일+공휴일","weekdayOpen":"00:00","weekdayClose":"23:59","weekendOpen":"00:00","weekendClose":"23:59","holidayOpen":"00:00","holidayClose":"23:59","feeInfo":"무료","phone":"031-538-3493","updatedAt":"2023-12-04","sido":"경기도","sigungu":"포천시","dong":"신읍동"},{"name":"지장산마을 주차장","type":"공영","category":"노외","address":"경기도 포천시 관인면 중리 1121","lat":38.1035926262,"lng":127.1932012479,"totalSpaces":32,"isFree":true,"operatingDays":"평일+토요일+공휴일","weekdayOpen":"00:00","weekdayClose":"23:59","weekendOpen":"00:00","weekendClose":"23:59","holidayOpen":"00:00","holidayClose":"23:59","feeInfo":"무료","phone":"031-538-3493","updatedAt":"2023-12-04","sido":"경기도","sigungu":"포천시","dong":"관인면"},{"name":"원앙길 제2노상주차장","type":"공영","category":"노상","address":"경기도 포천시 중앙로141번길 20","lat":37.89983899,"lng":127.2029747,"totalSpaces":31,"isFree":true,"operatingDays":"평일+토요일+공휴일","weekdayOpen":"00:00","weekdayClose":"23:59","weekendOpen":"00:00","weekendClose":"23:59","holidayOpen":"00:00","holidayClose":"23:59","feeInfo":"무료","phone":"031-538-3493","updatedAt":"2023-12-04","sido":"경기도","sigungu":"포천시","dong":"신읍동"},{"name":"송우로 제3주차장","type":"공영","category":"노외","address":"경기도 포천시 소흘읍 송우로 101-12","lat":37.83067689,"lng":127.1378693,"totalSpaces":30,"isFree":true,"operatingDays":"평일+토요일+공휴일","weekdayOpen":"00:00","weekdayClose":"23:59","weekendOpen":"00:00","weekendClose":"23:59","holidayOpen":"00:00","holidayClose":"23:59","feeInfo":"무료","phone":"031-538-3493","updatedAt":"2023-12-04","sido":"경기도","sigungu":"포천시","dong":"소흘읍"},{"name":"쌈지주차장","type":"공영","category":"노외","address":"경기도 포천시 소흘읍 봉솔로3길 11-7","lat":37.82770373,"lng":127.1427254,"totalSpaces":30,"isFree":true,"operatingDays":"평일+토요일+공휴일","weekdayOpen":"00:00","weekdayClose":"23:59","weekendOpen":"00:00","weekendClose":"23:59","holidayOpen":"00:00","holidayClose":"23:59","feeInfo":"무료","phone":"031-538-3493","updatedAt":"2023-12-04","sido":"경기도","sigungu":"포천시","dong":"소흘읍"},{"name":"제2쌈지공영주차장","type":"공영","category":"노외","address":"경기도 포천시 왕방로 235","lat":37.9014824,"lng":127.201032,"totalSpaces":28,"isFree":true,"operatingDays":"평일+토요일+공휴일","weekdayOpen":"00:00","weekdayClose":"23:59","weekendOpen":"00:00","weekendClose":"23:59","holidayOpen":"00:00","holidayClose":"23:59","feeInfo":"무료","phone":"031-538-3493","updatedAt":"2023-12-04","sido":"경기도","sigungu":"포천시","dong":"신읍동"},{"name":"학동로 쌈지공영주차장","type":"공영","category":"노외","address":"경기도 포천시 학동로 16-1","lat":37.90178761,"lng":127.2054304,"totalSpaces":24,"isFree":true,"operatingDays":"평일+토요일+공휴일","weekdayOpen":"00:00","weekdayClose":"23:59","weekendOpen":"00:00","weekendClose":"23:59","holidayOpen":"00:00","holidayClose":"23:59","feeInfo":"무료","phone":"031-538-3493","updatedAt":"2023-12-04","sido":"경기도","sigungu":"포천시","dong":"신읍동"},{"name":"사리재5길 주차장","type":"공영","category":"노외","address":"경기도 포천시 일동면 사리재5길 22-17","lat":37.95476864,"lng":127.3206591,"totalSpaces":24,"isFree":true,"operatingDays":"평일+토요일+공휴일","weekdayOpen":"00:00","weekdayClose":"23:59","weekendOpen":"00:00","weekendClose":"23:59","holidayOpen":"00:00","holidayClose":"23:59","feeInfo":"무료","phone":"031-538-3493","updatedAt":"2023-12-04","sido":"경기도","sigungu":"포천시","dong":"일동면"},{"name":"포천성당인근 쌈지주차장","type":"공영","category":"노외","address":"경기도 포천시 왕방로184번길 3-11","lat":37.8978763,"lng":127.198109,"totalSpaces":23,"isFree":true,"operatingDays":"평일+토요일+공휴일","weekdayOpen":"00:00","weekdayClose":"23:59","weekendOpen":"00:00","weekendClose":"23:59","holidayOpen":"00:00","holidayClose":"23:59","feeInfo":"무료","phone":"031-538-3493","updatedAt":"2023-12-04","sido":"경기도","sigungu":"포천시","dong":"신읍동"},{"name":"기지리 공영주차장","type":"공영","category":"노외","address":"경기도 포천시 신북면 기지리 76-1","lat":37.93947792,"lng":127.2297832541,"totalSpaces":22,"isFree":true,"operatingDays":"평일+토요일+공휴일","weekdayOpen":"00:00","weekdayClose":"23:59","weekendOpen":"00:00","weekendClose":"23:59","holidayOpen":"00:00","holidayClose":"23:59","feeInfo":"무료","phone":"031-538-3493","updatedAt":"2023-12-04","sido":"경기도","sigungu":"포천시","dong":"신북면"},{"name":"한내천3길 쌈지공영주차장","type":"공영","category":"노외","address":"경기도 포천시 구절초로 13","lat":37.89552179,"lng":127.2029038,"totalSpaces":20,"isFree":true,"operatingDays":"평일+토요일+공휴일","weekdayOpen":"00:00","weekdayClose":"23:59","weekendOpen":"00:00","weekendClose":"23:59","holidayOpen":"00:00","holidayClose":"23:59","feeInfo":"무료","phone":"031-538-3493","updatedAt":"2023-12-04","sido":"경기도","sigungu":"포천시","dong":"신읍동"},{"name":"포천로 노상주차장","type":"공영","category":"노상","address":"경기도 포천시 신읍동 233-2","lat":37.9017425707,"lng":127.1996705844,"totalSpaces":15,"isFree":true,"operatingDays":"평일+토요일+공휴일","weekdayOpen":"00:00","weekdayClose":"23:59","weekendOpen":"00:00","weekendClose":"23:59","holidayOpen":"00:00","holidayClose":"23:59","feeInfo":"무료","phone":"031-538-3493","updatedAt":"2023-12-04","sido":"경기도","sigungu":"포천시","dong":"신읍동"},{"name":"양문로 공영주차장","type":"공영","category":"노외","address":"경기도 포천시 영중면 양문로4길 18-5","lat":38.0017089,"lng":127.2416022681,"totalSpaces":14,"isFree":true,"operatingDays":"평일+토요일+공휴일","weekdayOpen":"00:00","weekdayClose":"23:59","weekendOpen":"00:00","weekendClose":"23:59","holidayOpen":"00:00","holidayClose":"23:59","feeInfo":"무료","phone":"031-538-3493","updatedAt":"2023-12-04","sido":"경기도","sigungu":"포천시","dong":"영중면"},{"name":"원앙로 쌈지주차장","type":"공영","category":"노외","address":"경기도 포천시 신읍동 206-3","lat":37.90094998,"lng":127.2040292409,"totalSpaces":13,"isFree":true,"operatingDays":"평일+토요일+공휴일","weekdayOpen":"00:00","weekdayClose":"23:59","weekendOpen":"00:00","weekendClose":"23:59","holidayOpen":"00:00","holidayClose":"23:59","feeInfo":"무료","phone":"031-538-3493","updatedAt":"2023-12-04","sido":"경기도","sigungu":"포천시","dong":"신읍동"},{"name":"구절초로 쌈지주차장","type":"공영","category":"노외","address":"경기도 포천시 신읍동 137-1","lat":37.8968137189,"lng":127.2004471781,"totalSpaces":10,"isFree":true,"operatingDays":"평일+토요일+공휴일","weekdayOpen":"00:00","weekdayClose":"23:59","weekendOpen":"00:00","weekendClose":"23:59","holidayOpen":"00:00","holidayClose":"23:59","feeInfo":"무료","phone":"031-538-3493","updatedAt":"2023-12-04","sido":"경기도","sigungu":"포천시","dong":"신읍동"},{"name":"장독대마을 주차장","type":"공영","category":"노외","address":"경기도 포천시 관인면 중리 1097","lat":38.10228777,"lng":127.2179419,"totalSpaces":9,"isFree":true,"operatingDays":"평일+토요일+공휴일","weekdayOpen":"00:00","weekdayClose":"23:59","weekendOpen":"00:00","weekendClose":"23:59","holidayOpen":"00:00","holidayClose":"23:59","feeInfo":"무료","phone":"031-538-3493","updatedAt":"2023-12-04","sido":"경기도","sigungu":"포천시","dong":"관인면"},{"name":"원앙길 쌈지공영주차장","type":"공영","category":"노외","address":"경기도 포천시 원앙로 27","lat":37.89915939,"lng":127.2018196934,"totalSpaces":8,"isFree":true,"operatingDays":"평일+토요일+공휴일","weekdayOpen":"00:00","weekdayClose":"23:59","weekendOpen":"00:00","weekendClose":"23:59","holidayOpen":"00:00","holidayClose":"23:59","feeInfo":"무료","phone":"031-538-3493","updatedAt":"2023-12-04","sido":"경기도","sigungu":"포천시","dong":"신읍동"},{"name":"중앙로 노외주차장","type":"공영","category":"노외","address":"경기도 포천시 중앙로78번길 33","lat":37.8951936,"lng":127.2030484,"totalSpaces":5,"isFree":true,"operatingDays":"평일+토요일+공휴일","weekdayOpen":"00:00","weekdayClose":"23:59","weekendOpen":"00:00","weekendClose":"23:59","holidayOpen":"00:00","holidayClose":"23:59","feeInfo":"무료","phone":"031-538-3493","updatedAt":"2023-12-04","sido":"경기도","sigungu":"포천시","dong":"신읍동"},{"name":"시가지 노상주차장","type":"공영","category":"노상","address":"경기도 포천시 일동면 화동로1050번길 2","lat":37.9569646,"lng":127.317619,"totalSpaces":125,"isFree":false,"operatingDays":"평일","weekdayOpen":"09:00","weekdayClose":"18:00","weekendOpen":"00:00","weekendClose":"23:59","holidayOpen":"00:00","holidayClose":"23:59","feeInfo":"기본 30분 600원 / 추가 10분당 200원","phone":"031-540-6400","updatedAt":"2023-12-04","sido":"경기도","sigungu":"포천시","dong":"일동면"},{"name":"송우로 제1주차장","type":"공영","category":"노외","address":"경기도 포천시 소흘읍 송우로 68","lat":37.82985268,"lng":127.141839,"totalSpaces":112,"isFree":false,"operatingDays":"평일","weekdayOpen":"09:00","weekdayClose":"18:00","weekendOpen":"00:00","weekendClose":"23:59","holidayOpen":"00:00","holidayClose":"23:59","feeInfo":"기본 30분 600원 / 추가 10분당 200원","phone":"031-540-6400","updatedAt":"2023-12-04","sido":"경기도","sigungu":"포천시","dong":"소흘읍"},{"name":"시가지 노상주차장","type":"공영","category":"노상","address":"경기도 포천시 소흘읍 솔모루로 49","lat":37.8270448,"lng":127.1443222,"totalSpaces":108,"isFree":false,"operatingDays":"평일","weekdayOpen":"09:00","weekdayClose":"18:00","weekendOpen":"00:00","weekendClose":"23:59","holidayOpen":"00:00","holidayClose":"23:59","feeInfo":"기본 30분 600원 / 추가 10분당 200원","phone":"031-540-6400","updatedAt":"2023-12-04","sido":"경기도","sigungu":"포천시","dong":"소흘읍"},{"name":"중앙로 제1노상주차장","type":"공영","category":"노상","address":"경기도 포천시 원앙로 55","lat":37.89233372,"lng":127.1989381,"totalSpaces":62,"isFree":false,"operatingDays":"평일","weekdayOpen":"09:00","weekdayClose":"18:00","weekendOpen":"00:00","weekendClose":"23:59","holidayOpen":"00:00","holidayClose":"23:59","feeInfo":"기본 30분 600원 / 추가 10분당 200원","phone":"031-540-6400","updatedAt":"2023-12-04","sido":"경기도","sigungu":"포천시","dong":"신읍동"},{"name":"송우로 제2주차장","type":"공영","category":"노외","address":"경기도 포천시 소흘읍 송우로 65","lat":37.82939527,"lng":127.1416064,"totalSpaces":58,"isFree":false,"operatingDays":"평일","weekdayOpen":"09:00","weekdayClose":"18:00","weekendOpen":"00:00","weekendClose":"23:59","holidayOpen":"00:00","holidayClose":"23:59","feeInfo":"기본 30분 600원 / 추가 10분당 200원","phone":"031-540-6400","updatedAt":"2023-12-04","sido":"경기도","sigungu":"포천시","dong":"소흘읍"},{"name":"시가지 노상주차장","type":"공영","category":"노상","address":"경기도 포천시 중앙로 138","lat":37.89835721,"lng":127.2044552,"totalSpaces":51,"isFree":false,"operatingDays":"평일","weekdayOpen":"09:00","weekdayClose":"18:00","weekendOpen":"00:00","weekendClose":"23:59","holidayOpen":"00:00","holidayClose":"23:59","feeInfo":"기본 30분 600원 / 추가 10분당 200원","phone":"031-540-6400","updatedAt":"2023-12-04","sido":"경기도","sigungu":"포천시","dong":"신읍동"},{"name":"구절초길 제1노상주차장","type":"공영","category":"노상","address":"경기도 포천시 구절초로 28","lat":37.89639555,"lng":127.2019407,"totalSpaces":42,"isFree":false,"operatingDays":"평일","weekdayOpen":"09:00","weekdayClose":"18:00","weekendOpen":"00:00","weekendClose":"23:59","holidayOpen":"00:00","holidayClose":"23:59","feeInfo":"기본 30분 600원 / 추가 10분당 200원","phone":"031-540-6400","updatedAt":"2023-12-04","sido":"경기도","sigungu":"포천시","dong":"신읍동"},{"name":"중앙로노상주차장","type":"공영","category":"노상","address":"경기도 포천시 중앙로 87","lat":37.89469975,"lng":127.2003445,"totalSpaces":40,"isFree":false,"operatingDays":"평일","weekdayOpen":"09:00","weekdayClose":"18:00","weekendOpen":"00:00","weekendClose":"23:59","holidayOpen":"00:00","holidayClose":"23:59","feeInfo":"기본 30분 600원 / 추가 10분당 200원","phone":"031-540-6400","updatedAt":"2023-12-04","sido":"경기도","sigungu":"포천시","dong":"신읍동"},{"name":"재래시장 주차장","type":"공영","category":"노상","address":"경기도 포천시 소흘읍 송우로21번길 4","lat":37.82749794,"lng":127.1459691,"totalSpaces":40,"isFree":false,"operatingDays":"평일","weekdayOpen":"09:00","weekdayClose":"18:00","weekendOpen":"00:00","weekendClose":"23:59","holidayOpen":"00:00","holidayClose":"23:59","feeInfo":"기본 30분 600원 / 추가 10분당 200원","phone":"031-540-6400","updatedAt":"2023-12-04","sido":"경기도","sigungu":"포천시","dong":"소흘읍"},{"name":"보건소앞 노상주차장","type":"공영","category":"노상","address":"경기도 포천시 포천로 1606-3","lat":37.90024163,"lng":127.2014477,"totalSpaces":25,"isFree":false,"operatingDays":"평일+토요일+공휴일","weekdayOpen":"00:00","weekdayClose":"23:59","weekendOpen":"00:00","weekendClose":"23:59","holidayOpen":"00:00","holidayClose":"23:59","feeInfo":"기본 30분 600원 / 추가 10분당 200원","phone":"031-538-3493","updatedAt":"2023-12-04","sido":"경기도","sigungu":"포천시","dong":"신읍동"},{"name":"원앙길 제1노상주차장","type":"공영","category":"노상","address":"경기도 포천시 원앙로 23","lat":37.89903755,"lng":127.2016946,"totalSpaces":22,"isFree":false,"operatingDays":"평일","weekdayOpen":"09:00","weekdayClose":"18:00","weekendOpen":"00:00","weekendClose":"23:59","holidayOpen":"00:00","holidayClose":"23:59","feeInfo":"기본 30분 600원 / 추가 10분당 200원","phone":"031-540-6400","updatedAt":"2023-12-04","sido":"경기도","sigungu":"포천시","dong":"신읍동"},{"name":"중앙로 제3노상주차장","type":"공영","category":"노상","address":"경기도 포천시 중앙로 170","lat":37.90051608,"lng":127.2066038,"totalSpaces":10,"isFree":false,"operatingDays":"평일+토요일+공휴일","weekdayOpen":"00:00","weekdayClose":"23:59","weekendOpen":"00:00","weekendClose":"23:59","holidayOpen":"00:00","holidayClose":"23:59","feeInfo":"기본 30분 600원 / 추가 10분당 200원","phone":"031-538-3493","updatedAt":"2023-12-04","sido":"경기도","sigungu":"포천시","dong":"신읍동"},{"name":"구절초길 제2노상주차장","type":"공영","category":"노상","address":"경기도 포천시 구절초로 15","lat":37.89557957,"lng":127.2027455,"totalSpaces":9,"isFree":false,"operatingDays":"평일","weekdayOpen":"09:00","weekdayClose":"18:00","weekendOpen":"00:00","weekendClose":"23:59","holidayOpen":"00:00","holidayClose":"23:59","feeInfo":"기본 30분 600원 / 추가 10분당 200원","phone":"031-540-6400","updatedAt":"2023-12-04","sido":"경기도","sigungu":"포천시","dong":"신읍동"}]}