{"sido":"경기도","sigungu":"화성시","totalCount":115,"validCount":115,"items":[{"name":"발안산업단지","type":"공영","category":"노상","address":"경기도 화성시 향남읍 구문천리940","lat":37.08525003,"lng":126.9098394,"totalSpaces":943,"isFree":true,"operatingDays":"평일+토요일+공휴일","weekdayOpen":"00:00","weekdayClose":"23:59","weekendOpen":"00:00","weekendClose":"23:59","holidayOpen":"00:00","holidayClose":"23:59","feeInfo":"무료","phone":"031-5189-3130","updatedAt":"2025-08-04","sido":"경기도","sigungu":"화성시","dong":"향남읍"},{"name":"동탄 호수공원 주차타워","type":"공영","category":"노외","address":"경기도 화성시 송동 724-1","lat":37.1680068,"lng":127.1052233,"totalSpaces":321,"isFree":true,"operatingDays":"평일+토요일+공휴일","weekdayOpen":"00:00","weekdayClose":"23:59","weekendOpen":"00:00","weekendClose":"23:59","holidayOpen":"00:00","holidayClose":"23:59","feeInfo":"무료","phone":"031-8059-6538","updatedAt":"2025-08-04","sido":"경기도","sigungu":"화성시","dong":"송동"},{"name":"병점 복합타운 주차타워","type":"공영","category":"노외","address":"경기도 화성시 진안동 946-6","lat":37.20568305,"lng":127.0329528,"totalSpaces":313,"isFree":true,"operatingDays":"평일+토요일+공휴일","weekdayOpen":"00:00","weekdayClose":"23:59","weekendOpen":"00:00","weekendClose":"23:59","holidayOpen":"00:00","holidayClose":"23:59","feeInfo":"무료","phone":"031-8059-6538","updatedAt":"2025-08-04","sido":"경기도","sigungu":"화성시","dong":"진안동"},{"name":"동탄일반산업단지","type":"공영","category":"노상","address":"경기도 화성시 방교동 812","lat":37.16936867,"lng":127.082981,"totalSpaces":276,"isFree":true,"operatingDays":"평일+토요일+공휴일","weekdayOpen":"00:00","weekdayClose":"23:59","weekendOpen":"00:00","weekendClose":"23:59","holidayOpen":"00:00","holidayClose":"23:59","feeInfo":"무료","phone":"031-5189-6445","updatedAt":"2025-08-04","sido":"경기도","sigungu":"화성시","dong":"방교동"},{"name":"석우동IT단지","type":"공영","category":"노상","address":"경기도 화성시 석우동 79","lat":37.2225246,"lng":127.0691108,"totalSpaces":212,"isFree":true,"operatingDays":"평일+토요일+공휴일","weekdayOpen":"00:00","weekdayClose":"23:59","weekendOpen":"00:00","weekendClose":"23:59","holidayOpen":"00:00","holidayClose":"23:59","feeInfo":"무료","phone":"031-5189-6445","updatedAt":"2025-08-04","sido":"경기도","sigungu":"화성시","dong":"석우동"},{"name":"남양뉴타운(임시)","type":"공영","category":"노외","address":"경기도 화성시 남양읍 남양리2037","lat":37.20419549,"lng":126.8291394,"totalSpaces":204,"isFree":true,"operatingDays":"평일+토요일+공휴일","weekdayOpen":"00:00","weekdayClose":"23:59","weekendOpen":"00:00","weekendClose":"23:59","holidayOpen":"00:00","holidayClose":"23:59","feeInfo":"무료","phone":"031-5189-3130","updatedAt":"2025-08-04","sido":"경기도","sigungu":"화성시","dong":"남양읍"},{"name":"융건릉(2)","type":"공영","category":"노외","address":"경기도 화성시 효행로481번길 36","lat":37.20703825,"lng":126.9900913,"totalSpaces":150,"isFree":true,"operatingDays":"평일+토요일+공휴일","weekdayOpen":"00:00","weekdayClose":"23:59","weekendOpen":"00:00","weekendClose":"23:59","holidayOpen":"00:00","holidayClose":"23:59","feeInfo":"무료","phone":"031-5189-6445","updatedAt":"2025-08-04","sido":"경기도","sigungu":"화성시","dong":"안녕동"},{"name":"용주사(송산동)","type":"공영","category":"노외","address":"경기도 화성시 용주로 135-3","lat":37.20963039,"lng":127.0059063,"totalSpaces":142,"isFree":true,"operatingDays":"평일+토요일+공휴일","weekdayOpen":"00:00","weekdayClose":"23:59","weekendOpen":"00:00","weekendClose":"23:59","holidayOpen":"00:00","holidayClose":"23:59","feeInfo":"무료","phone":"031-5189-6445","updatedAt":"2025-08-04","sido":"경기도","sigungu":"화성시","dong":"송산동"},{"name":"동탄일반산업단지 2공구","type":"공영","category":"노상","address":"경기도 화성시 방교동 809","lat":37.17531004,"lng":127.0850676,"totalSpaces":111,"isFree":true,"operatingDays":"평일+토요일+공휴일","weekdayOpen":"00:00","weekdayClose":"23:59","weekendOpen":"00:00","weekendClose":"23:59","holidayOpen":"00:00","holidayClose":"23:59","feeInfo":"무료","phone":"031-5189-6445","updatedAt":"2025-08-04","sido":"경기도","sigungu":"화성시","dong":"방교동"},{"name":"목동1","type":"공영","category":"노외","address":"경기도 화성시 목동 312-3","lat":37.18074042,"lng":127.1263822,"totalSpaces":110,"isFree":true,"operatingDays":"평일+토요일+공휴일","weekdayOpen":"00:00","weekdayClose":"23:59","weekendOpen":"00:00","weekendClose":"23:59","holidayOpen":"00:00","holidayClose":"23:59","feeInfo":"무료","phone":"031-5189-6445","updatedAt":"2025-08-04","sido":"경기도","sigungu":"화성시","dong":"목동"},{"name":"덕우공단","type":"공영","category":"노외","address":"경기도 화성시 봉담읍 덕우리278","lat":37.16013545,"lng":126.9166017,"totalSpaces":109,"isFree":true,"operatingDays":"평일+토요일+공휴일","weekdayOpen":"00:00","weekdayClose":"23:59","weekendOpen":"00:00","weekendClose":"23:59","holidayOpen":"00:00","holidayClose":"23:59","feeInfo":"무료","phone":"031-5189-3130","updatedAt":"2025-08-04","sido":"경기도","sigungu":"화성시","dong":"봉담읍"},{"name":"하가등천(자투리)","type":"공영","category":"노상","address":"경기도 화성시 향남읍 평리222-24","lat":37.13379307,"lng":126.9085743,"totalSpaces":89,"isFree":true,"operatingDays":"평일+토요일+공휴일","weekdayOpen":"00:00","weekdayClose":"23:59","weekendOpen":"00:00","weekendClose":"23:59","holidayOpen":"00:00","holidayClose":"23:59","feeInfo":"무료","phone":"031-5189-3130","updatedAt":"2025-08-04","sido":"경기도","sigungu":"화성시","dong":"향남읍"},{"name":"발안산업단지2","type":"공영","category":"노상","address":"경기도 화성시 향남읍 구문천리 939","lat":37.086472,"lng":126.9040448,"totalSpaces":82,"isFree":true,"operatingDays":"평일+토요일+공휴일","weekdayOpen":"00:00","weekdayClose":"23:59","weekendOpen":"00:00","weekendClose":"23:59","holidayOpen":"00:00","holidayClose":"23:59","feeInfo":"무료","phone":"031-5189-3130","updatedAt":"2025-08-04","sido":"경기도","sigungu":"화성시","dong":"향남읍"},{"name":"다람산체육공원","type":"공영","category":"노외","address":"경기도 화성시 진안동 618","lat":37.21674042,"lng":127.0322711,"totalSpaces":77,"isFree":true,"operatingDays":"평일+토요일+공휴일","weekdayOpen":"00:00","weekdayClose":"23:59","weekendOpen":"00:00","weekendClose":"23:59","holidayOpen":"00:00","holidayClose":"23:59","feeInfo":"무료","phone":"031-5189-6445","updatedAt":"2025-08-04","sido":"경기도","sigungu":"화성시","dong":"진안동"},{"name":"비봉(비봉고앞)","type":"공영","category":"노외","address":"경기도 화성시 비봉면 구포리1012","lat":37.23760149,"lng":126.8741517,"totalSpaces":68,"isFree":true,"operatingDays":"평일+토요일+공휴일","weekdayOpen":"00:00","weekdayClose":"23:59","weekendOpen":"00:00","weekendClose":"23:59","holidayOpen":"00:00","holidayClose":"23:59","feeInfo":"무료","phone":"031-5189-3130","updatedAt":"2025-08-04","sido":"경기도","sigungu":"화성시","dong":"비봉면"},{"name":"향남옴뿌리산","type":"공영","category":"노상","address":"경기도 화성시 향남읍 장짐리401-40","lat":37.1345543,"lng":126.902803,"totalSpaces":68,"isFree":true,"operatingDays":"평일+토요일+공휴일","weekdayOpen":"00:00","weekdayClose":"23:59","weekendOpen":"00:00","weekendClose":"23:59","holidayOpen":"00:00","holidayClose":"23:59","feeInfo":"무료","phone":"031-5189-3130","updatedAt":"2025-08-04","sido":"경기도","sigungu":"화성시","dong":"향남읍"},{"name":"남양뉴타운 주5","type":"공영","category":"노외","address":"경기도 화성시 남양읍 남양리 2280-1","lat":37.20863744,"lng":126.8261481,"totalSpaces":65,"isFree":true,"operatingDays":"평일+토요일+공휴일","weekdayOpen":"00:00","weekdayClose":"23:59","weekendOpen":"00:00","weekendClose":"23:59","holidayOpen":"00:00","holidayClose":"23:59","feeInfo":"무료","phone":"031-5189-3130","updatedAt":"2025-08-04","sido":"경기도","sigungu":"화성시","dong":"남양읍"},{"name":"융건릉(1)","type":"공영","category":"노외","address":"경기도 화성시 안녕동 186-114","lat":37.20668155,"lng":126.9909181,"totalSpaces":63,"isFree":true,"operatingDays":"평일+토요일+공휴일","weekdayOpen":"00:00","weekdayClose":"23:59","weekendOpen":"00:00","weekendClose":"23:59","holidayOpen":"00:00","holidayClose":"23:59","feeInfo":"무료","phone":"031-5189-6445","updatedAt":"2025-08-04","sido":"경기도","sigungu":"화성시","dong":"안녕동"},{"name":"전곡항","type":"공영","category":"노외","address":"경기도 화성시 서신면 전곡리 897","lat":37.185836,"lng":126.653033,"totalSpaces":62,"isFree":true,"operatingDays":"평일+토요일+공휴일","weekdayOpen":"00:00","weekdayClose":"23:59","weekendOpen":"00:00","weekendClose":"23:59","holidayOpen":"00:00","holidayClose":"23:59","feeInfo":"무료","phone":"031-5189-3130","updatedAt":"2025-08-04","sido":"경기도","sigungu":"화성시","dong":"서신면"},{"name":"병점고가","type":"공영","category":"노상","address":"경기도 화성시 진안동 849-2","lat":37.2092135,"lng":127.0307786,"totalSpaces":60,"isFree":true,"operatingDays":"평일+토요일+공휴일","weekdayOpen":"00:00","weekdayClose":"23:59","weekendOpen":"00:00","weekendClose":"23:59","holidayOpen":"00:00","holidayClose":"23:59","feeInfo":"무료","phone":"031-5189-6445","updatedAt":"2025-08-04","sido":"경기도","sigungu":"화성시","dong":"진안동"},{"name":"구장리노상주차장","type":"공영","category":"노상","address":"경기도 화성시 팔탄면 구장리234","lat":37.15954091,"lng":126.9085587,"totalSpaces":57,"isFree":true,"operatingDays":"평일+토요일+공휴일","weekdayOpen":"00:00","weekdayClose":"23:59","weekendOpen":"00:00","weekendClose":"23:59","holidayOpen":"00:00","holidayClose":"23:59","feeInfo":"무료","phone":"031-5189-3130","updatedAt":"2025-08-04","sido":"경기도","sigungu":"화성시","dong":"팔탄면"},{"name":"영천동(중심상가)","type":"공영","category":"노상","address":"경기도 화성시 영천동 732","lat":37.20612954,"lng":127.1082559,"totalSpaces":52,"isFree":true,"operatingDays":"평일+토요일+공휴일","weekdayOpen":"00:00","weekdayClose":"23:59","weekendOpen":"00:00","weekendClose":"23:59","holidayOpen":"00:00","holidayClose":"23:59","feeInfo":"무료","phone":"031-5189-6445","updatedAt":"2025-08-04","sido":"경기도","sigungu":"화성시","dong":"영천동"},{"name":"서신","type":"공영","category":"노외","address":"경기도 화성시 서신면 매화리367-1","lat":37.16902011,"lng":126.7037569,"totalSpaces":51,"isFree":true,"operatingDays":"평일+토요일+공휴일","weekdayOpen":"00:00","weekdayClose":"23:59","weekendOpen":"00:00","weekendClose":"23:59","holidayOpen":"00:00","holidayClose":"23:59","feeInfo":"무료","phone":"031-5189-3130","updatedAt":"2025-08-04","sido":"경기도","sigungu":"화성시","dong":"서신면"},{"name":"신리천 카페거리","type":"공영","category":"노상","address":"경기도 화성시 오산동 1081-2","lat":37.18502466,"lng":127.1018432,"totalSpaces":50,"isFree":true,"operatingDays":"평일+토요일+공휴일","weekdayOpen":"00:00","weekdayClose":"23:59","weekendOpen":"00:00","weekendClose":"23:59","holidayOpen":"00:00","holidayClose":"23:59","feeInfo":"무료","phone":"031-5189-6445","updatedAt":"2025-08-04","sido":"경기도","sigungu":"화성시","dong":"오산동"},{"name":"사강","type":"공영","category":"노외","address":"경기도 화성시 송산면 사강리675","lat":37.21375257,"lng":126.7357193,"totalSpaces":49,"isFree":true,"operatingDays":"평일+토요일+공휴일","weekdayOpen":"00:00","weekdayClose":"23:59","weekendOpen":"00:00","weekendClose":"23:59","holidayOpen":"00:00","holidayClose":"23:59","feeInfo":"무료","phone":"031-5189-3130","updatedAt":"2025-08-04","sido":"경기도","sigungu":"화성시","dong":"송산면"},{"name":"발안배수지진입로","type":"공영","category":"노상","address":"경기도 화성시 향남읍 발안리51-1","lat":37.13338946,"lng":126.8997254,"totalSpaces":48,"isFree":true,"operatingDays":"평일+토요일+공휴일","weekdayOpen":"00:00","weekdayClose":"23:59","weekendOpen":"00:00","weekendClose":"23:59","holidayOpen":"00:00","holidayClose":"23:59","feeInfo":"무료","phone":"031-5189-3130","updatedAt":"2025-08-04","sido":"경기도","sigungu":"화성시","dong":"향남읍"},{"name":"송산","type":"공영","category":"노외","address":"경기도 화성시 송산면 사강시장길 15-23","lat":37.21461658,"lng":126.7335852,"totalSpaces":46,"isFree":true,"operatingDays":"평일+토요일+공휴일","weekdayOpen":"00:00","weekdayClose":"23:59","weekendOpen":"00:00","weekendClose":"23:59","holidayOpen":"00:00","holidayClose":"23:59","feeInfo":"무료","phone":"031-5189-3130","updatedAt":"2025-08-04","sido":"경기도","sigungu":"화성시","dong":"송산면"},{"name":"전곡항 노상","type":"공영","category":"노상","address":"경기도 화성시 서신면 전곡리 799","lat":37.18834623,"lng":126.6546208,"totalSpaces":44,"isFree":true,"operatingDays":"평일+토요일+공휴일","weekdayOpen":"00:00","weekdayClose":"23:59","weekendOpen":"00:00","weekendClose":"23:59","holidayOpen":"00:00","holidayClose":"23:59","feeInfo":"무료","phone":"031-5189-3130","updatedAt":"2025-08-04","sido":"경기도","sigungu":"화성시","dong":"서신면"},{"name":"조암","type":"공영","category":"노외","address":"경기도 화성시 우정읍 조암리366-1","lat":37.08398539,"lng":126.814623,"totalSpaces":44,"isFree":true,"operatingDays":"평일+토요일+공휴일","weekdayOpen":"00:00","weekdayClose":"23:59","weekendOpen":"00:00","weekendClose":"23:59","holidayOpen":"00:00","holidayClose":"23:59","feeInfo":"무료","phone":"031-5189-3130","updatedAt":"2025-08-04","sido":"경기도","sigungu":"화성시","dong":"우정읍"},{"name":"동탄2오산동(신리천로)","type":"공영","category":"노상","address":"경기도 화성시 오산동 1081-10","lat":37.18355738,"lng":127.1072451,"totalSpaces":42,"isFree":true,"operatingDays":"평일+토요일+공휴일","weekdayOpen":"00:00","weekdayClose":"23:59","weekendOpen":"00:00","weekendClose":"23:59","holidayOpen":"00:00","holidayClose":"23:59","feeInfo":"무료","phone":"031-5189-6445","updatedAt":"2025-08-04","sido":"경기도","sigungu":"화성시","dong":"오산동"},{"name":"두곡리","type":"공영","category":"노외","address":"경기도 화성시 마도면 두곡리344-2","lat":37.20750948,"lng":126.7752629,"totalSpaces":39,"isFree":true,"operatingDays":"평일+토요일+공휴일","weekdayOpen":"00:00","weekdayClose":"23:59","weekendOpen":"00:00","weekendClose":"23:59","holidayOpen":"00:00","holidayClose":"23:59","feeInfo":"무료","phone":"031-5189-3130","updatedAt":"2025-08-04","sido":"경기도","sigungu":"화성시","dong":"마도면"},{"name":"능동제2","type":"공영","category":"노상","address":"경기도 화성시 능동 1284","lat":37.2035714,"lng":127.0518883,"totalSpaces":39,"isFree":true,"operatingDays":"평일+토요일+공휴일","weekdayOpen":"00:00","weekdayClose":"23:59","weekendOpen":"00:00","weekendClose":"23:59","holidayOpen":"00:00","holidayClose":"23:59","feeInfo":"무료","phone":"031-5189-6445","updatedAt":"2025-08-04","sido":"경기도","sigungu":"화성시","dong":"능동"},{"name":"산척","type":"공영","category":"노상","address":"경기도 화성시 산척동 761-2","lat":37.17333316,"lng":127.1136179,"totalSpaces":36,"isFree":true,"operatingDays":"평일+토요일+공휴일","weekdayOpen":"00:00","weekdayClose":"23:59","weekendOpen":"00:00","weekendClose":"23:59","holidayOpen":"00:00","holidayClose":"23:59","feeInfo":"무료","phone":"031-5189-6445","updatedAt":"2025-08-04","sido":"경기도","sigungu":"화성시","dong":"산척동"},{"name":"기산동","type":"공영","category":"노상","address":"경기도 화성시 기산동 476-5","lat":37.21642423,"lng":127.0546536,"totalSpaces":36,"isFree":true,"operatingDays":"평일+토요일+공휴일","weekdayOpen":"00:00","weekdayClose":"23:59","weekendOpen":"00:00","weekendClose":"23:59","holidayOpen":"00:00","holidayClose":"23:59","feeInfo":"무료","phone":"031-5189-6445","updatedAt":"2025-08-04","sido":"경기도","sigungu":"화성시","dong":"기산동"},{"name":"안녕동","type":"공영","category":"노외","address":"경기도 화성시 안녕동 190-95","lat":37.19990513,"lng":127.0236713,"totalSpaces":36,"isFree":true,"operatingDays":"평일+토요일+공휴일","weekdayOpen":"00:00","weekdayClose":"23:59","weekendOpen":"00:00","weekendClose":"23:59","holidayOpen":"00:00","holidayClose":"23:59","feeInfo":"무료","phone":"031-5189-6445","updatedAt":"2025-08-04","sido":"경기도","sigungu":"화성시","dong":"안녕동"},{"name":"가재리","type":"공영","category":"노상","address":"경기도 화성시 팔탄면 가재리1-19","lat":37.16002784,"lng":126.9318217,"totalSpaces":34,"isFree":true,"operatingDays":"평일+토요일+공휴일","weekdayOpen":"00:00","weekdayClose":"23:59","weekendOpen":"00:00","weekendClose":"23:59","holidayOpen":"00:00","holidayClose":"23:59","feeInfo":"무료","phone":"031-5189-3130","updatedAt":"2025-08-04","sido":"경기도","sigungu":"화성시","dong":"팔탄면"},{"name":"중리","type":"공영","category":"노외","address":"경기도 화성시 중동 164","lat":37.2047774,"lng":127.1393009,"totalSpaces":34,"isFree":true,"operatingDays":"평일+토요일+공휴일","weekdayOpen":"00:00","weekdayClose":"23:59","weekendOpen":"00:00","weekendClose":"23:59","holidayOpen":"00:00","holidayClose":"23:59","feeInfo":"무료","phone":"031-5189-6445","updatedAt":"2025-08-04","sido":"경기도","sigungu":"화성시","dong":"중동"},{"name":"진안동이주자택지","type":"공영","category":"노상","address":"경기도 화성시 진안동 934-13","lat":37.21878266,"lng":127.0360671,"totalSpaces":32,"isFree":true,"operatingDays":"평일+토요일+공휴일","weekdayOpen":"00:00","weekdayClose":"23:59","weekendOpen":"00:00","weekendClose":"23:59","holidayOpen":"00:00","holidayClose":"23:59","feeInfo":"무료","phone":"031-5189-6445","updatedAt":"2025-08-04","sido":"경기도","sigungu":"화성시","dong":"진안동"},{"name":"제부도노상","type":"공영","category":"노상","address":"경기도 화성시 서신면 제부리 289-7","lat":37.17771706,"lng":126.6226307,"totalSpaces":28,"isFree":true,"operatingDays":"평일+토요일+공휴일","weekdayOpen":"00:00","weekdayClose":"23:59","weekendOpen":"00:00","weekendClose":"23:59","holidayOpen":"00:00","holidayClose":"23:59","feeInfo":"무료","phone":"031-5189-3130","updatedAt":"2025-08-04","sido":"경기도","sigungu":"화성시","dong":"서신면"},{"name":"행정리","type":"공영","category":"노상","address":"경기도 화성시 향남읍 행정리578","lat":37.13031856,"lng":126.9222939,"totalSpaces":27,"isFree":true,"operatingDays":"평일+토요일+공휴일","weekdayOpen":"00:00","weekdayClose":"23:59","weekendOpen":"00:00","weekendClose":"23:59","holidayOpen":"00:00","holidayClose":"23:59","feeInfo":"무료","phone":"031-5189-3130","updatedAt":"2025-08-04","sido":"경기도","sigungu":"화성시","dong":"향남읍"},{"name":"안녕동(노상)","type":"공영","category":"노상","address":"경기도 화성시 안녕동 8-107","lat":37.199008,"lng":127.023485,"totalSpaces":25,"isFree":true,"operatingDays":"평일+토요일+공휴일","weekdayOpen":"00:00","weekdayClose":"23:59","weekendOpen":"00:00","weekendClose":"23:59","holidayOpen":"00:00","holidayClose":"23:59","feeInfo":"무료","phone":"031-5189-6445","updatedAt":"2025-08-04","sido":"경기도","sigungu":"화성시","dong":"안녕동"},{"name":"조암택지지구","type":"공영","category":"노외","address":"경기도 화성시 우정읍 조암남로 58-1","lat":37.08461535,"lng":126.8216062,"totalSpaces":24,"isFree":true,"operatingDays":"평일+토요일+공휴일","weekdayOpen":"00:00","weekdayClose":"23:59","weekendOpen":"00:00","weekendClose":"23:59","holidayOpen":"00:00","holidayClose":"23:59","feeInfo":"무료","phone":"031-5189-3130","updatedAt":"2025-08-04","sido":"경기도","sigungu":"화성시","dong":"우정읍"},{"name":"천천리","type":"공영","category":"노상","address":"경기도 화성시 매송면 천천리219-7","lat":37.24381079,"lng":126.9467474,"totalSpaces":24,"isFree":true,"operatingDays":"평일+토요일+공휴일","weekdayOpen":"00:00","weekdayClose":"23:59","weekendOpen":"00:00","weekendClose":"23:59","holidayOpen":"00:00","holidayClose":"23:59","feeInfo":"무료","phone":"031-5189-3130","updatedAt":"2025-08-04","sido":"경기도","sigungu":"화성시","dong":"매송면"},{"name":"봉담 상리","type":"공영","category":"노상","address":"경기도 화성시 봉담읍 상리27-51","lat":37.2191071,"lng":126.9494624,"totalSpaces":22,"isFree":true,"operatingDays":"평일+토요일+공휴일","weekdayOpen":"00:00","weekdayClose":"23:59","weekendOpen":"00:00","weekendClose":"23:59","holidayOpen":"00:00","holidayClose":"23:59","feeInfo":"무료","phone":"031-5189-3130","updatedAt":"2025-08-04","sido":"경기도","sigungu":"화성시","dong":"봉담읍"},{"name":"반송동(옹달샘공원)","type":"공영","category":"노상","address":"경기도 화성시 반송동 119","lat":37.19750418,"lng":127.0766596,"totalSpaces":21,"isFree":true,"operatingDays":"평일+토요일+공휴일","weekdayOpen":"00:00","weekdayClose":"23:59","weekendOpen":"00:00","weekendClose":"23:59","holidayOpen":"00:00","holidayClose":"23:59","feeInfo":"무료","phone":"031-5189-6445","updatedAt":"2025-08-04","sido":"경기도","sigungu":"화성시","dong":"반송동"},{"name":"능동제3","type":"공영","category":"노상","address":"경기도 화성시 능동 1215","lat":37.21444248,"lng":127.0542543,"totalSpaces":20,"isFree":true,"operatingDays":"평일+토요일+공휴일","weekdayOpen":"00:00","weekdayClose":"23:59","weekendOpen":"00:00","weekendClose":"23:59","holidayOpen":"00:00","holidayClose":"23:59","feeInfo":"무료","phone":"031-5189-6445","updatedAt":"2025-08-04","sido":"경기도","sigungu":"화성시","dong":"능동"},{"name":"발안만세시장","type":"공영","category":"노상","address":"경기도 화성시 향남읍 평1길 12-8","lat":37.13295812,"lng":126.9100209,"totalSpaces":20,"isFree":true,"operatingDays":"평일+토요일+공휴일","weekdayOpen":"00:00","weekdayClose":"23:59","weekendOpen":"00:00","weekendClose":"23:59","holidayOpen":"00:00","holidayClose":"23:59","feeInfo":"무료","phone":"031-5189-3130","updatedAt":"2025-08-04","sido":"경기도","sigungu":"화성시","dong":"향남읍"},{"name":"석우동제26통제3","type":"공영","category":"노상","address":"경기도 화성시 석우동 68","lat":37.22523952,"lng":127.0749312,"totalSpaces":19,"isFree":true,"operatingDays":"평일+토요일+공휴일","weekdayOpen":"00:00","weekdayClose":"23:59","weekendOpen":"00:00","weekendClose":"23:59","holidayOpen":"00:00","holidayClose":"23:59","feeInfo":"무료","phone":"031-5189-6445","updatedAt":"2025-08-04","sido":"경기도","sigungu":"화성시","dong":"석우동"},{"name":"남산공단","type":"공영","category":"노외","address":"경기도 화성시 안녕동 178-177","lat":37.19572915,"lng":126.9896476,"totalSpaces":18,"isFree":true,"operatingDays":"평일+토요일+공휴일","weekdayOpen":"00:00","weekdayClose":"23:59","weekendOpen":"00:00","weekendClose":"23:59","holidayOpen":"00:00","holidayClose":"23:59","feeInfo":"무료","phone":"031-5189-6445","updatedAt":"2025-08-04","sido":"경기도","sigungu":"화성시","dong":"안녕동"},{"name":"봉담동화","type":"공영","category":"노외","address":"경기도 화성시 봉담읍 동화리557-1","lat":37.22033838,"lng":126.9551643,"totalSpaces":17,"isFree":true,"operatingDays":"평일+토요일+공휴일","weekdayOpen":"00:00","weekdayClose":"23:59","weekendOpen":"00:00","weekendClose":"23:59","holidayOpen":"00:00","holidayClose":"23:59","feeInfo":"무료","phone":"031-5189-3130","updatedAt":"2025-08-04","sido":"경기도","sigungu":"화성시","dong":"봉담읍"},{"name":"천천리(자투리)","type":"공영","category":"노외","address":"경기도 화성시 매송면 천천리78-3","lat":37.24509988,"lng":126.9502474,"totalSpaces":15,"isFree":true,"operatingDays":"평일+토요일+공휴일","weekdayOpen":"00:00","weekdayClose":"23:59","weekendOpen":"00:00","weekendClose":"23:59","holidayOpen":"00:00","holidayClose":"23:59","feeInfo":"무료","phone":"031-5189-3130","updatedAt":"2025-08-04","sido":"경기도","sigungu":"화성시","dong":"매송면"},{"name":"남양읍 공영(노상)","type":"공영","category":"노상","address":"경기도 화성시 남양읍 남양리 2405","lat":37.199252,"lng":126.8253554,"totalSpaces":10,"isFree":true,"operatingDays":"평일+토요일+공휴일","weekdayOpen":"00:00","weekdayClose":"23:59","weekendOpen":"00:00","weekendClose":"23:59","holidayOpen":"00:00","holidayClose":"23:59","feeInfo":"무료","phone":"031-5189-3130","updatedAt":"2025-08-04","sido":"경기도","sigungu":"화성시","dong":"남양읍"},{"name":"여울공원(지하)","type":"공영","category":"노외","address":"경기도 화성시 오산동 967-1234","lat":37.19995765,"lng":127.0906333,"totalSpaces":566,"isFree":false,"operatingDays":"평일+토요일+공휴일","weekdayOpen":"00:00","weekdayClose":"23:59","weekendOpen":"00:00","weekendClose":"23:59","holidayOpen":"00:00","holidayClose":"23:59","feeInfo":"기본 90분 400원 / 추가 10분당 600원","phone":"031-8059-6538","updatedAt":"2025-08-04","sido":"경기도","sigungu":"화성시","dong":"오산동"},{"name":"향남 하길리","type":"공영","category":"노외","address":"경기도 화성시 향남읍 상신하길로298번길 7-20","lat":37.11464152,"lng":126.9118559,"totalSpaces":382,"isFree":false,"operatingDays":"평일+토요일+공휴일","weekdayOpen":"00:00","weekdayClose":"23:59","weekendOpen":"00:00","weekendClose":"23:59","holidayOpen":"00:00","holidayClose":"23:59","feeInfo":"기본 90분 400원 / 추가 10분당 600원","phone":"031-357-6548","updatedAt":"2025-08-04","sido":"경기도","sigungu":"화성시","dong":"향남읍"},{"name":"동탄역임시(환승)","type":"공영","category":"노외","address":"경기도 화성시 동탄대로 537","lat":37.20222199,"lng":127.0979236,"totalSpaces":349,"isFree":false,"operatingDays":"평일+토요일+공휴일","weekdayOpen":"00:00","weekdayClose":"23:59","weekendOpen":"00:00","weekendClose":"23:59","holidayOpen":"00:00","holidayClose":"23:59","feeInfo":"기본 90분 400원 / 추가 10분당 600원","phone":"031-8059-6538","updatedAt":"2025-08-04","sido":"경기도","sigungu":"화성시","dong":"오산동"},{"name":"제부도5호","type":"공영","category":"노외","address":"경기도 화성시 서신면 해안길 210","lat":37.1599825,"lng":126.6193206,"totalSpaces":348,"isFree":false,"operatingDays":"평일+토요일+공휴일","weekdayOpen":"00:00","weekdayClose":"23:59","weekendOpen":"00:00","weekendClose":"23:59","holidayOpen":"00:00","holidayClose":"23:59","feeInfo":"기본 10분 1,000원 / 추가 60분당 2,000원","phone":"031-357-6548","updatedAt":"2025-08-04","sido":"경기도","sigungu":"화성시","dong":"서신면"},{"name":"하길리임시","type":"공영","category":"노외","address":"경기도 화성시 향남읍 하길리1479","lat":37.11739979,"lng":126.9095752,"totalSpaces":280,"isFree":false,"operatingDays":"평일+토요일+공휴일","weekdayOpen":"00:00","weekdayClose":"23:59","weekendOpen":"00:00","weekendClose":"23:59","holidayOpen":"00:00","holidayClose":"23:59","feeInfo":"기본 90분 400원 / 추가 10분당 600원","phone":"031-357-6548","updatedAt":"2025-08-04","sido":"경기도","sigungu":"화성시","dong":"향남읍"},{"name":"제부도4호","type":"공영","category":"노외","address":"경기도 화성시 서신면 제부리190-109","lat":37.16304408,"lng":126.6210473,"totalSpaces":221,"isFree":false,"operatingDays":"평일+토요일+공휴일","weekdayOpen":"00:00","weekdayClose":"23:59","weekendOpen":"00:00","weekendClose":"23:59","holidayOpen":"00:00","holidayClose":"23:59","feeInfo":"기본 10분 1,000원 / 추가 60분당 2,000원","phone":"031-357-6548","updatedAt":"2025-08-04","sido":"경기도","sigungu":"화성시","dong":"서신면"},{"name":"봉담 상리 2","type":"공영","category":"노외","address":"경기도 화성시 봉담읍 상리중심상가길 19","lat":37.22527062,"lng":126.9454152,"totalSpaces":214,"isFree":false,"operatingDays":"평일+토요일+공휴일","weekdayOpen":"00:00","weekdayClose":"23:59","weekendOpen":"00:00","weekendClose":"23:59","holidayOpen":"00:00","holidayClose":"23:59","feeInfo":"기본 90분 400원 / 추가 10분당 600원","phone":"031-357-6548","updatedAt":"2025-08-04","sido":"경기도","sigungu":"화성시","dong":"봉담읍"},{"name":"동화 중심 주차타워","type":"공영","category":"노외","address":"경기도 화성시 봉담읍 동화길 93-9","lat":37.21700419,"lng":126.9592153,"totalSpaces":213,"isFree":false,"operatingDays":"평일+토요일+공휴일","weekdayOpen":"00:00","weekdayClose":"23:59","weekendOpen":"00:00","weekendClose":"23:59","holidayOpen":"00:00","holidayClose":"23:59","feeInfo":"기본 90분 400원 / 추가 10분당 600원","phone":"031-357-6548","updatedAt":"2025-08-04","sido":"경기도","sigungu":"화성시","dong":"봉담읍"},{"name":"마도바이오밸리","type":"공영","category":"노외","address":"경기도 화성시 마도면 청원리1351","lat":37.17122891,"lng":126.7723577,"totalSpaces":190,"isFree":false,"operatingDays":"평일+토요일+공휴일","weekdayOpen":"00:00","weekdayClose":"23:59","weekendOpen":"00:00","weekendClose":"23:59","holidayOpen":"00:00","holidayClose":"23:59","feeInfo":"기본 10분 300원 / 추가 10분당 400원","phone":"031-357-6548","updatedAt":"2025-08-04","sido":"경기도","sigungu":"화성시","dong":"마도면"},{"name":"제부도임시","type":"공영","category":"노외","address":"경기도 화성시 서신면 제부리190-197,-198","lat":37.16978679,"lng":126.6185897,"totalSpaces":189,"isFree":false,"operatingDays":"평일+토요일+공휴일","weekdayOpen":"00:00","weekdayClose":"23:59","weekendOpen":"00:00","weekendClose":"23:59","holidayOpen":"00:00","holidayClose":"23:59","feeInfo":"기본 120분 3,000원 / 추가 60분당 3,000원","phone":"031-357-6548","updatedAt":"2025-08-04","sido":"경기도","sigungu":"화성시","dong":"서신면"},{"name":"봉담 상리 1","type":"공영","category":"노외","address":"경기도 화성시 봉담읍 상리중심상가길 25","lat":37.226041,"lng":126.944892,"totalSpaces":186,"isFree":false,"operatingDays":"평일+토요일+공휴일","weekdayOpen":"00:00","weekdayClose":"23:59","weekendOpen":"00:00","weekendClose":"23:59","holidayOpen":"00:00","holidayClose":"23:59","feeInfo":"기본 90분 400원 / 추가 10분당 600원","phone":"031-357-6548","updatedAt":"2025-08-04","sido":"경기도","sigungu":"화성시","dong":"봉담읍"},{"name":"마도바이오밸리1","type":"공영","category":"노외","address":"경기도 화성시 마도면 청원리1473","lat":37.17052179,"lng":126.7641832,"totalSpaces":162,"isFree":false,"operatingDays":"평일+토요일+공휴일","weekdayOpen":"00:00","weekdayClose":"23:59","weekendOpen":"00:00","weekendClose":"23:59","holidayOpen":"00:00","holidayClose":"23:59","feeInfo":"기본 10분 300원 / 추가 10분당 400원","phone":"031-357-6548","updatedAt":"2025-08-04","sido":"경기도","sigungu":"화성시","dong":"마도면"},{"name":"다은(남광장지하)","type":"공영","category":"노외","address":"경기도 화성시 동탄중심상가1길 21","lat":37.20083002,"lng":127.0723739,"totalSpaces":157,"isFree":false,"operatingDays":"평일+토요일+공휴일","weekdayOpen":"00:00","weekdayClose":"23:59","weekendOpen":"00:00","weekendClose":"23:59","holidayOpen":"00:00","holidayClose":"23:59","feeInfo":"기본 90분 400원 / 추가 10분당 600원","phone":"031-8059-6538","updatedAt":"2025-08-04","sido":"경기도","sigungu":"화성시","dong":"반송동"},{"name":"진안(진안택지)","type":"공영","category":"노외","address":"경기도 화성시 병점동로 110-4","lat":37.21362646,"lng":127.039849,"totalSpaces":156,"isFree":false,"operatingDays":"평일+토요일+공휴일","weekdayOpen":"00:00","weekdayClose":"23:59","weekendOpen":"00:00","weekendClose":"23:59","holidayOpen":"00:00","holidayClose":"23:59","feeInfo":"기본 90분 400원 / 추가 10분당 600원","phone":"031-8059-6538","updatedAt":"2025-08-04","sido":"경기도","sigungu":"화성시","dong":"진안동"},{"name":"한빛(북광장지하)","type":"공영","category":"노외","address":"경기도 화성시 동탄중심상가2길 21","lat":37.20596735,"lng":127.0735665,"totalSpaces":156,"isFree":false,"operatingDays":"평일+토요일+공휴일","weekdayOpen":"00:00","weekdayClose":"23:59","weekendOpen":"00:00","weekendClose":"23:59","holidayOpen":"00:00","holidayClose":"23:59","feeInfo":"기본 90분 400원 / 추가 10분당 600원","phone":"031-8059-6538","updatedAt":"2025-08-04","sido":"경기도","sigungu":"화성시","dong":"반송동"},{"name":"노작마을","type":"공영","category":"노외","address":"경기도 화성시 반송동 268-1","lat":37.19538226,"lng":127.0818447,"totalSpaces":141,"isFree":false,"operatingDays":"평일+토요일+공휴일","weekdayOpen":"00:00","weekdayClose":"23:59","weekendOpen":"00:00","weekendClose":"23:59","holidayOpen":"00:00","holidayClose":"23:59","feeInfo":"기본 90분 400원 / 추가 10분당 600원","phone":"031-8059-6538","updatedAt":"2025-08-04","sido":"경기도","sigungu":"화성시","dong":"반송동"},{"name":"향남환승터미널","type":"공영","category":"노외","address":"경기도 화성시 향남읍 향남로 424","lat":37.13287685,"lng":126.9218473,"totalSpaces":133,"isFree":false,"operatingDays":"평일+토요일+공휴일","weekdayOpen":"00:00","weekdayClose":"23:59","weekendOpen":"00:00","weekendClose":"23:59","holidayOpen":"00:00","holidayClose":"23:59","feeInfo":"기본 90분 400원 / 추가 10분당 600원","phone":"031-357-6548","updatedAt":"2025-08-04","sido":"경기도","sigungu":"화성시","dong":"향남읍"},{"name":"병점(병점역환승)","type":"공영","category":"노외","address":"경기도 화성시 떡전골로 59","lat":37.20403987,"lng":127.0351884,"totalSpaces":133,"isFree":false,"operatingDays":"평일+토요일+공휴일","weekdayOpen":"00:00","weekdayClose":"23:59","weekendOpen":"00:00","weekendClose":"23:59","holidayOpen":"00:00","holidayClose":"23:59","feeInfo":"기본 90분 400원 / 추가 10분당 600원","phone":"031-8059-6538","updatedAt":"2025-08-04","sido":"경기도","sigungu":"화성시","dong":"병점동"},{"name":"와우리","type":"공영","category":"노외","address":"경기도 화성시 봉담읍 와우리 40-4번지","lat":37.21361603,"lng":126.9775326,"totalSpaces":128,"isFree":false,"operatingDays":"평일+토요일+공휴일","weekdayOpen":"00:00","weekdayClose":"23:59","weekendOpen":"00:00","weekendClose":"23:59","holidayOpen":"00:00","holidayClose":"23:59","feeInfo":"기본 90분 300원 / 추가 10분당 400원","phone":"031-357-6548","updatedAt":"2025-08-04","sido":"경기도","sigungu":"화성시","dong":"봉담읍"},{"name":"오산동","type":"공영","category":"노외","address":"경기도 화성시 오산동 990-1","lat":37.1920662,"lng":127.0887715,"totalSpaces":128,"isFree":false,"operatingDays":"평일+토요일+공휴일","weekdayOpen":"00:00","weekdayClose":"23:59","weekendOpen":"00:00","weekendClose":"23:59","holidayOpen":"00:00","holidayClose":"23:59","feeInfo":"기본 90분 400원 / 추가 10분당 600원","phone":"031-8059-6538","updatedAt":"2025-08-04","sido":"경기도","sigungu":"화성시","dong":"오산동"},{"name":"영천2","type":"공영","category":"노상","address":"경기도 화성시 지산2길 17","lat":37.20535433,"lng":127.1137334,"totalSpaces":125,"isFree":false,"operatingDays":"평일+토요일+공휴일","weekdayOpen":"00:00","weekdayClose":"23:59","weekendOpen":"00:00","weekendClose":"23:59","holidayOpen":"00:00","holidayClose":"23:59","feeInfo":"기본 90분 400원 / 추가 10분당 600원","phone":"031-8059-6538","updatedAt":"2025-08-04","sido":"경기도","sigungu":"화성시","dong":"영천동"},{"name":"우정(조암)","type":"공영","category":"노외","address":"경기도 화성시 우정읍 조암남로33번길 6","lat":37.08452752,"lng":126.8187972,"totalSpaces":124,"isFree":false,"operatingDays":"평일+토요일+공휴일","weekdayOpen":"00:00","weekdayClose":"23:59","weekendOpen":"00:00","weekendClose":"23:59","holidayOpen":"00:00","holidayClose":"23:59","feeInfo":"기본 120분 300원 / 추가 10분당 400원","phone":"031-357-6548","updatedAt":"2025-08-04","sido":"경기도","sigungu":"화성시","dong":"우정읍"},{"name":"평리","type":"공영","category":"노외","address":"경기도 화성시 향남읍 평6길 48","lat":37.13030099,"lng":126.9080293,"totalSpaces":108,"isFree":false,"operatingDays":"평일+토요일+공휴일","weekdayOpen":"00:00","weekdayClose":"23:59","weekendOpen":"00:00","weekendClose":"23:59","holidayOpen":"00:00","holidayClose":"23:59","feeInfo":"기본 120분 300원 / 추가 10분당 400원","phone":"031-357-6548","updatedAt":"2025-08-04","sido":"경기도","sigungu":"화성시","dong":"향남읍"},{"name":"동탄 산단","type":"공영","category":"노외","address":"경기도 화성시 동탄산단8길 15-12","lat":37.17341759,"lng":127.0896855,"totalSpaces":98,"isFree":false,"operatingDays":"평일+토요일+공휴일","weekdayOpen":"00:00","weekdayClose":"23:59","weekendOpen":"00:00","weekendClose":"23:59","holidayOpen":"00:00","holidayClose":"23:59","feeInfo":"기본 90분 400원 / 추가 10분당 600원","phone":"031-8059-6538","updatedAt":"2025-08-04","sido":"경기도","sigungu":"화성시","dong":"방교동"},{"name":"남양택지주3(남양택지공영주차장)","type":"공영","category":"노외","address":"경기도 화성시 남양읍 남양리2226-7","lat":37.21146656,"lng":126.828967,"totalSpaces":83,"isFree":false,"operatingDays":"평일+토요일+공휴일","weekdayOpen":"00:00","weekdayClose":"23:59","weekendOpen":"00:00","weekendClose":"23:59","holidayOpen":"00:00","holidayClose":"23:59","feeInfo":"기본 90분 300원 / 추가 10분당 400원","phone":"031-357-6548","updatedAt":"2025-08-04","sido":"경기도","sigungu":"화성시","dong":"남양읍"},{"name":"남양재래시장","type":"공영","category":"노외","address":"경기도 화성시 남양읍 남양시장로55번길 16","lat":37.20947469,"lng":126.8166028,"totalSpaces":82,"isFree":false,"operatingDays":"평일+토요일+공휴일","weekdayOpen":"00:00","weekdayClose":"23:59","weekendOpen":"00:00","weekendClose":"23:59","holidayOpen":"00:00","holidayClose":"23:59","feeInfo":"기본 120분 300원 / 추가 10분당 400원","phone":"031-357-6548","updatedAt":"2025-08-04","sido":"경기도","sigungu":"화성시","dong":"남양읍"},{"name":"동탄북광장(한빛노상)","type":"공영","category":"노상","address":"경기도 화성시 노작로 197","lat":37.20554051,"lng":127.0744542,"totalSpaces":82,"isFree":false,"operatingDays":"평일+토요일+공휴일","weekdayOpen":"00:00","weekdayClose":"23:59","weekendOpen":"00:00","weekendClose":"23:59","holidayOpen":"00:00","holidayClose":"23:59","feeInfo":"기본 90분 400원 / 추가 10분당 600원","phone":"031-8059-6538","updatedAt":"2025-08-04","sido":"경기도","sigungu":"화성시","dong":"반송동"},{"name":"행정리","type":"공영","category":"노외","address":"경기도 화성시 향남읍 행정리437-1","lat":37.1308055,"lng":126.919245,"totalSpaces":80,"isFree":false,"operatingDays":"평일+토요일+공휴일","weekdayOpen":"00:00","weekdayClose":"23:59","weekendOpen":"00:00","weekendClose":"23:59","holidayOpen":"00:00","holidayClose":"23:59","feeInfo":"기본 90분 400원 / 추가 10분당 600원","phone":"031-357-6548","updatedAt":"2025-08-04","sido":"경기도","sigungu":"화성시","dong":"향남읍"},{"name":"영천1","type":"공영","category":"노상","address":"경기도 화성시 지산1길 9","lat":37.2071976,"lng":127.1120458,"totalSpaces":72,"isFree":false,"operatingDays":"평일+토요일+공휴일","weekdayOpen":"00:00","weekdayClose":"23:59","weekendOpen":"00:00","weekendClose":"23:59","holidayOpen":"00:00","holidayClose":"23:59","feeInfo":"기본 90분 400원 / 추가 10분당 600원","phone":"031-8059-6538","updatedAt":"2025-08-04","sido":"경기도","sigungu":"화성시","dong":"영천동"},{"name":"진안동거주자우선주차","type":"공영","category":"노상","address":"경기도 화성시 진안동 934-4","lat":37.21926536,"lng":127.0383386,"totalSpaces":72,"isFree":false,"operatingDays":"평일+토요일+공휴일","weekdayOpen":"00:00","weekdayClose":"23:59","weekendOpen":"00:00","weekendClose":"23:59","holidayOpen":"00:00","holidayClose":"23:59","feeInfo":"기본 10분 200원 / 추가 10분당 200원","phone":"031-357-6548","updatedAt":"2025-08-04","sido":"경기도","sigungu":"화성시","dong":"진안동"},{"name":"동탄남광장(다은노상)","type":"공영","category":"노상","address":"경기도 화성시 노작로 147","lat":37.20093937,"lng":127.073224,"totalSpaces":70,"isFree":false,"operatingDays":"평일+토요일+공휴일","weekdayOpen":"00:00","weekdayClose":"23:59","weekendOpen":"00:00","weekendClose":"23:59","holidayOpen":"00:00","holidayClose":"23:59","feeInfo":"기본 90분 400원 / 추가 10분당 600원","phone":"031-8059-6538","updatedAt":"2025-08-04","sido":"경기도","sigungu":"화성시","dong":"반송동"},{"name":"동탄 캠핑카(임시)","type":"공영","category":"노외","address":"경기도 화성시 오산동 989","lat":37.19352075,"lng":127.0890273,"totalSpaces":64,"isFree":false,"operatingDays":"평일+토요일+공휴일","weekdayOpen":"00:00","weekdayClose":"23:59","weekendOpen":"00:00","weekendClose":"23:59","holidayOpen":"00:00","holidayClose":"23:59","feeInfo":"기본 0분 0원 / 추가 0분당 0원","phone":"031-8059-6538","updatedAt":"2025-08-04","sido":"경기도","sigungu":"화성시","dong":"오산동"},{"name":"목동2(주41)","type":"공영","category":"노외","address":"경기도 화성시 목동 245-1","lat":37.18306198,"lng":127.1235247,"totalSpaces":63,"isFree":false,"operatingDays":"평일+토요일+공휴일","weekdayOpen":"00:00","weekdayClose":"23:59","weekendOpen":"00:00","weekendClose":"23:59","holidayOpen":"00:00","holidayClose":"23:59","feeInfo":"기본 90분 400원 / 추가 10분당 600원","phone":"031-8059-6538","updatedAt":"2025-08-04","sido":"경기도","sigungu":"화성시","dong":"목동"},{"name":"한빛제2(노외)","type":"공영","category":"노외","address":"경기도 화성시 반송동 89","lat":37.20572515,"lng":127.0741421,"totalSpaces":60,"isFree":false,"operatingDays":"평일+토요일+공휴일","weekdayOpen":"00:00","weekdayClose":"23:59","weekendOpen":"00:00","weekendClose":"23:59","holidayOpen":"00:00","holidayClose":"23:59","feeInfo":"기본 90분 400원 / 추가 10분당 600원","phone":"031-8059-6538","updatedAt":"2025-08-04","sido":"경기도","sigungu":"화성시","dong":"반송동"},{"name":"하가등천","type":"공영","category":"노외","address":"경기도 화성시 향남읍 장짐리401-9(평리29-1)","lat":37.13464478,"lng":126.9102486,"totalSpaces":60,"isFree":false,"operatingDays":"평일+토요일+공휴일","weekdayOpen":"00:00","weekdayClose":"23:59","weekendOpen":"00:00","weekendClose":"23:59","holidayOpen":"00:00","holidayClose":"23:59","feeInfo":"기본 90분 300원 / 추가 10분당 400원","phone":"031-357-6548","updatedAt":"2025-08-04","sido":"경기도","sigungu":"화성시","dong":"향남읍"},{"name":"반송동(반송마을)","type":"공영","category":"노상","address":"경기도 화성시 반송동 226","lat":37.21085245,"lng":127.0647531,"totalSpaces":57,"isFree":false,"operatingDays":"평일+토요일+공휴일","weekdayOpen":"00:00","weekdayClose":"23:59","weekendOpen":"00:00","weekendClose":"23:59","holidayOpen":"00:00","holidayClose":"23:59","feeInfo":"기본 90분 400원 / 추가 10분당 600원","phone":"031-8059-6538","updatedAt":"2025-08-04","sido":"경기도","sigungu":"화성시","dong":"반송동"},{"name":"노작공원노상주차장","type":"공영","category":"노상","address":"경기도 화성시 석우동 121,118","lat":37.20714514,"lng":127.0793292,"totalSpaces":56,"isFree":false,"operatingDays":"평일+토요일+공휴일","weekdayOpen":"00:00","weekdayClose":"23:59","weekendOpen":"00:00","weekendClose":"23:59","holidayOpen":"00:00","holidayClose":"23:59","feeInfo":"기본 90분 400원 / 추가 10분당 600원","phone":"031-8059-6538","updatedAt":"2025-08-04","sido":"경기도","sigungu":"화성시","dong":"석우동"},{"name":"향남2지구상신리","type":"공영","category":"노외","address":"경기도 화성시 향남읍 상신리1294-3","lat":37.10511417,"lng":126.9000177,"totalSpaces":55,"isFree":false,"operatingDays":"평일+토요일+공휴일","weekdayOpen":"00:00","weekdayClose":"23:59","weekendOpen":"00:00","weekendClose":"23:59","holidayOpen":"00:00","holidayClose":"23:59","feeInfo":"기본 90분 300원 / 추가 10분당 400원","phone":"031-357-6548","updatedAt":"2025-08-04","sido":"경기도","sigungu":"화성시","dong":"향남읍"},{"name":"센트럴파크옆노상","type":"공영","category":"노상","address":"경기도 화성시 동탄공원로2길 33-1","lat":37.20695738,"lng":127.0623502,"totalSpaces":54,"isFree":false,"operatingDays":"평일+토요일+공휴일","weekdayOpen":"00:00","weekdayClose":"23:59","weekendOpen":"00:00","weekendClose":"23:59","holidayOpen":"00:00","holidayClose":"23:59","feeInfo":"기본 90분 400원 / 추가 10분당 600원","phone":"031-8059-6538","updatedAt":"2025-08-04","sido":"경기도","sigungu":"화성시","dong":"반송동"},{"name":"다은제2(노외)","type":"공영","category":"노외","address":"경기도 화성시 반송동 105","lat":37.20094921,"lng":127.0730005,"totalSpaces":52,"isFree":false,"operatingDays":"평일+토요일+공휴일","weekdayOpen":"00:00","weekdayClose":"23:59","weekendOpen":"00:00","weekendClose":"23:59","holidayOpen":"00:00","holidayClose":"23:59","feeInfo":"기본 90분 400원 / 추가 10분당 600원","phone":"031-8059-6538","updatedAt":"2025-08-04","sido":"경기도","sigungu":"화성시","dong":"반송동"},{"name":"봉담 상리(행복주택)","type":"공영","category":"노외","address":"경기도 화성시 봉담읍 삼천병마로 1256-13","lat":37.218006,"lng":126.9485114,"totalSpaces":50,"isFree":false,"operatingDays":"평일+토요일+공휴일","weekdayOpen":"00:00","weekdayClose":"23:59","weekendOpen":"00:00","weekendClose":"23:59","holidayOpen":"00:00","holidayClose":"23:59","feeInfo":"기본 90분 300원 / 추가 10분당 400원","phone":"031-357-6548","updatedAt":"2025-08-04","sido":"경기도","sigungu":"화성시","dong":"봉담읍"},{"name":"영천3","type":"공영","category":"노상","address":"경기도 화성시 영천동 810-1","lat":37.20822681,"lng":127.0939804,"totalSpaces":50,"isFree":false,"operatingDays":"평일+토요일+공휴일","weekdayOpen":"00:00","weekdayClose":"23:59","weekendOpen":"00:00","weekendClose":"23:59","holidayOpen":"00:00","holidayClose":"23:59","feeInfo":"기본 90분 400원 / 추가 10분당 600원","phone":"031-8059-6538","updatedAt":"2025-08-04","sido":"경기도","sigungu":"화성시","dong":"영천동"},{"name":"동탄2지구 주65","type":"공영","category":"노외","address":"경기도 화성시 동탄장지천5길 26","lat":37.15861399,"lng":127.1046902,"totalSpaces":49,"isFree":false,"operatingDays":"평일+토요일+공휴일","weekdayOpen":"00:00","weekdayClose":"23:59","weekendOpen":"00:00","weekendClose":"23:59","holidayOpen":"00:00","holidayClose":"23:59","feeInfo":"기본 90분 400원 / 추가 10분당 600원","phone":"031-357-6548","updatedAt":"2025-08-04","sido":"경기도","sigungu":"화성시","dong":"장지동"},{"name":"병점1동거주자우선주차","type":"공영","category":"노상","address":"경기도 화성시 병점동 815","lat":37.20746237,"lng":127.0389807,"totalSpaces":49,"isFree":false,"operatingDays":"평일+토요일+공휴일","weekdayOpen":"00:00","weekdayClose":"23:59","weekendOpen":"00:00","weekendClose":"23:59","holidayOpen":"00:00","holidayClose":"23:59","feeInfo":"기본 10분 200원 / 추가 10분당 200원","phone":"031-357-6548","updatedAt":"2025-08-04","sido":"경기도","sigungu":"화성시","dong":"병점동"},{"name":"동탄2지구 주21","type":"공영","category":"노외","address":"경기도 화성시 산척동 803","lat":37.17354114,"lng":127.1234932,"totalSpaces":48,"isFree":false,"operatingDays":"평일+토요일+공휴일","weekdayOpen":"00:00","weekdayClose":"23:59","weekendOpen":"00:00","weekendClose":"23:59","holidayOpen":"00:00","holidayClose":"23:59","feeInfo":"기본 90분 400원 / 추가 10분당 600원","phone":"031-8059-6538","updatedAt":"2025-08-04","sido":"경기도","sigungu":"화성시","dong":"산척동"},{"name":"태안3지구 주6","type":"공영","category":"노외","address":"경기도 화성시 안녕동 269-2","lat":37.20386903,"lng":126.9999284,"totalSpaces":43,"isFree":false,"operatingDays":"평일+토요일+공휴일","weekdayOpen":"00:00","weekdayClose":"23:59","weekendOpen":"00:00","weekendClose":"23:59","holidayOpen":"00:00","holidayClose":"23:59","feeInfo":"기본 90분 400원 / 추가 10분당 600원","phone":"031-8059-6538","updatedAt":"2025-08-04","sido":"경기도","sigungu":"화성시","dong":"안녕동"},{"name":"시청앞","type":"공영","category":"노상","address":"경기도 화성시 시청로 159","lat":37.19749009,"lng":126.8302655,"totalSpaces":40,"isFree":false,"operatingDays":"평일+토요일+공휴일","weekdayOpen":"00:00","weekdayClose":"23:59","weekendOpen":"00:00","weekendClose":"23:59","holidayOpen":"00:00","holidayClose":"23:59","feeInfo":"기본 90분 400원 / 추가 10분당 600원","phone":"031-8059-6538","updatedAt":"2025-08-04","sido":"경기도","sigungu":"화성시","dong":"남양읍"},{"name":"남양읍남양리구도심","type":"공영","category":"노외","address":"경기도 화성시 남양읍 남양리658-2","lat":37.20818355,"lng":126.8147073,"totalSpaces":40,"isFree":false,"operatingDays":"평일+토요일+공휴일","weekdayOpen":"00:00","weekdayClose":"23:59","weekendOpen":"00:00","weekendClose":"23:59","holidayOpen":"00:00","holidayClose":"23:59","feeInfo":"기본 90분 300원 / 추가 10분당 400원","phone":"031-357-6548","updatedAt":"2025-08-04","sido":"경기도","sigungu":"화성시","dong":"남양읍"},{"name":"태안3지구 주5","type":"공영","category":"노외","address":"경기도 화성시 안녕동 259-3","lat":37.20501535,"lng":126.9987365,"totalSpaces":40,"isFree":false,"operatingDays":"평일+토요일+공휴일","weekdayOpen":"00:00","weekdayClose":"23:59","weekendOpen":"00:00","weekendClose":"23:59","holidayOpen":"00:00","holidayClose":"23:59","feeInfo":"기본 90분 400원 / 추가 10분당 600원","phone":"031-8059-6538","updatedAt":"2025-08-04","sido":"경기도","sigungu":"화성시","dong":"안녕동"},{"name":"동탄2지구 주64","type":"공영","category":"노외","address":"경기도 화성시 장지동 932-5","lat":37.159522,"lng":127.1008897,"totalSpaces":38,"isFree":false,"operatingDays":"평일+토요일+공휴일","weekdayOpen":"00:00","weekdayClose":"23:59","weekendOpen":"00:00","weekendClose":"23:59","holidayOpen":"00:00","holidayClose":"23:59","feeInfo":"기본 90분 400원 / 추가 10분당 600원","phone":"031-8059-6538","updatedAt":"2025-08-04","sido":"경기도","sigungu":"화성시","dong":"장지동"},{"name":"영천동772","type":"공영","category":"노상","address":"경기도 화성시 동탄치동천로2길 3-29","lat":37.20349018,"lng":127.1261584,"totalSpaces":34,"isFree":false,"operatingDays":"평일+토요일+공휴일","weekdayOpen":"00:00","weekdayClose":"23:59","weekendOpen":"00:00","weekendClose":"23:59","holidayOpen":"00:00","holidayClose":"23:59","feeInfo":"기본 90분 400원 / 추가 10분당 600원","phone":"031-8059-6538","updatedAt":"2025-08-04","sido":"경기도","sigungu":"화성시","dong":"영천동"},{"name":"발안만세시장","type":"공영","category":"노외","address":"경기도 화성시 향남읍 평리 36-6","lat":37.13316301,"lng":126.9103213,"totalSpaces":32,"isFree":false,"operatingDays":"평일+토요일+공휴일","weekdayOpen":"00:00","weekdayClose":"23:59","weekendOpen":"00:00","weekendClose":"23:59","holidayOpen":"00:00","holidayClose":"23:59","feeInfo":"기본 120분 300원 / 추가 10분당 400원","phone":"031-357-6548","updatedAt":"2025-08-04","sido":"경기도","sigungu":"화성시","dong":"향남읍"},{"name":"동탄2 주22","type":"공영","category":"노외","address":"경기도 화성시 산척동 826-4","lat":37.169647,"lng":127.1210899,"totalSpaces":32,"isFree":false,"operatingDays":"평일+토요일+공휴일","weekdayOpen":"00:00","weekdayClose":"23:59","weekendOpen":"00:00","weekendClose":"23:59","holidayOpen":"00:00","holidayClose":"23:59","feeInfo":"기본 90분 400원 / 추가 10분당 600원","phone":"031-8059-6538","updatedAt":"2025-08-04","sido":"경기도","sigungu":"화성시","dong":"산척동"},{"name":"송동 임시 공영","type":"공영","category":"노외","address":"경기도 화성시 송동 721","lat":37.16513991,"lng":127.0997309,"totalSpaces":30,"isFree":false,"operatingDays":"평일+토요일+공휴일","weekdayOpen":"00:00","weekdayClose":"23:59","weekendOpen":"00:00","weekendClose":"23:59","holidayOpen":"00:00","holidayClose":"23:59","feeInfo":"기본 90분 400원 / 추가 10분당 600원","phone":"031-357-6548","updatedAt":"2025-08-04","sido":"경기도","sigungu":"화성시","dong":"송동"},{"name":"석우동제26통제1","type":"공영","category":"노외","address":"경기도 화성시 동학산1길 6-32","lat":37.22224756,"lng":127.0756487,"totalSpaces":29,"isFree":false,"operatingDays":"평일+토요일+공휴일","weekdayOpen":"00:00","weekdayClose":"23:59","weekendOpen":"00:00","weekendClose":"23:59","holidayOpen":"00:00","holidayClose":"23:59","feeInfo":"기본 90분 400원 / 추가 10분당 600원","phone":"031-8059-6538","updatedAt":"2025-08-04","sido":"경기도","sigungu":"화성시","dong":"석우동"},{"name":"남양뉴타운주9부지(남양리 중심상가)","type":"공영","category":"노외","address":"경기도 화성시 남양읍 남양리2319-3","lat":37.19899577,"lng":126.8259425,"totalSpaces":28,"isFree":false,"operatingDays":"평일+토요일+공휴일","weekdayOpen":"00:00","weekdayClose":"23:59","weekendOpen":"00:00","weekendClose":"23:59","holidayOpen":"00:00","holidayClose":"23:59","feeInfo":"기본 90분 300원 / 추가 10분당 400원","phone":"031-357-6548","updatedAt":"2025-08-04","sido":"경기도","sigungu":"화성시","dong":"남양읍"},{"name":"능동제1","type":"공영","category":"노상","address":"경기도 화성시 동탄지성로 140","lat":37.20979805,"lng":127.0603903,"totalSpaces":25,"isFree":false,"operatingDays":"평일+토요일+공휴일","weekdayOpen":"00:00","weekdayClose":"23:59","weekendOpen":"00:00","weekendClose":"23:59","holidayOpen":"00:00","holidayClose":"23:59","feeInfo":"기본 90분 400원 / 추가 10분당 600원","phone":"031-8059-6538","updatedAt":"2025-08-04","sido":"경기도","sigungu":"화성시","dong":"능동"},{"name":"석우동제26통제2","type":"공영","category":"노외","address":"경기도 화성시 동학산1길 32","lat":37.22251673,"lng":127.0765656,"totalSpaces":24,"isFree":false,"operatingDays":"평일+토요일+공휴일","weekdayOpen":"00:00","weekdayClose":"23:59","weekendOpen":"00:00","weekendClose":"23:59","holidayOpen":"00:00","holidayClose":"23:59","feeInfo":"기본 90분 400원 / 추가 10분당 600원","phone":"031-8059-6538","updatedAt":"2025-08-04","sido":"경기도","sigungu":"화성시","dong":"석우동"},{"name":"능동","type":"공영","category":"노상","address":"경기도 화성시 동탄지성로 139","lat":37.20932089,"lng":127.0601427,"totalSpaces":24,"isFree":false,"operatingDays":"평일+토요일+공휴일","weekdayOpen":"00:00","weekdayClose":"23:59","weekendOpen":"00:00","weekendClose":"23:59","holidayOpen":"00:00","holidayClose":"23:59","feeInfo":"기본 90분 400원 / 추가 10분당 600원","phone":"031-8059-6538","updatedAt":"2025-08-04","sido":"경기도","sigungu":"화성시","dong":"능동"},{"name":"나루","type":"공영","category":"노상","address":"경기도 화성시 동탄솔빛로 52","lat":37.19334646,"lng":127.0736336,"totalSpaces":22,"isFree":false,"operatingDays":"평일+토요일+공휴일","weekdayOpen":"00:00","weekdayClose":"23:59","weekendOpen":"00:00","weekendClose":"23:59","holidayOpen":"00:00","holidayClose":"23:59","feeInfo":"기본 90분 400원 / 추가 10분당 600원","phone":"031-8059-6538","updatedAt":"2025-08-04","sido":"경기도","sigungu":"화성시","dong":"반송동"},{"name":"나눔","type":"공영","category":"노외","address":"경기도 화성시 남양읍 남양리 2072-21번지 일원","lat":37.19952875,"lng":126.8274837,"totalSpaces":20,"isFree":false,"operatingDays":"평일+토요일+공휴일","weekdayOpen":"00:00","weekdayClose":"23:59","weekendOpen":"00:00","weekendClose":"23:59","holidayOpen":"00:00","holidayClose":"23:59","feeInfo":"기본 90분 400원 / 추가 10분당 600원","phone":"031-357-6548","updatedAt":"2025-08-04","sido":"경기도","sigungu":"화성시","dong":"남양읍"},{"name":"솔빛","type":"공영","category":"노상","address":"경기도 화성시 동탄솔빛로 57","lat":37.19411321,"lng":127.0735623,"totalSpaces":20,"isFree":false,"operatingDays":"평일+토요일+공휴일","weekdayOpen":"00:00","weekdayClose":"23:59","weekendOpen":"00:00","weekendClose":"23:59","holidayOpen":"00:00","holidayClose":"23:59","feeInfo":"기본 90분 400원 / 추가 10분당 600원","phone":"031-8059-6538","updatedAt":"2025-08-04","sido":"경기도","sigungu":"화성시","dong":"반송동"},{"name":"은행사거리 (구 개나리공원)","type":"공영","category":"노상","address":"경기도 화성시 반송동 233","lat":37.20878344,"lng":127.0625918,"totalSpaces":9,"isFree":false,"operatingDays":"평일+토요일+공휴일","weekdayOpen":"00:00","weekdayClose":"23:59","weekendOpen":"00:00","weekendClose":"23:59","holidayOpen":"00:00","holidayClose":"23:59","feeInfo":"기본 90분 400원 / 추가 10분당 600원","phone":"031-8059-6538","updatedAt":"2025-08-04","sido":"경기도","sigungu":"화성시","dong":"반송동"}]}