{"sido":"전라남도","sigungu":"고흥군","totalCount":5,"validCount":5,"items":[{"name":"신호2주차장","type":"공영","category":"노외","address":"전라남도 고흥군 고흥읍 신호산장길 8","lat":34.6057379,"lng":127.2968822374,"totalSpaces":202,"isFree":true,"operatingDays":"평일+토요일+공휴일","weekdayOpen":"00:00","weekdayClose":"23:59","weekendOpen":"00:00","weekendClose":"23:59","holidayOpen":"00:00","holidayClose":"23:59","feeInfo":"무료","phone":"061-830-6018","updatedAt":"2021-09-24","sido":"전라남도","sigungu":"고흥군","dong":""},{"name":"신호4주차장","type":"공영","category":"노외","address":"전라남도 고흥군 고흥읍 신호산장길 8","lat":34.6057379,"lng":127.2968822374,"totalSpaces":202,"isFree":true,"operatingDays":"평일+토요일+공휴일","weekdayOpen":"00:00","weekdayClose":"23:59","weekendOpen":"00:00","weekendClose":"23:59","holidayOpen":"00:00","holidayClose":"23:59","feeInfo":"무료","phone":"061-830-6018","updatedAt":"2021-09-24","sido":"전라남도","sigungu":"고흥군","dong":""},{"name":"신호1주차장","type":"공영","category":"노외","address":"전라남도 고흥군 고흥읍 신호산장길 8","lat":34.6057379,"lng":127.2968822374,"totalSpaces":158,"isFree":true,"operatingDays":"평일+토요일+공휴일","weekdayOpen":"00:00","weekdayClose":"23:59","weekendOpen":"00:00","weekendClose":"23:59","holidayOpen":"00:00","holidayClose":"23:59","feeInfo":"무료","phone":"061-830-6018","updatedAt":"2021-09-24","sido":"전라남도","sigungu":"고흥군","dong":""},{"name":"신호3주차장","type":"공영","category":"노외","address":"전라남도 고흥군 고흥읍 신호산장길 8","lat":34.6057379,"lng":127.2968822374,"totalSpaces":130,"isFree":true,"operatingDays":"평일+토요일+공휴일","weekdayOpen":"00:00","weekdayClose":"23:59","weekendOpen":"00:00","weekendClose":"23:59","holidayOpen":"00:00","holidayClose":"23:59","feeInfo":"무료","phone":"061-830-6018","updatedAt":"2021-09-24","sido":"전라남도","sigungu":"고흥군","dong":""},{"name":"고흥공영주차장","type":"공영","category":"부설","address":"전라남도 고흥군 고흥읍 고흥로 1776","lat":34.6079028,"lng":127.2883470014,"totalSpaces":198,"isFree":false,"operatingDays":"평일+토요일+공휴일","weekdayOpen":"09:00","weekdayClose":"18:00","weekendOpen":"09:00","weekendClose":"18:00","holidayOpen":"09:00","holidayClose":"18:00","feeInfo":"기본 60분 500원 / 추가 60분당 500원","phone":"061-830-6018","updatedAt":"2021-09-24","sido":"전라남도","sigungu":"고흥군","dong":""}]}