{"sido":"전라남도","sigungu":"담양군","totalCount":49,"validCount":49,"items":[{"name":"남산리 공영주차장","type":"공영","category":"노외","address":"전라남도 담양군 담양읍 남산리 279-10","lat":35.31652836,"lng":126.9872207,"totalSpaces":150,"isFree":true,"operatingDays":"평일+토요일+공휴일","weekdayOpen":"00:00","weekdayClose":"23:59","weekendOpen":"00:00","weekendClose":"23:59","holidayOpen":"00:00","holidayClose":"23:59","feeInfo":"무료","phone":"061-380-3355","updatedAt":"2024-10-28","sido":"전라남도","sigungu":"담양군","dong":"담양읍"},{"name":"고서면공영주차장","type":"공영","category":"노외","address":"전라남도 담양군 고서면 동운리 1612","lat":35.22332931,"lng":126.9722056,"totalSpaces":112,"isFree":true,"operatingDays":"평일+토요일+공휴일","weekdayOpen":"00:00","weekdayClose":"23:59","weekendOpen":"00:00","weekendClose":"23:59","holidayOpen":"00:00","holidayClose":"23:59","feeInfo":"무료","phone":"061-380-3355","updatedAt":"2024-10-28","sido":"전라남도","sigungu":"담양군","dong":"고서면"},{"name":"백동1지구공영주차장","type":"공영","category":"노외","address":"전라남도 담양군 담양읍 백동리 243-3","lat":35.31314384,"lng":126.9860073,"totalSpaces":86,"isFree":true,"operatingDays":"평일+토요일+공휴일","weekdayOpen":"00:00","weekdayClose":"23:59","weekendOpen":"00:00","weekendClose":"23:59","holidayOpen":"00:00","holidayClose":"23:59","feeInfo":"무료","phone":"061-380-3355","updatedAt":"2024-10-28","sido":"전라남도","sigungu":"담양군","dong":"담양읍"},{"name":"동산지구공영주차장","type":"공영","category":"노외","address":"전라남도 담양군 담양읍 천변7길 5-6","lat":35.31388184,"lng":126.9823976,"totalSpaces":86,"isFree":true,"operatingDays":"평일+토요일+공휴일","weekdayOpen":"00:00","weekdayClose":"23:59","weekendOpen":"00:00","weekendClose":"23:59","holidayOpen":"00:00","holidayClose":"23:59","feeInfo":"무료","phone":"061-380-3355","updatedAt":"2024-10-28","sido":"전라남도","sigungu":"담양군","dong":"담양읍"},{"name":"레인보우아파트공영주차장","type":"공영","category":"노외","address":"전라남도 담양군 담양읍 미리산길 59-8","lat":35.31312094,"lng":126.9858809,"totalSpaces":77,"isFree":true,"operatingDays":"평일+토요일+공휴일","weekdayOpen":"00:00","weekdayClose":"23:59","weekendOpen":"00:00","weekendClose":"23:59","holidayOpen":"00:00","holidayClose":"23:59","feeInfo":"무료","phone":"061-380-3355","updatedAt":"2024-10-28","sido":"전라남도","sigungu":"담양군","dong":"담양읍"},{"name":"중앙공영주차장","type":"공영","category":"노외","address":"전라남도 담양군 담양읍 지침리 86-8","lat":35.31767986,"lng":126.9849318,"totalSpaces":73,"isFree":true,"operatingDays":"평일+토요일+공휴일","weekdayOpen":"00:00","weekdayClose":"23:59","weekendOpen":"00:00","weekendClose":"23:59","holidayOpen":"00:00","holidayClose":"23:59","feeInfo":"무료","phone":"061-380-3355","updatedAt":"2024-10-28","sido":"전라남도","sigungu":"담양군","dong":"담양읍"},{"name":"지침리 공영주차장","type":"공영","category":"노외","address":"전라남도 담양군 담양읍 지침2길 6","lat":35.31685635,"lng":126.983754,"totalSpaces":67,"isFree":true,"operatingDays":"평일+토요일+공휴일","weekdayOpen":"00:00","weekdayClose":"23:59","weekendOpen":"00:00","weekendClose":"23:59","holidayOpen":"00:00","holidayClose":"23:59","feeInfo":"무료","phone":"061-380-3355","updatedAt":"2024-10-28","sido":"전라남도","sigungu":"담양군","dong":"담양읍"},{"name":"천변1지구공영주차장","type":"공영","category":"노외","address":"전라남도 담양군 담양읍 천변리 170-4","lat":35.31718964,"lng":126.9823621,"totalSpaces":55,"isFree":true,"operatingDays":"평일+토요일+공휴일","weekdayOpen":"00:00","weekdayClose":"23:59","weekendOpen":"00:00","weekendClose":"23:59","holidayOpen":"00:00","holidayClose":"23:59","feeInfo":"무료","phone":"061-380-3355","updatedAt":"2024-10-28","sido":"전라남도","sigungu":"담양군","dong":"담양읍"},{"name":"객사1지구공영주차장","type":"공영","category":"노외","address":"전라남도 담양군 담양읍 객사리 148","lat":35.32249307,"lng":126.9847317,"totalSpaces":53,"isFree":true,"operatingDays":"평일+토요일+공휴일","weekdayOpen":"00:00","weekdayClose":"23:59","weekendOpen":"00:00","weekendClose":"23:59","holidayOpen":"00:00","holidayClose":"23:59","feeInfo":"무료","phone":"061-380-3355","updatedAt":"2024-10-28","sido":"전라남도","sigungu":"담양군","dong":"담양읍"},{"name":"수북공영주차장","type":"공영","category":"노외","address":"전라남도 담양군 수북면 한수동로 571","lat":35.30232594,"lng":126.9289401,"totalSpaces":50,"isFree":true,"operatingDays":"평일+토요일+공휴일","weekdayOpen":"00:00","weekdayClose":"23:59","weekendOpen":"00:00","weekendClose":"23:59","holidayOpen":"00:00","holidayClose":"23:59","feeInfo":"무료","phone":"061-380-3355","updatedAt":"2024-10-28","sido":"전라남도","sigungu":"담양군","dong":"수북면"},{"name":"문화회관공영주차장","type":"공영","category":"노외","address":"전라남도 담양군 담양읍 지침리 690","lat":35.31655334,"lng":126.9864243,"totalSpaces":48,"isFree":true,"operatingDays":"평일+토요일+공휴일","weekdayOpen":"00:00","weekdayClose":"23:59","weekendOpen":"00:00","weekendClose":"23:59","holidayOpen":"00:00","holidayClose":"23:59","feeInfo":"무료","phone":"061-380-3355","updatedAt":"2024-10-28","sido":"전라남도","sigungu":"담양군","dong":"담양읍"},{"name":"형운카센터끝주차장","type":"공영","category":"노외","address":"전라남도 담양군 담양읍 지침5길 32","lat":35.31859693,"lng":126.9885751,"totalSpaces":42,"isFree":true,"operatingDays":"평일+토요일+공휴일","weekdayOpen":"00:00","weekdayClose":"23:59","weekendOpen":"00:00","weekendClose":"23:59","holidayOpen":"00:00","holidayClose":"23:59","feeInfo":"무료","phone":"061-380-3355","updatedAt":"2024-10-28","sido":"전라남도","sigungu":"담양군","dong":"담양읍"},{"name":"행복교회 공영주차장","type":"공영","category":"노외","address":"전라남도 담양군 담양읍 객사3길 11","lat":35.32370195,"lng":126.9821479,"totalSpaces":40,"isFree":true,"operatingDays":"평일+토요일+공휴일","weekdayOpen":"00:00","weekdayClose":"23:59","weekendOpen":"00:00","weekendClose":"23:59","holidayOpen":"00:00","holidayClose":"23:59","feeInfo":"무료","phone":"061-380-3355","updatedAt":"2024-10-28","sido":"전라남도","sigungu":"담양군","dong":"담양읍"},{"name":"천변2지구공영주차장","type":"공영","category":"노외","address":"전라남도 담양군 담양읍 천변리 21(삭제)","lat":35.31857003,"lng":126.9813004,"totalSpaces":40,"isFree":true,"operatingDays":"평일+토요일+공휴일","weekdayOpen":"00:00","weekdayClose":"23:59","weekendOpen":"00:00","weekendClose":"23:59","holidayOpen":"00:00","holidayClose":"23:59","feeInfo":"무료","phone":"061-380-3355","updatedAt":"2024-10-28","sido":"전라남도","sigungu":"담양군","dong":"담양읍"},{"name":"객사1길공영주차장","type":"공영","category":"노외","address":"전라남도 담양군 담양읍 객사1길 7","lat":35.32146098,"lng":126.9829007,"totalSpaces":36,"isFree":true,"operatingDays":"평일+토요일+공휴일","weekdayOpen":"00:00","weekdayClose":"23:59","weekendOpen":"00:00","weekendClose":"23:59","holidayOpen":"00:00","holidayClose":"23:59","feeInfo":"무료","phone":"061-380-3355","updatedAt":"2024-10-28","sido":"전라남도","sigungu":"담양군","dong":"담양읍"},{"name":"형운카센터옆주차장","type":"공영","category":"노외","address":"전라남도 담양군 담양읍 지침5길 33-8","lat":35.31933796,"lng":126.988969,"totalSpaces":36,"isFree":true,"operatingDays":"평일+토요일+공휴일","weekdayOpen":"00:00","weekdayClose":"23:59","weekendOpen":"00:00","weekendClose":"23:59","holidayOpen":"00:00","holidayClose":"23:59","feeInfo":"무료","phone":"061-380-3355","updatedAt":"2024-10-28","sido":"전라남도","sigungu":"담양군","dong":"담양읍"},{"name":"담양군청 인근 공영주차장","type":"공영","category":"노외","address":"전라남도 담양군 담양읍 객사리 120-1","lat":35.3218018,"lng":126.9861454,"totalSpaces":35,"isFree":true,"operatingDays":"평일+토요일+공휴일","weekdayOpen":"00:00","weekdayClose":"23:59","weekendOpen":"00:00","weekendClose":"23:59","holidayOpen":"00:00","holidayClose":"23:59","feeInfo":"무료","phone":"061-380-3355","updatedAt":"2024-10-28","sido":"전라남도","sigungu":"담양군","dong":"담양읍"},{"name":"천변3지구공영주차장","type":"공영","category":"노외","address":"전라남도 담양군 담양읍 천변1길 20","lat":35.31790122,"lng":126.9809485,"totalSpaces":32,"isFree":true,"operatingDays":"평일+토요일+공휴일","weekdayOpen":"00:00","weekdayClose":"23:59","weekendOpen":"00:00","weekendClose":"23:59","holidayOpen":"00:00","holidayClose":"23:59","feeInfo":"무료","phone":"061-380-3355","updatedAt":"2024-10-28","sido":"전라남도","sigungu":"담양군","dong":"담양읍"},{"name":"백동리 공영주차장","type":"공영","category":"노외","address":"전라남도 담양군 담양읍 백동리 268-8","lat":35.31119368,"lng":126.9828458,"totalSpaces":31,"isFree":true,"operatingDays":"평일+토요일+공휴일","weekdayOpen":"00:00","weekdayClose":"23:59","weekendOpen":"00:00","weekendClose":"23:59","holidayOpen":"00:00","holidayClose":"23:59","feeInfo":"무료","phone":"061-380-3355","updatedAt":"2024-10-28","sido":"전라남도","sigungu":"담양군","dong":"담양읍"},{"name":"복민교회앞 공영주차장","type":"공영","category":"노외","address":"전라남도 담양군 담양읍 백동리 671-1","lat":35.31414883,"lng":126.9822006,"totalSpaces":31,"isFree":true,"operatingDays":"평일+토요일+공휴일","weekdayOpen":"00:00","weekdayClose":"23:59","weekendOpen":"00:00","weekendClose":"23:59","holidayOpen":"00:00","holidayClose":"23:59","feeInfo":"무료","phone":"061-380-3355","updatedAt":"2024-10-28","sido":"전라남도","sigungu":"담양군","dong":"담양읍"},{"name":"담주2지구공영주차장","type":"공영","category":"노외","address":"전라남도 담양군 담양읍 담주리 95","lat":35.32053018,"lng":126.9809022,"totalSpaces":30,"isFree":true,"operatingDays":"평일+토요일+공휴일","weekdayOpen":"00:00","weekdayClose":"23:59","weekendOpen":"00:00","weekendClose":"23:59","holidayOpen":"00:00","holidayClose":"23:59","feeInfo":"무료","phone":"061-380-3355","updatedAt":"2024-10-28","sido":"전라남도","sigungu":"담양군","dong":"담양읍"},{"name":"지침4지구공영주차장","type":"공영","category":"노외","address":"전라남도 담양군 담양읍 지침6길 24-1","lat":35.31559393,"lng":126.9858433,"totalSpaces":30,"isFree":true,"operatingDays":"평일+토요일+공휴일","weekdayOpen":"00:00","weekdayClose":"23:59","weekendOpen":"00:00","weekendClose":"23:59","holidayOpen":"00:00","holidayClose":"23:59","feeInfo":"무료","phone":"061-380-3355","updatedAt":"2024-10-28","sido":"전라남도","sigungu":"담양군","dong":"담양읍"},{"name":"백동청전지구공영주차장","type":"공영","category":"노외","address":"전라남도 담양군 담양읍 백동리 97-1","lat":35.30881933,"lng":126.9858976,"totalSpaces":20,"isFree":true,"operatingDays":"평일+토요일+공휴일","weekdayOpen":"00:00","weekdayClose":"23:59","weekendOpen":"00:00","weekendClose":"23:59","holidayOpen":"00:00","holidayClose":"23:59","feeInfo":"무료","phone":"061-380-3355","updatedAt":"2024-10-28","sido":"전라남도","sigungu":"담양군","dong":"담양읍"},{"name":"대치리 공영주차장","type":"공영","category":"노외","address":"전라남도 담양군 대전면 대치리 512-1","lat":35.28126991,"lng":126.8865248,"totalSpaces":19,"isFree":true,"operatingDays":"평일+토요일+공휴일","weekdayOpen":"00:00","weekdayClose":"23:59","weekendOpen":"00:00","weekendClose":"23:59","holidayOpen":"00:00","holidayClose":"23:59","feeInfo":"무료","phone":"061-380-3355","updatedAt":"2024-10-28","sido":"전라남도","sigungu":"담양군","dong":"대전면"},{"name":"국수거리공영주차장","type":"공영","category":"노외","address":"전라남도 담양군 담양읍 객사3길 30","lat":35.32411783,"lng":126.9841272,"totalSpaces":18,"isFree":true,"operatingDays":"평일+토요일+공휴일","weekdayOpen":"00:00","weekdayClose":"23:59","weekendOpen":"00:00","weekendClose":"23:59","holidayOpen":"00:00","holidayClose":"23:59","feeInfo":"무료","phone":"061-380-3355","updatedAt":"2024-10-28","sido":"전라남도","sigungu":"담양군","dong":"담양읍"},{"name":"만성지구공영주차장","type":"공영","category":"노외","address":"전라남도 담양군 담양읍 완동길 16","lat":35.32490381,"lng":126.9805061,"totalSpaces":18,"isFree":true,"operatingDays":"평일+토요일+공휴일","weekdayOpen":"00:00","weekdayClose":"23:59","weekendOpen":"00:00","weekendClose":"23:59","holidayOpen":"00:00","holidayClose":"23:59","feeInfo":"무료","phone":"061-380-3355","updatedAt":"2024-10-28","sido":"전라남도","sigungu":"담양군","dong":"담양읍"},{"name":"담양시장 인근 공영주차장","type":"공영","category":"노외","address":"전라남도 담양군 담양읍 담주4길 24-72","lat":35.32276064,"lng":126.9812531,"totalSpaces":16,"isFree":true,"operatingDays":"평일+토요일+공휴일","weekdayOpen":"00:00","weekdayClose":"23:59","weekendOpen":"00:00","weekendClose":"23:59","holidayOpen":"00:00","holidayClose":"23:59","feeInfo":"무료","phone":"061-380-3355","updatedAt":"2024-10-28","sido":"전라남도","sigungu":"담양군","dong":"담양읍"},{"name":"금성면공영주차장","type":"공영","category":"노외","address":"전라남도 담양군 금성면 석현리 93-2","lat":35.34419642,"lng":127.0272035,"totalSpaces":15,"isFree":true,"operatingDays":"평일+토요일+공휴일","weekdayOpen":"00:00","weekdayClose":"23:59","weekendOpen":"00:00","weekendClose":"23:59","holidayOpen":"00:00","holidayClose":"23:59","feeInfo":"무료","phone":"061-380-3355","updatedAt":"2024-10-28","sido":"전라남도","sigungu":"담양군","dong":"금성면"},{"name":"담주1지구공영주차장","type":"공영","category":"노외","address":"전라남도 담양군 담양읍 담주2길 26-10","lat":35.32192804,"lng":126.9816146,"totalSpaces":15,"isFree":true,"operatingDays":"평일+토요일+공휴일","weekdayOpen":"00:00","weekdayClose":"23:59","weekendOpen":"00:00","weekendClose":"23:59","holidayOpen":"00:00","holidayClose":"23:59","feeInfo":"무료","phone":"061-380-3355","updatedAt":"2024-10-28","sido":"전라남도","sigungu":"담양군","dong":"담양읍"},{"name":"백동2지구공영주차장","type":"공영","category":"노외","address":"전라남도 담양군 담양읍 서당골길 11-11","lat":35.30986191,"lng":126.9868497,"totalSpaces":15,"isFree":true,"operatingDays":"평일+토요일+공휴일","weekdayOpen":"00:00","weekdayClose":"23:59","weekendOpen":"00:00","weekendClose":"23:59","holidayOpen":"00:00","holidayClose":"23:59","feeInfo":"무료","phone":"061-380-3355","updatedAt":"2024-10-28","sido":"전라남도","sigungu":"담양군","dong":"담양읍"},{"name":"담양읍교회옆 공영주차장","type":"공영","category":"노외","address":"전라남도 담양군 담양읍 지침리 108","lat":35.31725941,"lng":126.9846868,"totalSpaces":13,"isFree":true,"operatingDays":"평일+토요일+공휴일","weekdayOpen":"00:00","weekdayClose":"23:59","weekendOpen":"00:00","weekendClose":"23:59","holidayOpen":"00:00","holidayClose":"23:59","feeInfo":"무료","phone":"061-380-3355","updatedAt":"2024-10-28","sido":"전라남도","sigungu":"담양군","dong":"담양읍"},{"name":"객사2지구공영주차장","type":"공영","category":"노외","address":"전라남도 담양군 담양읍 객사리 52-5","lat":35.32064362,"lng":126.9874022,"totalSpaces":13,"isFree":true,"operatingDays":"평일+토요일+공휴일","weekdayOpen":"00:00","weekdayClose":"23:59","weekendOpen":"00:00","weekendClose":"23:59","holidayOpen":"00:00","holidayClose":"23:59","feeInfo":"무료","phone":"061-380-3355","updatedAt":"2024-10-28","sido":"전라남도","sigungu":"담양군","dong":"담양읍"},{"name":"백동신기길 공영주차장","type":"공영","category":"노외","address":"전라남도 담양군 담양읍 백동신기길 15-2","lat":35.30473305,"lng":126.9792941,"totalSpaces":12,"isFree":true,"operatingDays":"평일+토요일+공휴일","weekdayOpen":"00:00","weekdayClose":"23:59","weekendOpen":"00:00","weekendClose":"23:59","holidayOpen":"00:00","holidayClose":"23:59","feeInfo":"무료","phone":"061-380-3355","updatedAt":"2024-10-28","sido":"전라남도","sigungu":"담양군","dong":"담양읍"},{"name":"담주리 공영주차장","type":"공영","category":"노외","address":"전라남도 담양군 담양읍 담주2길 29-4","lat":35.32238615,"lng":126.9813413,"totalSpaces":12,"isFree":true,"operatingDays":"평일+토요일+공휴일","weekdayOpen":"00:00","weekdayClose":"23:59","weekendOpen":"00:00","weekendClose":"23:59","holidayOpen":"00:00","holidayClose":"23:59","feeInfo":"무료","phone":"061-380-3355","updatedAt":"2024-10-28","sido":"전라남도","sigungu":"담양군","dong":"담양읍"},{"name":"가정교회 인근 공영주차장","type":"공영","category":"노외","address":"전라남도 담양군 담양읍 객사4길 30","lat":35.32248871,"lng":126.9844669,"totalSpaces":12,"isFree":true,"operatingDays":"평일+토요일+공휴일","weekdayOpen":"00:00","weekdayClose":"23:59","weekendOpen":"00:00","weekendClose":"23:59","holidayOpen":"00:00","holidayClose":"23:59","feeInfo":"무료","phone":"061-380-3355","updatedAt":"2024-10-28","sido":"전라남도","sigungu":"담양군","dong":"담양읍"},{"name":"천변5지구공영주차장","type":"공영","category":"노외","address":"전라남도 담양군 담양읍 천변리 182-5","lat":35.31498116,"lng":126.9827766,"totalSpaces":12,"isFree":true,"operatingDays":"평일+토요일+공휴일","weekdayOpen":"00:00","weekdayClose":"23:59","weekendOpen":"00:00","weekendClose":"23:59","holidayOpen":"00:00","holidayClose":"23:59","feeInfo":"무료","phone":"061-380-3355","updatedAt":"2024-10-28","sido":"전라남도","sigungu":"담양군","dong":"담양읍"},{"name":"월산지구 공영주차장","type":"공영","category":"노외","address":"전라남도 담양군 월산면 월산동산길 69","lat":35.34691183,"lng":126.956563,"totalSpaces":10,"isFree":true,"operatingDays":"평일+토요일+공휴일","weekdayOpen":"00:00","weekdayClose":"23:59","weekendOpen":"00:00","weekendClose":"23:59","holidayOpen":"00:00","holidayClose":"23:59","feeInfo":"무료","phone":"061-380-3355","updatedAt":"2024-10-28","sido":"전라남도","sigungu":"담양군","dong":"월산면"},{"name":"지침2지구공영주차장","type":"공영","category":"노외","address":"전라남도 담양군 담양읍 지침리 54-2","lat":35.31906819,"lng":126.9862087,"totalSpaces":10,"isFree":true,"operatingDays":"평일+토요일+공휴일","weekdayOpen":"00:00","weekdayClose":"23:59","weekendOpen":"00:00","weekendClose":"23:59","holidayOpen":"00:00","holidayClose":"23:59","feeInfo":"무료","phone":"061-380-3355","updatedAt":"2024-10-28","sido":"전라남도","sigungu":"담양군","dong":"담양읍"},{"name":"덕성리 공영주차장","type":"공영","category":"노외","address":"전라남도 담양군 금성면 덕성길 28","lat":35.35208751,"lng":127.0532248,"totalSpaces":9,"isFree":true,"operatingDays":"평일+토요일+공휴일","weekdayOpen":"00:00","weekdayClose":"23:59","weekendOpen":"00:00","weekendClose":"23:59","holidayOpen":"00:00","holidayClose":"23:59","feeInfo":"무료","phone":"061-380-3355","updatedAt":"2024-10-28","sido":"전라남도","sigungu":"담양군","dong":"금성면"},{"name":"지침5지구 공영주차장","type":"공영","category":"노외","address":"전라남도 담양군 담양읍 지침리 88-1","lat":35.31777724,"lng":126.9855016,"totalSpaces":8,"isFree":true,"operatingDays":"평일+토요일+공휴일","weekdayOpen":"00:00","weekdayClose":"23:59","weekendOpen":"00:00","weekendClose":"23:59","holidayOpen":"00:00","holidayClose":"23:59","feeInfo":"무료","phone":"061-380-3355","updatedAt":"2024-10-28","sido":"전라남도","sigungu":"담양군","dong":"담양읍"},{"name":"농협지점옆공영주차장","type":"공영","category":"노외","address":"전라남도 담양군 담양읍 객사리 125","lat":35.3212043,"lng":126.9850692,"totalSpaces":7,"isFree":true,"operatingDays":"평일+토요일+공휴일","weekdayOpen":"00:00","weekdayClose":"23:59","weekendOpen":"00:00","weekendClose":"23:59","holidayOpen":"00:00","holidayClose":"23:59","feeInfo":"무료","phone":"061-380-3355","updatedAt":"2024-10-28","sido":"전라남도","sigungu":"담양군","dong":"담양읍"},{"name":"태영빌라공영주차장","type":"공영","category":"노외","address":"전라남도 담양군 담양읍 천변리 59-2","lat":35.31843117,"lng":126.9818544,"totalSpaces":7,"isFree":true,"operatingDays":"평일+토요일+공휴일","weekdayOpen":"00:00","weekdayClose":"23:59","weekendOpen":"00:00","weekendClose":"23:59","holidayOpen":"00:00","holidayClose":"23:59","feeInfo":"무료","phone":"061-380-3355","updatedAt":"2024-10-28","sido":"전라남도","sigungu":"담양군","dong":"담양읍"},{"name":"운교지구 공영주차장","type":"공영","category":"노외","address":"전라남도 담양군 담양읍 운교리 183","lat":35.33663056,"lng":126.9840604,"totalSpaces":7,"isFree":true,"operatingDays":"평일+토요일+공휴일","weekdayOpen":"00:00","weekdayClose":"23:59","weekendOpen":"00:00","weekendClose":"23:59","holidayOpen":"00:00","holidayClose":"23:59","feeInfo":"무료","phone":"061-380-3355","updatedAt":"2024-10-28","sido":"전라남도","sigungu":"담양군","dong":"담양읍"},{"name":"지침3지구공영주차장","type":"공영","category":"노외","address":"전라남도 담양군 담양읍 죽녹원로 24","lat":35.31716426,"lng":126.9859521,"totalSpaces":7,"isFree":true,"operatingDays":"평일+토요일+공휴일","weekdayOpen":"00:00","weekdayClose":"23:59","weekendOpen":"00:00","weekendClose":"23:59","holidayOpen":"00:00","holidayClose":"23:59","feeInfo":"무료","phone":"061-380-3355","updatedAt":"2024-10-28","sido":"전라남도","sigungu":"담양군","dong":"담양읍"},{"name":"객사3지구공영주차장","type":"공영","category":"노외","address":"전라남도 담양군 담양읍 객사리 220-14","lat":35.32237033,"lng":126.9819757,"totalSpaces":7,"isFree":true,"operatingDays":"평일+토요일+공휴일","weekdayOpen":"00:00","weekdayClose":"23:59","weekendOpen":"00:00","weekendClose":"23:59","holidayOpen":"00:00","holidayClose":"23:59","feeInfo":"무료","phone":"061-380-3355","updatedAt":"2024-10-28","sido":"전라남도","sigungu":"담양군","dong":"담양읍"},{"name":"국수거리 인근 공영주차장","type":"공영","category":"노외","address":"전라남도 담양군 담양읍 객사3길 11","lat":35.32370195,"lng":126.9821479,"totalSpaces":5,"isFree":true,"operatingDays":"평일+토요일+공휴일","weekdayOpen":"00:00","weekdayClose":"23:59","weekendOpen":"00:00","weekendClose":"23:59","holidayOpen":"00:00","holidayClose":"23:59","feeInfo":"무료","phone":"061-380-3355","updatedAt":"2024-10-28","sido":"전라남도","sigungu":"담양군","dong":"담양읍"},{"name":"백동리 공영주차장","type":"공영","category":"노외","address":"전라남도 담양군 담양읍 죽향대로 1186","lat":35.3114902,"lng":126.9821781,"totalSpaces":5,"isFree":true,"operatingDays":"평일+토요일+공휴일","weekdayOpen":"00:00","weekdayClose":"23:59","weekendOpen":"00:00","weekendClose":"23:59","holidayOpen":"00:00","holidayClose":"23:59","feeInfo":"무료","phone":"061-380-3355","updatedAt":"2024-10-28","sido":"전라남도","sigungu":"담양군","dong":"담양읍"},{"name":"객사4지구 공영주차장","type":"공영","category":"노외","address":"전라남도 담양군 담양읍 객사리 125","lat":35.3212043,"lng":126.9850692,"totalSpaces":5,"isFree":true,"operatingDays":"평일+토요일+공휴일","weekdayOpen":"00:00","weekdayClose":"23:59","weekendOpen":"00:00","weekendClose":"23:59","holidayOpen":"00:00","holidayClose":"23:59","feeInfo":"무료","phone":"061-380-3355","updatedAt":"2024-10-28","sido":"전라남도","sigungu":"담양군","dong":"담양읍"},{"name":"천변4지구공영주차장","type":"공영","category":"노외","address":"전라남도 담양군 담양읍 천변리 87","lat":35.31823099,"lng":126.9805171,"totalSpaces":4,"isFree":true,"operatingDays":"평일+토요일+공휴일","weekdayOpen":"00:00","weekdayClose":"23:59","weekendOpen":"00:00","weekendClose":"23:59","holidayOpen":"00:00","holidayClose":"23:59","feeInfo":"무료","phone":"061-380-3355","updatedAt":"2024-10-28","sido":"전라남도","sigungu":"담양군","dong":"담양읍"}]}