{"sido":"전라남도","sigungu":"완도군","totalCount":35,"validCount":35,"items":[{"name":"완도군 공용주차장","type":"공영","category":"노외","address":"전라남도 완도군 완도읍 청해진남로 51","lat":34.31097244,"lng":126.7549613,"totalSpaces":194,"isFree":true,"operatingDays":"평일+토요일+공휴일","weekdayOpen":"09:00","weekdayClose":"23:59","weekendOpen":"09:00","weekendClose":"23:59","holidayOpen":"09:00","holidayClose":"23:59","feeInfo":"무료","phone":"061-550-5582","updatedAt":"2024-08-12","sido":"전라남도","sigungu":"완도군","dong":"완도읍"},{"name":"완도군 공용주차장","type":"공영","category":"노외","address":"전라남도 완도군 완도읍 개포로 111","lat":34.3166714377,"lng":126.7416713671,"totalSpaces":175,"isFree":true,"operatingDays":"평일+토요일+공휴일","weekdayOpen":"09:00","weekdayClose":"23:59","weekendOpen":"09:00","weekendClose":"23:59","holidayOpen":"09:00","holidayClose":"23:59","feeInfo":"무료","phone":"061-550-5582","updatedAt":"2024-08-12","sido":"전라남도","sigungu":"완도군","dong":"완도읍"},{"name":"완도군 공용주차장","type":"공영","category":"노상","address":"전라남도 완도군 완도읍 장보고대로 220","lat":34.31607492,"lng":126.7491712,"totalSpaces":145,"isFree":true,"operatingDays":"평일+토요일+공휴일","weekdayOpen":"09:00","weekdayClose":"23:59","weekendOpen":"09:00","weekendClose":"23:59","holidayOpen":"09:00","holidayClose":"23:59","feeInfo":"무료","phone":"061-550-5582","updatedAt":"2024-08-12","sido":"전라남도","sigungu":"완도군","dong":"완도읍"},{"name":"완도군 공용주차장","type":"공영","category":"노외","address":"전라남도 완도군 완도읍 가용리 50-18(공설운동장앞)","lat":34.3168660692,"lng":126.7402582483,"totalSpaces":135,"isFree":true,"operatingDays":"평일+토요일+공휴일","weekdayOpen":"09:00","weekdayClose":"23:59","weekendOpen":"09:00","weekendClose":"23:59","holidayOpen":"09:00","holidayClose":"23:59","feeInfo":"무료","phone":"061-550-5582","updatedAt":"2024-08-12","sido":"전라남도","sigungu":"완도군","dong":"완도읍"},{"name":"완도군 공용주차장","type":"공영","category":"노상","address":"전라남도 완도군 완도읍 청해진남로 51","lat":34.31097244,"lng":126.7549613,"totalSpaces":92,"isFree":true,"operatingDays":"평일+토요일+공휴일","weekdayOpen":"09:00","weekdayClose":"23:59","weekendOpen":"09:00","weekendClose":"23:59","holidayOpen":"09:00","holidayClose":"23:59","feeInfo":"무료","phone":"061-550-5582","updatedAt":"2024-08-12","sido":"전라남도","sigungu":"완도군","dong":"완도읍"},{"name":"완도군 공용주차장","type":"공영","category":"노외","address":"전라남도 완도군 완도읍 청해진서로 59","lat":34.31161698,"lng":126.7394459,"totalSpaces":67,"isFree":true,"operatingDays":"평일+토요일+공휴일","weekdayOpen":"09:00","weekdayClose":"23:59","weekendOpen":"09:00","weekendClose":"23:59","holidayOpen":"09:00","holidayClose":"23:59","feeInfo":"무료","phone":"061-550-5582","updatedAt":"2024-08-12","sido":"전라남도","sigungu":"완도군","dong":"완도읍"},{"name":"완도군 공용주차장","type":"공영","category":"노외","address":"전라남도 완도군 완도읍 개포로 111","lat":34.3166714377,"lng":126.7416713671,"totalSpaces":57,"isFree":true,"operatingDays":"평일+토요일+공휴일","weekdayOpen":"09:00","weekdayClose":"23:59","weekendOpen":"09:00","weekendClose":"23:59","holidayOpen":"09:00","holidayClose":"23:59","feeInfo":"무료","phone":"061-550-5582","updatedAt":"2024-08-12","sido":"전라남도","sigungu":"완도군","dong":"완도읍"},{"name":"완도군 공용주차장","type":"공영","category":"노상","address":"전라남도 완도군 완도읍 청해진남로 38-1","lat":34.31239598,"lng":126.7550095,"totalSpaces":56,"isFree":true,"operatingDays":"평일+토요일+공휴일","weekdayOpen":"09:00","weekdayClose":"23:59","weekendOpen":"09:00","weekendClose":"23:59","holidayOpen":"09:00","holidayClose":"23:59","feeInfo":"무료","phone":"061-550-5582","updatedAt":"2024-08-12","sido":"전라남도","sigungu":"완도군","dong":"완도읍"},{"name":"완도군 공용주차장","type":"공영","category":"노상","address":"전라남도 완도군 완도읍 장보고대로 303","lat":34.31512312,"lng":126.7580805,"totalSpaces":52,"isFree":true,"operatingDays":"평일+토요일+공휴일","weekdayOpen":"09:00","weekdayClose":"23:59","weekendOpen":"09:00","weekendClose":"23:59","holidayOpen":"09:00","holidayClose":"23:59","feeInfo":"무료","phone":"061-550-5582","updatedAt":"2024-08-12","sido":"전라남도","sigungu":"완도군","dong":"완도읍"},{"name":"완도군 공용주차장","type":"공영","category":"노상","address":"전라남도 완도군 완도읍 군내리 319(담배인삼공사~천주교)","lat":34.3133974,"lng":126.761013,"totalSpaces":36,"isFree":true,"operatingDays":"평일+토요일+공휴일","weekdayOpen":"09:00","weekdayClose":"23:59","weekendOpen":"09:00","weekendClose":"23:59","holidayOpen":"09:00","holidayClose":"23:59","feeInfo":"무료","phone":"061-550-5582","updatedAt":"2024-08-12","sido":"전라남도","sigungu":"완도군","dong":"완도읍"},{"name":"완도군 공용주차장","type":"공영","category":"노상","address":"전라남도 완도군 완도읍 군내리 782-104(한국관앞~천주교(뒷편))","lat":34.3139239396,"lng":126.7560225081,"totalSpaces":31,"isFree":true,"operatingDays":"평일+토요일+공휴일","weekdayOpen":"09:00","weekdayClose":"23:59","weekendOpen":"09:00","weekendClose":"23:59","holidayOpen":"09:00","holidayClose":"23:59","feeInfo":"무료","phone":"061-550-5582","updatedAt":"2024-08-12","sido":"전라남도","sigungu":"완도군","dong":"완도읍"},{"name":"완도군 공용주차장","type":"공영","category":"노상","address":"전라남도 완도군 완도읍 장보고대로 324","lat":34.31518464,"lng":126.760166,"totalSpaces":30,"isFree":true,"operatingDays":"평일+토요일+공휴일","weekdayOpen":"09:00","weekdayClose":"23:59","weekendOpen":"09:00","weekendClose":"23:59","holidayOpen":"09:00","holidayClose":"23:59","feeInfo":"무료","phone":"061-550-5582","updatedAt":"2024-08-12","sido":"전라남도","sigungu":"완도군","dong":"완도읍"},{"name":"완도군 공용주차장","type":"공영","category":"노상","address":"전라남도 완도군 완도읍 군내리 308-19(완도항1부두)","lat":34.3151607074,"lng":126.7571690508,"totalSpaces":30,"isFree":true,"operatingDays":"평일+토요일+공휴일","weekdayOpen":"09:00","weekdayClose":"23:59","weekendOpen":"09:00","weekendClose":"23:59","holidayOpen":"09:00","holidayClose":"23:59","feeInfo":"무료","phone":"061-550-5582","updatedAt":"2024-08-12","sido":"전라남도","sigungu":"완도군","dong":"완도읍"},{"name":"완도군 공용주차장","type":"공영","category":"노상","address":"전라남도 완도군 완도읍 개포로56번길 30-14","lat":34.31698558,"lng":126.7492058,"totalSpaces":30,"isFree":true,"operatingDays":"평일+토요일+공휴일","weekdayOpen":"09:00","weekdayClose":"23:59","weekendOpen":"09:00","weekendClose":"23:59","holidayOpen":"09:00","holidayClose":"23:59","feeInfo":"무료","phone":"061-550-5582","updatedAt":"2024-08-12","sido":"전라남도","sigungu":"완도군","dong":"완도읍"},{"name":"완도군 공용주차장","type":"공영","category":"노상","address":"전라남도 완도군 완도읍 장보고대로 290-1","lat":34.31464732,"lng":126.756671,"totalSpaces":27,"isFree":true,"operatingDays":"평일+토요일+공휴일","weekdayOpen":"09:00","weekdayClose":"23:59","weekendOpen":"09:00","weekendClose":"23:59","holidayOpen":"09:00","holidayClose":"23:59","feeInfo":"무료","phone":"061-550-5582","updatedAt":"2024-08-12","sido":"전라남도","sigungu":"완도군","dong":"완도읍"},{"name":"완도군 공용주차장","type":"공영","category":"노외","address":"전라남도 완도군 완도읍 개포로62번길 9","lat":34.31700893,"lng":126.7455346,"totalSpaces":27,"isFree":true,"operatingDays":"평일+토요일+공휴일","weekdayOpen":"09:00","weekdayClose":"23:59","weekendOpen":"09:00","weekendClose":"23:59","holidayOpen":"09:00","holidayClose":"23:59","feeInfo":"무료","phone":"061-550-5582","updatedAt":"2024-08-12","sido":"전라남도","sigungu":"완도군","dong":"완도읍"},{"name":"완도군 공용주차장","type":"공영","category":"노외","address":"전라남도 완도군 완도읍 중앙길 64","lat":34.3111043417,"lng":126.7605290221,"totalSpaces":26,"isFree":true,"operatingDays":"평일+토요일+공휴일","weekdayOpen":"09:00","weekdayClose":"23:59","weekendOpen":"09:00","weekendClose":"23:59","holidayOpen":"09:00","holidayClose":"23:59","feeInfo":"무료","phone":"061-550-5582","updatedAt":"2024-08-12","sido":"전라남도","sigungu":"완도군","dong":"완도읍"},{"name":"완도군 공용주차장","type":"공영","category":"노상","address":"전라남도 완도군 완도읍 장보고대로 262","lat":34.3156365573,"lng":126.7536266881,"totalSpaces":25,"isFree":true,"operatingDays":"평일+토요일+공휴일","weekdayOpen":"09:00","weekdayClose":"23:59","weekendOpen":"09:00","weekendClose":"23:59","holidayOpen":"09:00","holidayClose":"23:59","feeInfo":"무료","phone":"061-550-5582","updatedAt":"2024-08-12","sido":"전라남도","sigungu":"완도군","dong":"완도읍"},{"name":"완도군 공용주차장","type":"공영","category":"노상","address":"전라남도 완도군 완도읍 중앙길 43","lat":34.3133974,"lng":126.761013,"totalSpaces":25,"isFree":true,"operatingDays":"평일+토요일+공휴일","weekdayOpen":"09:00","weekdayClose":"23:59","weekendOpen":"09:00","weekendClose":"23:59","holidayOpen":"09:00","holidayClose":"23:59","feeInfo":"무료","phone":"061-550-5582","updatedAt":"2024-08-12","sido":"전라남도","sigungu":"완도군","dong":"완도읍"},{"name":"완도군 공용주차장","type":"공영","category":"노상","address":"전라남도 완도군 완도읍 장보고대로 280","lat":34.31472323,"lng":126.7551807,"totalSpaces":20,"isFree":true,"operatingDays":"평일+토요일+공휴일","weekdayOpen":"09:00","weekdayClose":"23:59","weekendOpen":"09:00","weekendClose":"23:59","holidayOpen":"09:00","holidayClose":"23:59","feeInfo":"무료","phone":"061-550-5582","updatedAt":"2024-08-12","sido":"전라남도","sigungu":"완도군","dong":"완도읍"},{"name":"완도군 공용주차장","type":"공영","category":"노상","address":"전라남도 완도군 완도읍 중앙길 24","lat":34.31342775,"lng":126.7577405,"totalSpaces":20,"isFree":true,"operatingDays":"평일+토요일+공휴일","weekdayOpen":"09:00","weekdayClose":"23:59","weekendOpen":"09:00","weekendClose":"23:59","holidayOpen":"09:00","holidayClose":"23:59","feeInfo":"무료","phone":"061-550-5582","updatedAt":"2024-08-12","sido":"전라남도","sigungu":"완도군","dong":"완도읍"},{"name":"완도군 공용주차장","type":"공영","category":"노상","address":"전라남도 완도군 완도읍 장보고대로 284","lat":34.31458719,"lng":126.7557681,"totalSpaces":18,"isFree":true,"operatingDays":"평일+토요일+공휴일","weekdayOpen":"09:00","weekdayClose":"23:59","weekendOpen":"09:00","weekendClose":"23:59","holidayOpen":"09:00","holidayClose":"23:59","feeInfo":"무료","phone":"061-550-5582","updatedAt":"2024-08-12","sido":"전라남도","sigungu":"완도군","dong":"완도읍"},{"name":"완도군 공용주차장","type":"공영","category":"노외","address":"전라남도 완도군 완도읍 군내리 362-1(청빛마을앞 마을주차장)","lat":34.3118638664,"lng":126.7588881122,"totalSpaces":16,"isFree":true,"operatingDays":"평일+토요일+공휴일","weekdayOpen":"09:00","weekdayClose":"23:59","weekendOpen":"09:00","weekendClose":"23:59","holidayOpen":"09:00","holidayClose":"23:59","feeInfo":"무료","phone":"061-550-5582","updatedAt":"2024-08-12","sido":"전라남도","sigungu":"완도군","dong":"완도읍"},{"name":"완도군 공용주차장","type":"공영","category":"노외","address":"전라남도 완도군 완도읍 군내리 367-48","lat":34.31167172,"lng":126.7578937001,"totalSpaces":14,"isFree":true,"operatingDays":"평일+토요일+공휴일","weekdayOpen":"09:00","weekdayClose":"23:59","weekendOpen":"09:00","weekendClose":"23:59","holidayOpen":"09:00","holidayClose":"23:59","feeInfo":"무료","phone":"061-550-5582","updatedAt":"2024-08-12","sido":"전라남도","sigungu":"완도군","dong":"완도읍"},{"name":"완도군 공용주차장","type":"공영","category":"노외","address":"전라남도 완도군 완도읍 군내길 33","lat":34.3109543513,"lng":126.7584711537,"totalSpaces":14,"isFree":true,"operatingDays":"평일+토요일+공휴일","weekdayOpen":"09:00","weekdayClose":"23:59","weekendOpen":"09:00","weekendClose":"23:59","holidayOpen":"09:00","holidayClose":"23:59","feeInfo":"무료","phone":"061-550-5582","updatedAt":"2024-08-12","sido":"전라남도","sigungu":"완도군","dong":"완도읍"},{"name":"완도군 공용주차장","type":"공영","category":"노상","address":"전라남도 완도군 완도읍 장보고대로 256-1","lat":34.31587537,"lng":126.7531374,"totalSpaces":12,"isFree":true,"operatingDays":"평일+토요일+공휴일","weekdayOpen":"09:00","weekdayClose":"23:59","weekendOpen":"09:00","weekendClose":"23:59","holidayOpen":"09:00","holidayClose":"23:59","feeInfo":"무료","phone":"061-550-5582","updatedAt":"2024-08-12","sido":"전라남도","sigungu":"완도군","dong":"완도읍"},{"name":"완도군 공용주차장","type":"공영","category":"노상","address":"전라남도 완도군 완도읍 장보고대로286번길 11","lat":34.3140189899,"lng":126.7557682235,"totalSpaces":10,"isFree":true,"operatingDays":"평일+토요일+공휴일","weekdayOpen":"09:00","weekdayClose":"23:59","weekendOpen":"09:00","weekendClose":"23:59","holidayOpen":"09:00","holidayClose":"23:59","feeInfo":"무료","phone":"061-550-5582","updatedAt":"2024-08-12","sido":"전라남도","sigungu":"완도군","dong":"완도읍"},{"name":"완도군 공용주차장","type":"공영","category":"노외","address":"전라남도 완도군 완도읍 군내길 38","lat":34.31059221,"lng":126.7583704,"totalSpaces":10,"isFree":true,"operatingDays":"평일+토요일+공휴일","weekdayOpen":"09:00","weekdayClose":"23:59","weekendOpen":"09:00","weekendClose":"23:59","holidayOpen":"09:00","holidayClose":"23:59","feeInfo":"무료","phone":"061-550-5582","updatedAt":"2024-08-12","sido":"전라남도","sigungu":"완도군","dong":"완도읍"},{"name":"완도군 공용주차장","type":"공영","category":"노상","address":"전라남도 완도군 완도읍 청해진서로 1-1","lat":34.31534742,"lng":126.7425232,"totalSpaces":9,"isFree":true,"operatingDays":"평일+토요일+공휴일","weekdayOpen":"09:00","weekdayClose":"23:59","weekendOpen":"09:00","weekendClose":"23:59","holidayOpen":"09:00","holidayClose":"23:59","feeInfo":"무료","phone":"061-550-5582","updatedAt":"2024-08-12","sido":"전라남도","sigungu":"완도군","dong":"완도읍"},{"name":"완도군 공용주차장","type":"공영","category":"노상","address":"전라남도 완도군 완도읍 장보고대로 255","lat":34.3162696936,"lng":126.7532364258,"totalSpaces":8,"isFree":true,"operatingDays":"평일+토요일+공휴일","weekdayOpen":"09:00","weekdayClose":"23:59","weekendOpen":"09:00","weekendClose":"23:59","holidayOpen":"09:00","holidayClose":"23:59","feeInfo":"무료","phone":"061-550-5582","updatedAt":"2024-08-12","sido":"전라남도","sigungu":"완도군","dong":"완도읍"},{"name":"완도군 공용주차장","type":"공영","category":"노외","address":"전라남도 완도군 완도읍 장보고대로248번길 34","lat":34.3139819007,"lng":126.7545314198,"totalSpaces":8,"isFree":true,"operatingDays":"평일+토요일+공휴일","weekdayOpen":"09:00","weekdayClose":"23:59","weekendOpen":"09:00","weekendClose":"23:59","holidayOpen":"09:00","holidayClose":"23:59","feeInfo":"무료","phone":"061-550-5582","updatedAt":"2024-08-12","sido":"전라남도","sigungu":"완도군","dong":"완도읍"},{"name":"완도군 공용주차장","type":"공영","category":"노외","address":"전라남도 완도군 완도읍 장보고대로248번길 16","lat":34.3150586322,"lng":126.75345487,"totalSpaces":8,"isFree":true,"operatingDays":"평일+토요일+공휴일","weekdayOpen":"09:00","weekdayClose":"23:59","weekendOpen":"09:00","weekendClose":"23:59","holidayOpen":"09:00","holidayClose":"23:59","feeInfo":"무료","phone":"061-550-5582","updatedAt":"2024-08-12","sido":"전라남도","sigungu":"완도군","dong":"완도읍"},{"name":"완도군 공용주차장","type":"공영","category":"노상","address":"전라남도 완도군 완도읍 가용리 44(제2축구장)","lat":34.31704454,"lng":126.7380938,"totalSpaces":7,"isFree":true,"operatingDays":"평일+토요일+공휴일","weekdayOpen":"09:00","weekdayClose":"23:59","weekendOpen":"09:00","weekendClose":"23:59","holidayOpen":"09:00","holidayClose":"23:59","feeInfo":"무료","phone":"061-550-5582","updatedAt":"2024-08-12","sido":"전라남도","sigungu":"완도군","dong":"완도읍"},{"name":"완도군 공용주차장","type":"공영","category":"노상","address":"전라남도 완도군 완도읍 해변공원로 123","lat":34.3244164965,"lng":126.7479383527,"totalSpaces":5,"isFree":true,"operatingDays":"평일+토요일+공휴일","weekdayOpen":"09:00","weekdayClose":"23:59","weekendOpen":"09:00","weekendClose":"23:59","holidayOpen":"09:00","holidayClose":"23:59","feeInfo":"무료","phone":"061-550-5582","updatedAt":"2024-08-12","sido":"전라남도","sigungu":"완도군","dong":"완도읍"},{"name":"완도군 공용주차장","type":"공영","category":"노외","address":"전라남도 완도군 완도읍 청해진남로 23번길 58","lat":34.3101850512,"lng":126.7600435169,"totalSpaces":5,"isFree":true,"operatingDays":"평일+토요일+공휴일","weekdayOpen":"09:00","weekdayClose":"23:59","weekendOpen":"09:00","weekendClose":"23:59","holidayOpen":"09:00","holidayClose":"23:59","feeInfo":"무료","phone":"061-550-5582","updatedAt":"2024-08-12","sido":"전라남도","sigungu":"완도군","dong":"완도읍"}]}