{"sido":"전라남도","sigungu":"장흥군","totalCount":13,"validCount":13,"items":[{"name":"덕인식당 앞","type":"공영","category":"노외","address":"전라남도 장흥군 장흥읍 의향길 7-3","lat":34.6824515,"lng":126.905473,"totalSpaces":70,"isFree":true,"operatingDays":"평일+토요일+공휴일","weekdayOpen":"00:00","weekdayClose":"23:59","weekendOpen":"00:00","weekendClose":"23:59","holidayOpen":"00:00","holidayClose":"23:59","feeInfo":"무료","phone":"061-860-6203","updatedAt":"2025-11-27","sido":"전라남도","sigungu":"장흥군","dong":"장흥읍"},{"name":"수인장학회","type":"공영","category":"노외","address":"전라남도 장흥군 장흥읍 동교3길 45","lat":34.68145531,"lng":126.9098164,"totalSpaces":70,"isFree":true,"operatingDays":"평일+토요일+공휴일","weekdayOpen":"00:00","weekdayClose":"23:59","weekendOpen":"00:00","weekendClose":"23:59","holidayOpen":"00:00","holidayClose":"23:59","feeInfo":"무료","phone":"061-860-6203","updatedAt":"2025-11-27","sido":"전라남도","sigungu":"장흥군","dong":"장흥읍"},{"name":"현남팰리스","type":"공영","category":"노외","address":"전라남도 장흥군 장흥읍 동교1길 2-1","lat":34.67616186,"lng":126.9061519,"totalSpaces":47,"isFree":true,"operatingDays":"평일+토요일+공휴일","weekdayOpen":"00:00","weekdayClose":"23:59","weekendOpen":"00:00","weekendClose":"23:59","holidayOpen":"00:00","holidayClose":"23:59","feeInfo":"무료","phone":"061-860-6203","updatedAt":"2025-11-27","sido":"전라남도","sigungu":"장흥군","dong":"장흥읍"},{"name":"군청차고 옆(임시)","type":"공영","category":"노외","address":"전라남도 장흥군 장흥읍 동교로 10-13","lat":34.6815596,"lng":126.9058835,"totalSpaces":40,"isFree":true,"operatingDays":"평일+토요일+공휴일","weekdayOpen":"00:00","weekdayClose":"23:59","weekendOpen":"00:00","weekendClose":"23:59","holidayOpen":"00:00","holidayClose":"23:59","feeInfo":"무료","phone":"061-860-6203","updatedAt":"2025-11-27","sido":"전라남도","sigungu":"장흥군","dong":"장흥읍"},{"name":"우체국 옆","type":"공영","category":"노외","address":"전라남도 장흥군 장흥읍 동교로 10-10","lat":34.68108394,"lng":126.9058465,"totalSpaces":37,"isFree":true,"operatingDays":"평일+토요일+공휴일","weekdayOpen":"00:00","weekdayClose":"23:59","weekendOpen":"00:00","weekendClose":"23:59","holidayOpen":"00:00","holidayClose":"23:59","feeInfo":"무료","phone":"061-860-6203","updatedAt":"2025-11-27","sido":"전라남도","sigungu":"장흥군","dong":"장흥읍"},{"name":"자활센터 뒤편","type":"공영","category":"노외","address":"전라남도 장흥군 장흥읍 장흥대로 3482","lat":34.674278,"lng":126.9056179,"totalSpaces":27,"isFree":true,"operatingDays":"평일+토요일+공휴일","weekdayOpen":"00:00","weekdayClose":"23:59","weekendOpen":"00:00","weekendClose":"23:59","holidayOpen":"00:00","holidayClose":"23:59","feeInfo":"무료","phone":"061-860-6203","updatedAt":"2025-11-27","sido":"전라남도","sigungu":"장흥군","dong":"장흥읍"},{"name":"새마을금고 옆","type":"공영","category":"노외","address":"전라남도 장흥군 장흥읍 읍성로 162-11","lat":34.67882767,"lng":126.9023752,"totalSpaces":17,"isFree":true,"operatingDays":"평일+토요일+공휴일","weekdayOpen":"00:00","weekdayClose":"23:59","weekendOpen":"00:00","weekendClose":"23:59","holidayOpen":"00:00","holidayClose":"23:59","feeInfo":"무료","phone":"061-860-6203","updatedAt":"2025-11-27","sido":"전라남도","sigungu":"장흥군","dong":"장흥읍"},{"name":"스위스 모텔 옆","type":"공영","category":"노외","address":"전라남도 장흥군 장흥읍 건산로 27","lat":34.67907442,"lng":126.9086888,"totalSpaces":16,"isFree":true,"operatingDays":"평일+토요일+공휴일","weekdayOpen":"00:00","weekdayClose":"23:59","weekendOpen":"00:00","weekendClose":"23:59","holidayOpen":"00:00","holidayClose":"23:59","feeInfo":"무료","phone":"061-860-6203","updatedAt":"2025-11-27","sido":"전라남도","sigungu":"장흥군","dong":"장흥읍"},{"name":"농협창고","type":"공영","category":"노외","address":"전라남도 장흥군 장흥읍 동교로 10-10","lat":34.68119147,"lng":126.905658,"totalSpaces":16,"isFree":true,"operatingDays":"평일+토요일+공휴일","weekdayOpen":"00:00","weekdayClose":"23:59","weekendOpen":"00:00","weekendClose":"23:59","holidayOpen":"00:00","holidayClose":"23:59","feeInfo":"무료","phone":"061-860-6203","updatedAt":"2025-11-27","sido":"전라남도","sigungu":"장흥군","dong":"장흥읍"},{"name":"남동리 마을회관 옆","type":"공영","category":"노외","address":"전라남도 장흥군 장흥읍 읍성로 132","lat":34.67866823,"lng":126.8991879,"totalSpaces":16,"isFree":true,"operatingDays":"평일+토요일+공휴일","weekdayOpen":"00:00","weekdayClose":"23:59","weekendOpen":"00:00","weekendClose":"23:59","holidayOpen":"00:00","holidayClose":"23:59","feeInfo":"무료","phone":"061-860-6203","updatedAt":"2025-11-27","sido":"전라남도","sigungu":"장흥군","dong":"장흥읍"},{"name":"태화장 앞","type":"공영","category":"노외","address":"전라남도 장흥군 장흥읍 중앙로 37-5","lat":34.67927261,"lng":126.9074465,"totalSpaces":9,"isFree":true,"operatingDays":"평일+토요일+공휴일","weekdayOpen":"00:00","weekdayClose":"23:59","weekendOpen":"00:00","weekendClose":"23:59","holidayOpen":"00:00","holidayClose":"23:59","feeInfo":"무료","phone":"061-860-6203","updatedAt":"2025-11-27","sido":"전라남도","sigungu":"장흥군","dong":"장흥읍"},{"name":"장흥읍사무소 뒤편","type":"공영","category":"노외","address":"전라남도 장흥군 장흥읍 기양연산길 7","lat":34.67996544,"lng":126.902577,"totalSpaces":9,"isFree":true,"operatingDays":"평일+토요일+공휴일","weekdayOpen":"00:00","weekdayClose":"23:59","weekendOpen":"00:00","weekendClose":"23:59","holidayOpen":"00:00","holidayClose":"23:59","feeInfo":"무료","phone":"061-860-6203","updatedAt":"2025-11-27","sido":"전라남도","sigungu":"장흥군","dong":"장흥읍"},{"name":"탐마루 건너편","type":"공영","category":"노외","address":"전라남도 장흥군 장흥읍 동교로 6","lat":34.68080351,"lng":126.9053403,"totalSpaces":7,"isFree":true,"operatingDays":"평일+토요일+공휴일","weekdayOpen":"00:00","weekdayClose":"23:59","weekendOpen":"00:00","weekendClose":"23:59","holidayOpen":"00:00","holidayClose":"23:59","feeInfo":"무료","phone":"061-860-6203","updatedAt":"2025-11-27","sido":"전라남도","sigungu":"장흥군","dong":"장흥읍"}]}