{"sido":"전라남도","sigungu":"함평군","totalCount":14,"validCount":14,"items":[{"name":"엑스포공원나비주차장","type":"공영","category":"노외","address":"전라남도 함평군 함평읍 함장로 1202-68","lat":35.05529964,"lng":126.526509,"totalSpaces":2800,"isFree":true,"operatingDays":"평일+토요일+공휴일","weekdayOpen":"00:00","weekdayClose":"23:59","weekendOpen":"00:00","weekendClose":"23:59","holidayOpen":"00:00","holidayClose":"23:59","feeInfo":"무료","phone":"061-320-1754","updatedAt":"2025-11-19","sido":"전라남도","sigungu":"함평군","dong":"함평읍"},{"name":"엑스포공원황소주차장","type":"공영","category":"노외","address":"전라남도 함평군 함평읍 함장로 1151","lat":35.059385,"lng":126.521079,"totalSpaces":485,"isFree":true,"operatingDays":"평일+토요일+공휴일","weekdayOpen":"00:00","weekdayClose":"23:59","weekendOpen":"00:00","weekendClose":"23:59","holidayOpen":"00:00","holidayClose":"23:59","feeInfo":"무료","phone":"061-320-1754","updatedAt":"2025-11-19","sido":"전라남도","sigungu":"함평군","dong":"함평읍"},{"name":"엑스포공원주제관","type":"공영","category":"부설","address":"전라남도 함평군 함평읍 곤재로 27","lat":35.05813923,"lng":126.5226056,"totalSpaces":200,"isFree":true,"operatingDays":"평일+토요일+공휴일","weekdayOpen":"00:00","weekdayClose":"23:59","weekendOpen":"00:00","weekendClose":"23:59","holidayOpen":"00:00","holidayClose":"23:59","feeInfo":"무료","phone":"061-320-1754","updatedAt":"2025-11-19","sido":"전라남도","sigungu":"함평군","dong":"함평읍"},{"name":"함평천지한우프라자","type":"민영","category":"부설","address":"전라남도 함평군 함평읍 서부길 42","lat":35.060671,"lng":126.519971,"totalSpaces":90,"isFree":true,"operatingDays":"평일+토요일+공휴일","weekdayOpen":"00:00","weekdayClose":"23:59","weekendOpen":"00:00","weekendClose":"23:59","holidayOpen":"00:00","holidayClose":"23:59","feeInfo":"무료","phone":"061-320-1754","updatedAt":"2025-11-19","sido":"전라남도","sigungu":"함평군","dong":"함평읍"},{"name":"양서파충류생태관","type":"공영","category":"노외","address":"전라남도 함평군 신광면 학동로 1398-9","lat":35.138341,"lng":126.4937003,"totalSpaces":83,"isFree":true,"operatingDays":"평일+토요일+공휴일","weekdayOpen":"00:00","weekdayClose":"23:59","weekendOpen":"00:00","weekendClose":"23:59","holidayOpen":"00:00","holidayClose":"23:59","feeInfo":"무료","phone":"061-320-1754","updatedAt":"2025-11-19","sido":"전라남도","sigungu":"함평군","dong":"신광면"},{"name":"월야면 소재지 공영주차장","type":"공영","category":"노외","address":"전라남도 함평군 월야면 월야리 816-23","lat":35.1791181,"lng":126.6276264,"totalSpaces":57,"isFree":true,"operatingDays":"평일+토요일+공휴일","weekdayOpen":"00:00","weekdayClose":"23:59","weekendOpen":"00:00","weekendClose":"23:59","holidayOpen":"00:00","holidayClose":"23:59","feeInfo":"무료","phone":"061-320-1754","updatedAt":"2025-11-19","sido":"전라남도","sigungu":"함평군","dong":"월야면"},{"name":"화양근린공원주차장","type":"공영","category":"노외","address":"전라남도 함평군 함평읍 함장로 1048","lat":35.054102,"lng":126.514599,"totalSpaces":50,"isFree":true,"operatingDays":"평일+토요일+공휴일","weekdayOpen":"00:00","weekdayClose":"23:59","weekendOpen":"00:00","weekendClose":"23:59","holidayOpen":"00:00","holidayClose":"23:59","feeInfo":"무료","phone":"061-320-1754","updatedAt":"2025-11-19","sido":"전라남도","sigungu":"함평군","dong":"함평읍"},{"name":"농협하나로마트","type":"민영","category":"부설","address":"전라남도 함평군 함평읍 내바람길 42","lat":35.06225737,"lng":126.5212079,"totalSpaces":50,"isFree":true,"operatingDays":"평일+토요일+공휴일","weekdayOpen":"00:00","weekdayClose":"23:59","weekendOpen":"00:00","weekendClose":"23:59","holidayOpen":"00:00","holidayClose":"23:59","feeInfo":"무료","phone":"061-320-1754","updatedAt":"2025-11-19","sido":"전라남도","sigungu":"함평군","dong":"함평읍"},{"name":"함평공영주차장","type":"공영","category":"노외","address":"전라남도 함평군 함평읍 기각리 994-12","lat":35.06252232,"lng":126.5233422,"totalSpaces":34,"isFree":true,"operatingDays":"평일+토요일+공휴일","weekdayOpen":"00:00","weekdayClose":"23:59","weekendOpen":"00:00","weekendClose":"23:59","holidayOpen":"00:00","holidayClose":"23:59","feeInfo":"무료","phone":"061-320-1754","updatedAt":"2025-11-19","sido":"전라남도","sigungu":"함평군","dong":"함평읍"},{"name":"함평읍시가지공영주차장","type":"공영","category":"노외","address":"전라남도 함평군 함평읍 내교리 43-2","lat":35.05973877,"lng":126.5182456,"totalSpaces":30,"isFree":true,"operatingDays":"평일+토요일+공휴일","weekdayOpen":"00:00","weekdayClose":"23:59","weekendOpen":"00:00","weekendClose":"23:59","holidayOpen":"00:00","holidayClose":"23:59","feeInfo":"무료","phone":"061-320-1754","updatedAt":"2025-11-19","sido":"전라남도","sigungu":"함평군","dong":"함평읍"},{"name":"나비수산앞 무료주차장","type":"공영","category":"노외","address":"전라남도 함평군 함평읍 영수길 184","lat":35.064125,"lng":126.520727,"totalSpaces":30,"isFree":true,"operatingDays":"평일+토요일+공휴일","weekdayOpen":"00:00","weekdayClose":"23:59","weekendOpen":"00:00","weekendClose":"23:59","holidayOpen":"00:00","holidayClose":"23:59","feeInfo":"무료","phone":"061-320-1754","updatedAt":"2025-11-19","sido":"전라남도","sigungu":"함평군","dong":"함평읍"},{"name":"천변주차장","type":"공영","category":"노외","address":"전라남도 함평군 함평읍 시장길 72","lat":35.06351118,"lng":126.524006,"totalSpaces":30,"isFree":true,"operatingDays":"평일+토요일+공휴일","weekdayOpen":"00:00","weekdayClose":"23:59","weekendOpen":"00:00","weekendClose":"23:59","holidayOpen":"00:00","holidayClose":"23:59","feeInfo":"무료","phone":"061-320-1754","updatedAt":"2025-11-19","sido":"전라남도","sigungu":"함평군","dong":"함평읍"},{"name":"함평읍무료주차장","type":"공영","category":"노외","address":"전라남도 함평군 함평읍 내교리 218-4","lat":35.064134,"lng":126.5207247,"totalSpaces":20,"isFree":true,"operatingDays":"평일+토요일+공휴일","weekdayOpen":"00:00","weekdayClose":"23:59","weekendOpen":"00:00","weekendClose":"23:59","holidayOpen":"00:00","holidayClose":"23:59","feeInfo":"무료","phone":"061-320-1754","updatedAt":"2025-11-19","sido":"전라남도","sigungu":"함평군","dong":"함평읍"},{"name":"함평읍공영주차장(유료주차장)","type":"공영","category":"노외","address":"전라남도 함평군 함평읍 중앙길 114-3","lat":35.06486706,"lng":126.5215424,"totalSpaces":67,"isFree":false,"operatingDays":"평일+토요일+공휴일","weekdayOpen":"00:00","weekdayClose":"23:59","weekendOpen":"00:00","weekendClose":"23:59","holidayOpen":"00:00","holidayClose":"23:59","feeInfo":"기본 120분 0원 / 추가 30분당 500원","phone":"061-320-1754","updatedAt":"2025-11-19","sido":"전라남도","sigungu":"함평군","dong":"함평읍"}]}