{"sido":"강원특별자치도","sigungu":"동해시","totalCount":24,"validCount":24,"items":[{"name":"근로자종합복지회관","type":"공영","category":"노외","address":"강원특별자치도 동해시 동굴로 2","lat":37.51495486,"lng":129.1050133,"totalSpaces":100,"isFree":true,"operatingDays":"평일+토요일","weekdayOpen":"09:00","weekdayClose":"18:00","weekendOpen":"00:00","weekendClose":"18:00","holidayOpen":"00:00","holidayClose":"00:00","feeInfo":"무료","phone":"033-539-3722","updatedAt":"2025-11-20","sido":"강원특별자치도","sigungu":"동해시","dong":""},{"name":"무릉계곡 제2주차장","type":"공영","category":"노외","address":"강원특별자치도 동해시 삼화로 538","lat":37.46349413,"lng":129.0193939,"totalSpaces":242,"isFree":false,"operatingDays":"평일+토요일","weekdayOpen":"09:00","weekdayClose":"18:00","weekendOpen":"09:00","weekendClose":"18:00","holidayOpen":"00:00","holidayClose":"00:00","feeInfo":"기본 480분 2,000원","phone":"033-539-3700","updatedAt":"2025-11-20","sido":"강원특별자치도","sigungu":"동해시","dong":"삼화동"},{"name":"무릉계곡 제1주차장","type":"공영","category":"노외","address":"강원특별자치도 동해시 삼화동 858-3","lat":37.4636506,"lng":129.0228679,"totalSpaces":235,"isFree":false,"operatingDays":"평일+토요일","weekdayOpen":"09:00","weekdayClose":"18:00","weekendOpen":"09:00","weekendClose":"18:00","holidayOpen":"00:00","holidayClose":"00:00","feeInfo":"기본 480분 2,000원","phone":"033-539-3700","updatedAt":"2025-11-20","sido":"강원특별자치도","sigungu":"동해시","dong":"삼화동"},{"name":"공영터미널","type":"공영","category":"노외","address":"강원특별자치도 동해시 동해대로 5443","lat":37.5276909,"lng":129.1040551,"totalSpaces":226,"isFree":false,"operatingDays":"평일+토요일","weekdayOpen":"09:00","weekdayClose":"19:00","weekendOpen":"09:00","weekendClose":"19:00","holidayOpen":"00:00","holidayClose":"00:00","feeInfo":"기본 30분 600원 / 추가 10분당 300원","phone":"033-539-3820","updatedAt":"2025-11-20","sido":"강원특별자치도","sigungu":"동해시","dong":"평릉동"},{"name":"무릉계곡 제3주차장","type":"공영","category":"노외","address":"강원특별자치도 동해시 삼화로 538","lat":37.46349413,"lng":129.0193939,"totalSpaces":150,"isFree":false,"operatingDays":"평일+토요일","weekdayOpen":"09:00","weekdayClose":"18:00","weekendOpen":"09:00","weekendClose":"18:00","holidayOpen":"00:00","holidayClose":"00:00","feeInfo":"기본 480분 2,000원","phone":"033-539-3700","updatedAt":"2025-11-20","sido":"강원특별자치도","sigungu":"동해시","dong":"삼화동"},{"name":"천곡동굴주차장","type":"공영","category":"노외","address":"강원특별자치도 동해시 동굴로 50","lat":37.51751839,"lng":129.1104767,"totalSpaces":83,"isFree":false,"operatingDays":"평일+토요일","weekdayOpen":"09:00","weekdayClose":"18:00","weekendOpen":"09:00","weekendClose":"18:00","holidayOpen":"00:00","holidayClose":"00:00","feeInfo":"기본 480분 2,000원 / 추가 0분당 0원","phone":"033-539-3630","updatedAt":"2025-11-20","sido":"강원특별자치도","sigungu":"동해시","dong":"천곡동"},{"name":"문화공연장","type":"공영","category":"노상","address":"강원특별자치도 동해시 천곡동 1091","lat":37.52117168,"lng":129.1120728,"totalSpaces":65,"isFree":false,"operatingDays":"평일+토요일","weekdayOpen":"09:00","weekdayClose":"17:00","weekendOpen":"09:00","weekendClose":"17:00","holidayOpen":"00:00","holidayClose":"00:00","feeInfo":"기본 30분 600원 / 추가 10분당 300원","phone":"033-532-5113","updatedAt":"2025-11-20","sido":"강원특별자치도","sigungu":"동해시","dong":"천곡동"},{"name":"천곡동행정복지센터","type":"공영","category":"노상","address":"강원특별자치도 동해시 천곡동 1090-18","lat":37.52312376,"lng":129.1152422,"totalSpaces":58,"isFree":false,"operatingDays":"평일+토요일","weekdayOpen":"09:00","weekdayClose":"17:00","weekendOpen":"09:00","weekendClose":"17:00","holidayOpen":"00:00","holidayClose":"00:00","feeInfo":"기본 30분 600원 / 추가 10분당 300원","phone":"033-532-5113","updatedAt":"2025-11-20","sido":"강원특별자치도","sigungu":"동해시","dong":"천곡동"},{"name":"시청편의점","type":"공영","category":"노상","address":"강원특별자치도 동해시 천곡동 1090-8","lat":37.52490663,"lng":129.1132231,"totalSpaces":46,"isFree":false,"operatingDays":"평일+토요일","weekdayOpen":"09:00","weekdayClose":"17:00","weekendOpen":"09:00","weekendClose":"17:00","holidayOpen":"00:00","holidayClose":"00:00","feeInfo":"기본 30분 600원 / 추가 10분당 300원","phone":"033-532-5113","updatedAt":"2025-11-20","sido":"강원특별자치도","sigungu":"동해시","dong":"천곡동"},{"name":"보건소","type":"공영","category":"노상","address":"강원특별자치도 동해시 천곡동 1095","lat":37.52209465,"lng":129.1175966,"totalSpaces":44,"isFree":false,"operatingDays":"평일+토요일","weekdayOpen":"09:00","weekdayClose":"17:00","weekendOpen":"09:00","weekendClose":"17:00","holidayOpen":"00:00","holidayClose":"00:00","feeInfo":"기본 30분 600원 / 추가 10분당 300원","phone":"033-532-5113","updatedAt":"2025-11-20","sido":"강원특별자치도","sigungu":"동해시","dong":"천곡동"},{"name":"한마음병원","type":"공영","category":"노상","address":"강원특별자치도 동해시 천곡동 1090-19","lat":37.52045612,"lng":129.1150723,"totalSpaces":40,"isFree":false,"operatingDays":"평일+토요일","weekdayOpen":"09:00","weekdayClose":"17:00","weekendOpen":"09:00","weekendClose":"17:00","holidayOpen":"00:00","holidayClose":"00:00","feeInfo":"기본 30분 600원 / 추가 10분당 300원","phone":"033-532-5113","updatedAt":"2025-11-20","sido":"강원특별자치도","sigungu":"동해시","dong":"천곡동"},{"name":"센트로빌1","type":"공영","category":"노상","address":"강원특별자치도 동해시 천곡동 1091","lat":37.52110221,"lng":129.1120001,"totalSpaces":35,"isFree":false,"operatingDays":"평일+토요일","weekdayOpen":"09:00","weekdayClose":"17:00","weekendOpen":"09:00","weekendClose":"17:00","holidayOpen":"00:00","holidayClose":"00:00","feeInfo":"기본 30분 600원 / 추가 10분당 300원","phone":"033-532-5113","updatedAt":"2025-11-20","sido":"강원특별자치도","sigungu":"동해시","dong":"천곡동"},{"name":"센트로빌2","type":"공영","category":"노상","address":"강원특별자치도 동해시 천곡동 1091","lat":37.52110221,"lng":129.1120001,"totalSpaces":34,"isFree":false,"operatingDays":"평일+토요일","weekdayOpen":"09:00","weekdayClose":"17:00","weekendOpen":"09:00","weekendClose":"17:00","holidayOpen":"00:00","holidayClose":"00:00","feeInfo":"기본 30분 600원 / 추가 10분당 300원","phone":"033-532-5113","updatedAt":"2025-11-20","sido":"강원특별자치도","sigungu":"동해시","dong":"천곡동"},{"name":"뱅뱅","type":"공영","category":"노상","address":"강원특별자치도 동해시 중앙로 248","lat":37.52279509,"lng":129.1145338,"totalSpaces":33,"isFree":false,"operatingDays":"평일+토요일","weekdayOpen":"09:00","weekdayClose":"17:00","weekendOpen":"09:00","weekendClose":"17:00","holidayOpen":"00:00","holidayClose":"00:00","feeInfo":"기본 30분 600원 / 추가 10분당 300원","phone":"033-532-5113","updatedAt":"2025-11-20","sido":"강원특별자치도","sigungu":"동해시","dong":"천곡동"},{"name":"튼튼소아과","type":"공영","category":"노상","address":"강원특별자치도 동해시 천곡동 1090-18","lat":37.52312376,"lng":129.1152191,"totalSpaces":32,"isFree":false,"operatingDays":"평일+토요일","weekdayOpen":"09:00","weekdayClose":"17:00","weekendOpen":"09:00","weekendClose":"17:00","holidayOpen":"00:00","holidayClose":"00:00","feeInfo":"기본 30분 600원 / 추가 10분당 300원","phone":"033-532-5113","updatedAt":"2025-11-20","sido":"강원특별자치도","sigungu":"동해시","dong":"천곡동"},{"name":"스타벅스","type":"공영","category":"노상","address":"강원특별자치도 동해시 천곡동 1090-19","lat":37.52045612,"lng":129.1150723,"totalSpaces":27,"isFree":false,"operatingDays":"평일+토요일","weekdayOpen":"09:00","weekdayClose":"17:00","weekendOpen":"09:00","weekendClose":"17:00","holidayOpen":"00:00","holidayClose":"00:00","feeInfo":"기본 30분 600원 / 추가 10분당 300원","phone":"033-532-5113","updatedAt":"2025-11-20","sido":"강원특별자치도","sigungu":"동해시","dong":"천곡동"},{"name":"이주민상가","type":"공영","category":"노상","address":"강원특별자치도 동해시 천곡동 1090-19","lat":37.52045612,"lng":129.1150555,"totalSpaces":23,"isFree":false,"operatingDays":"평일+토요일","weekdayOpen":"09:00","weekdayClose":"17:00","weekendOpen":"09:00","weekendClose":"17:00","holidayOpen":"00:00","holidayClose":"00:00","feeInfo":"기본 30분 600원 / 추가 10분당 300원","phone":"033-532-5113","updatedAt":"2025-11-20","sido":"강원특별자치도","sigungu":"동해시","dong":"천곡동"},{"name":"영동약국","type":"공영","category":"노상","address":"강원특별자치도 동해시 천곡동 1091","lat":37.52110221,"lng":129.1120001,"totalSpaces":21,"isFree":false,"operatingDays":"평일+토요일","weekdayOpen":"09:00","weekdayClose":"17:00","weekendOpen":"09:00","weekendClose":"17:00","holidayOpen":"00:00","holidayClose":"00:00","feeInfo":"기본 30분 600원 / 추가 10분당 300원","phone":"033-532-5113","updatedAt":"2025-11-20","sido":"강원특별자치도","sigungu":"동해시","dong":"천곡동"},{"name":"대학로약국","type":"공영","category":"노상","address":"강원특별자치도 동해시 천곡동 1091","lat":37.52110221,"lng":129.1120001,"totalSpaces":18,"isFree":false,"operatingDays":"평일+토요일","weekdayOpen":"09:00","weekdayClose":"17:00","weekendOpen":"09:00","weekendClose":"17:00","holidayOpen":"00:00","holidayClose":"00:00","feeInfo":"기본 30분 600원 / 추가 10분당 300원","phone":"033-532-5113","updatedAt":"2025-11-20","sido":"강원특별자치도","sigungu":"동해시","dong":"천곡동"},{"name":"축협","type":"공영","category":"노상","address":"강원특별자치도 동해시 천곡동 1090-41","lat":37.52208112,"lng":129.1109855,"totalSpaces":17,"isFree":false,"operatingDays":"평일+토요일","weekdayOpen":"09:00","weekdayClose":"17:00","weekendOpen":"09:00","weekendClose":"17:00","holidayOpen":"00:00","holidayClose":"00:00","feeInfo":"기본 30분 600원 / 추가 10분당 300원","phone":"033-532-5113","updatedAt":"2025-11-20","sido":"강원특별자치도","sigungu":"동해시","dong":"천곡동"},{"name":"금강","type":"공영","category":"노상","address":"강원특별자치도 동해시 천곡동 1090-3","lat":37.52519692,"lng":129.1072916,"totalSpaces":16,"isFree":false,"operatingDays":"평일+토요일","weekdayOpen":"09:00","weekdayClose":"17:00","weekendOpen":"09:00","weekendClose":"17:00","holidayOpen":"00:00","holidayClose":"00:00","feeInfo":"기본 30분 600원 / 추가 10분당 300원","phone":"033-532-5113","updatedAt":"2025-11-20","sido":"강원특별자치도","sigungu":"동해시","dong":"천곡동"},{"name":"기업은행","type":"공영","category":"노상","address":"강원특별자치도 동해시 중앙로 233","lat":37.52156221,"lng":129.1140348,"totalSpaces":10,"isFree":false,"operatingDays":"평일+토요일","weekdayOpen":"09:00","weekdayClose":"17:00","weekendOpen":"09:00","weekendClose":"17:00","holidayOpen":"00:00","holidayClose":"00:00","feeInfo":"기본 30분 600원 / 추가 10분당 300원","phone":"033-532-5113","updatedAt":"2025-11-20","sido":"강원특별자치도","sigungu":"동해시","dong":"천곡동"},{"name":"신한은행","type":"공영","category":"노상","address":"강원특별자치도 동해시 천곡동 1090-19","lat":37.52045612,"lng":129.1150723,"totalSpaces":10,"isFree":false,"operatingDays":"평일+토요일","weekdayOpen":"09:00","weekdayClose":"17:00","weekendOpen":"09:00","weekendClose":"17:00","holidayOpen":"00:00","holidayClose":"00:00","feeInfo":"기본 30분 600원 / 추가 10분당 300원","phone":"033-532-5113","updatedAt":"2025-11-20","sido":"강원특별자치도","sigungu":"동해시","dong":"천곡동"},{"name":"국민은행","type":"공영","category":"노상","address":"강원특별자치도 동해시 천곡동 1090-19","lat":37.52045612,"lng":129.1150723,"totalSpaces":8,"isFree":false,"operatingDays":"평일+토요일","weekdayOpen":"09:00","weekdayClose":"17:00","weekendOpen":"09:00","weekendClose":"17:00","holidayOpen":"00:00","holidayClose":"00:00","feeInfo":"기본 30분 600원 / 추가 10분당 300원","phone":"033-532-5113","updatedAt":"2025-11-20","sido":"강원특별자치도","sigungu":"동해시","dong":"천곡동"}]}