{"sido":"강원특별자치도","sigungu":"속초시","totalCount":24,"validCount":24,"items":[{"name":"설악동C1주차장","type":"공영","category":"노외","address":"강원특별자치도 속초시 청봉로 151","lat":38.16706967,"lng":128.5309996,"totalSpaces":866,"isFree":true,"operatingDays":"평일+토요일+공휴일","weekdayOpen":"00:00","weekdayClose":"23:59","weekendOpen":"00:00","weekendClose":"23:59","holidayOpen":"00:00","holidayClose":"23:59","feeInfo":"무료","phone":"033-639-2663","updatedAt":"2025-11-10","sido":"강원특별자치도","sigungu":"속초시","dong":"설악동"},{"name":"설악동C2주차장","type":"공영","category":"노외","address":"강원특별자치도 속초시 청봉로 99","lat":38.16622188,"lng":128.5358026,"totalSpaces":427,"isFree":true,"operatingDays":"평일+토요일+공휴일","weekdayOpen":"00:00","weekdayClose":"23:59","weekendOpen":"00:00","weekendClose":"23:59","holidayOpen":"00:00","holidayClose":"23:59","feeInfo":"무료","phone":"033-639-2663","updatedAt":"2025-11-10","sido":"강원특별자치도","sigungu":"속초시","dong":"설악동"},{"name":"설악동B2주차장","type":"공영","category":"노외","address":"강원특별자치도 속초시 설악산로 787","lat":38.168858,"lng":128.5213156,"totalSpaces":271,"isFree":true,"operatingDays":"평일+토요일+공휴일","weekdayOpen":"00:00","weekdayClose":"23:59","weekendOpen":"00:00","weekendClose":"23:59","holidayOpen":"00:00","holidayClose":"23:59","feeInfo":"무료","phone":"033-639-2663","updatedAt":"2025-11-10","sido":"강원특별자치도","sigungu":"속초시","dong":"설악동"},{"name":"설악동B1주차장","type":"공영","category":"노외","address":"강원특별자치도 속초시 설악산로 813","lat":38.168142,"lng":128.5188262,"totalSpaces":265,"isFree":true,"operatingDays":"평일+토요일+공휴일","weekdayOpen":"00:00","weekdayClose":"23:59","weekendOpen":"00:00","weekendClose":"23:59","holidayOpen":"00:00","holidayClose":"23:59","feeInfo":"무료","phone":"033-639-2663","updatedAt":"2025-11-10","sido":"강원특별자치도","sigungu":"속초시","dong":"설악동"},{"name":"석봉도자기 앞 주차장","type":"공영","category":"노외","address":"강원특별자치도 속초시 엑스포로2길 45","lat":38.19750069,"lng":128.5813777,"totalSpaces":257,"isFree":true,"operatingDays":"평일+토요일+공휴일","weekdayOpen":"00:00","weekdayClose":"23:59","weekendOpen":"00:00","weekendClose":"23:59","holidayOpen":"00:00","holidayClose":"23:59","feeInfo":"무료","phone":"033-639-2188","updatedAt":"2025-11-10","sido":"강원특별자치도","sigungu":"속초시","dong":"교동"},{"name":"엑스포장 주차장","type":"공영","category":"노외","address":"강원특별자치도 속초시 엑스포로 72","lat":38.19161992,"lng":128.5831055,"totalSpaces":250,"isFree":true,"operatingDays":"평일+토요일+공휴일","weekdayOpen":"00:00","weekdayClose":"23:59","weekendOpen":"00:00","weekendClose":"23:59","holidayOpen":"00:00","holidayClose":"23:59","feeInfo":"무료","phone":"033-639-2188","updatedAt":"2025-11-10","sido":"강원특별자치도","sigungu":"속초시","dong":"조양동"},{"name":"영랑동 주차장","type":"공영","category":"노외","address":"강원특별자치도 속초시 영랑로 8","lat":38.214513,"lng":128.5906617,"totalSpaces":220,"isFree":true,"operatingDays":"평일+토요일+공휴일","weekdayOpen":"00:00","weekdayClose":"23:59","weekendOpen":"00:00","weekendClose":"23:59","holidayOpen":"00:00","holidayClose":"23:59","feeInfo":"무료","phone":"033-639-2188","updatedAt":"2025-11-10","sido":"강원특별자치도","sigungu":"속초시","dong":"영랑동"},{"name":"로데오제2지구 주차장","type":"공영","category":"노외","address":"강원특별자치도 속초시 중앙로 93-1 (청학동)","lat":38.201911,"lng":128.5864196,"totalSpaces":187,"isFree":true,"operatingDays":"평일+토요일+공휴일","weekdayOpen":"00:00","weekdayClose":"23:59","weekendOpen":"00:00","weekendClose":"23:59","holidayOpen":"00:00","holidayClose":"23:59","feeInfo":"무료","phone":"033-639-2188","updatedAt":"2025-11-10","sido":"강원특별자치도","sigungu":"속초시","dong":"청학동"},{"name":"엑스포 해양유람선 앞 주차장","type":"공영","category":"노외","address":"강원특별자치도 속초시 청초호반로 28","lat":38.190744,"lng":128.5921947,"totalSpaces":178,"isFree":true,"operatingDays":"평일+토요일+공휴일","weekdayOpen":"00:00","weekdayClose":"23:59","weekendOpen":"00:00","weekendClose":"23:59","holidayOpen":"00:00","holidayClose":"23:59","feeInfo":"무료","phone":"033-639-2188","updatedAt":"2025-11-10","sido":"강원특별자치도","sigungu":"속초시","dong":"조양동"},{"name":"장사동 해안도로 주차장","type":"공영","category":"노상","address":"강원특별자치도 속초시 장사항해안길 2","lat":38.22161275,"lng":128.5904095,"totalSpaces":160,"isFree":true,"operatingDays":"평일+토요일+공휴일","weekdayOpen":"00:00","weekdayClose":"23:59","weekendOpen":"00:00","weekendClose":"23:59","holidayOpen":"00:00","holidayClose":"23:59","feeInfo":"무료","phone":"033-639-2188","updatedAt":"2025-11-10","sido":"강원특별자치도","sigungu":"속초시","dong":"장사동"},{"name":"로데오제1지구 주차장","type":"공영","category":"노외","address":"강원특별자치도 속초시 청초호반로 238-13 (청학동)","lat":38.20028974,"lng":128.5847355,"totalSpaces":148,"isFree":true,"operatingDays":"평일+토요일+공휴일","weekdayOpen":"00:00","weekdayClose":"23:59","weekendOpen":"00:00","weekendClose":"23:59","holidayOpen":"00:00","holidayClose":"23:59","feeInfo":"무료","phone":"033-639-2188","updatedAt":"2025-11-10","sido":"강원특별자치도","sigungu":"속초시","dong":"청학동"},{"name":"수복로 주차장","type":"공영","category":"노상","address":"강원특별자치도 속초시 중앙로 91-8","lat":38.202336,"lng":128.586534,"totalSpaces":135,"isFree":true,"operatingDays":"평일+토요일+공휴일","weekdayOpen":"00:00","weekdayClose":"23:59","weekendOpen":"00:00","weekendClose":"23:59","holidayOpen":"00:00","holidayClose":"23:59","feeInfo":"무료","phone":"033-639-2188","updatedAt":"2025-11-10","sido":"강원특별자치도","sigungu":"속초시","dong":"청학동"},{"name":"법대로 주차장","type":"공영","category":"노상","address":"강원특별자치도 속초시 법대로 18","lat":38.21253821,"lng":128.5929743,"totalSpaces":92,"isFree":true,"operatingDays":"평일+토요일+공휴일","weekdayOpen":"00:00","weekdayClose":"23:59","weekendOpen":"00:00","weekendClose":"23:59","holidayOpen":"00:00","holidayClose":"23:59","feeInfo":"무료","phone":"033-639-2188","updatedAt":"2025-11-10","sido":"강원특별자치도","sigungu":"속초시","dong":"동명동"},{"name":"삼환아파트~속여고입구 주차장","type":"공영","category":"노상","address":"강원특별자치도 속초시 동해대로 4288","lat":38.19888707,"lng":128.5724176,"totalSpaces":71,"isFree":true,"operatingDays":"평일+토요일+공휴일","weekdayOpen":"00:00","weekdayClose":"23:59","weekendOpen":"00:00","weekendClose":"23:59","holidayOpen":"00:00","holidayClose":"23:59","feeInfo":"무료","phone":"033-639-2188","updatedAt":"2025-11-10","sido":"강원특별자치도","sigungu":"속초시","dong":"교동"},{"name":"교동가로 주차장","type":"공영","category":"노상","address":"강원특별자치도 속초시 번영로23번길 8-29 (교동)","lat":38.20394385,"lng":128.5796273,"totalSpaces":65,"isFree":true,"operatingDays":"평일+토요일+공휴일","weekdayOpen":"00:00","weekdayClose":"23:59","weekendOpen":"00:00","weekendClose":"23:59","holidayOpen":"00:00","holidayClose":"23:59","feeInfo":"무료","phone":"033-639-2188","updatedAt":"2025-11-10","sido":"강원특별자치도","sigungu":"속초시","dong":"교동"},{"name":"영랑동(속초의료원 앞) 주차장","type":"공영","category":"노상","address":"강원특별자치도 속초시 중앙로 331","lat":38.217907,"lng":128.5905961,"totalSpaces":45,"isFree":true,"operatingDays":"평일+토요일+공휴일","weekdayOpen":"00:00","weekdayClose":"23:59","weekendOpen":"00:00","weekendClose":"23:59","holidayOpen":"00:00","holidayClose":"23:59","feeInfo":"무료","phone":"033-639-2188","updatedAt":"2025-11-10","sido":"강원특별자치도","sigungu":"속초시","dong":"영랑동"},{"name":"동명동(수복탑) 주차장","type":"공영","category":"노상","address":"강원특별자치도 속초시 중앙로 214-1","lat":38.20963099,"lng":128.5934136,"totalSpaces":44,"isFree":true,"operatingDays":"평일+토요일+공휴일","weekdayOpen":"00:00","weekdayClose":"23:59","weekendOpen":"00:00","weekendClose":"23:59","holidayOpen":"00:00","holidayClose":"23:59","feeInfo":"무료","phone":"033-639-2188","updatedAt":"2025-11-10","sido":"강원특별자치도","sigungu":"속초시","dong":"동명동"},{"name":"영금정길 주차장","type":"공영","category":"노외","address":"강원특별자치도 속초시 영금정로6길 3-4","lat":38.21298316,"lng":128.600394,"totalSpaces":32,"isFree":true,"operatingDays":"평일+토요일+공휴일","weekdayOpen":"00:00","weekdayClose":"23:59","weekendOpen":"00:00","weekendClose":"23:59","holidayOpen":"00:00","holidayClose":"23:59","feeInfo":"무료","phone":"033-639-2188","updatedAt":"2025-11-10","sido":"강원특별자치도","sigungu":"속초시","dong":"동명동"},{"name":"동명항로 공영주차장","type":"공영","category":"노외","address":"강원특별자치도 속초시 동명항길 55","lat":38.21201409,"lng":128.6001534,"totalSpaces":32,"isFree":true,"operatingDays":"평일+토요일+공휴일","weekdayOpen":"00:00","weekdayClose":"23:59","weekendOpen":"00:00","weekendClose":"23:59","holidayOpen":"00:00","holidayClose":"23:59","feeInfo":"무료","phone":"033-639-2188","updatedAt":"2025-11-10","sido":"강원특별자치도","sigungu":"속초시","dong":"동명동"},{"name":"청대로 먹거리단지 앞 주차장","type":"공영","category":"노상","address":"강원특별자치도 속초시 먹거리4길 19","lat":38.19554196,"lng":128.5729695,"totalSpaces":30,"isFree":true,"operatingDays":"평일+토요일+공휴일","weekdayOpen":"00:00","weekdayClose":"23:59","weekendOpen":"00:00","weekendClose":"23:59","holidayOpen":"00:00","holidayClose":"23:59","feeInfo":"무료","phone":"033-639-2188","updatedAt":"2025-11-10","sido":"강원특별자치도","sigungu":"속초시","dong":"교동"},{"name":"청학가로(번영로) 주차장","type":"공영","category":"노상","address":"강원특별자치도 속초시 번영로 60","lat":38.205194,"lng":128.5842793,"totalSpaces":25,"isFree":true,"operatingDays":"평일+토요일+공휴일","weekdayOpen":"00:00","weekdayClose":"23:59","weekendOpen":"00:00","weekendClose":"23:59","holidayOpen":"00:00","holidayClose":"23:59","feeInfo":"무료","phone":"033-639-2188","updatedAt":"2025-11-10","sido":"강원특별자치도","sigungu":"속초시","dong":"청학동"},{"name":"청학1지구 주차장","type":"공영","category":"노외","address":"강원특별자치도 속초시 수복로143번길 58","lat":38.2031288,"lng":128.5855788,"totalSpaces":24,"isFree":true,"operatingDays":"평일+토요일+공휴일","weekdayOpen":"00:00","weekdayClose":"23:59","weekendOpen":"00:00","weekendClose":"23:59","holidayOpen":"00:00","holidayClose":"23:59","feeInfo":"무료","phone":"033-639-2188","updatedAt":"2025-11-10","sido":"강원특별자치도","sigungu":"속초시","dong":"청학동"},{"name":"설악산입구 주차장","type":"공영","category":"노상","address":"강원특별자치도 속초시 설악산로 7-1","lat":38.16233589,"lng":128.6068975,"totalSpaces":20,"isFree":true,"operatingDays":"평일+토요일+공휴일","weekdayOpen":"00:00","weekdayClose":"23:59","weekendOpen":"00:00","weekendClose":"23:59","holidayOpen":"00:00","holidayClose":"23:59","feeInfo":"무료","phone":"033-639-2188","updatedAt":"2025-11-10","sido":"강원특별자치도","sigungu":"속초시","dong":"대포동"},{"name":"청학2지구 주차장","type":"공영","category":"노외","address":"강원특별자치도 속초시 수복로143번길 58","lat":38.203196,"lng":128.5855788,"totalSpaces":13,"isFree":true,"operatingDays":"평일+토요일+공휴일","weekdayOpen":"00:00","weekdayClose":"23:59","weekendOpen":"00:00","weekendClose":"23:59","holidayOpen":"00:00","holidayClose":"23:59","feeInfo":"무료","phone":"033-639-2188","updatedAt":"2025-11-10","sido":"강원특별자치도","sigungu":"속초시","dong":"청학동"}]}