{"sido":"강원특별자치도","sigungu":"양구군","totalCount":52,"validCount":52,"items":[{"name":"종합운동장 뒤","type":"공영","category":"노외","address":"강원특별자치도 양구군 양구읍 하리 97-1","lat":38.109917,"lng":127.983971,"totalSpaces":170,"isFree":true,"operatingDays":"평일+토요일+공휴일","weekdayOpen":"00:00","weekdayClose":"23:59","weekendOpen":"00:00","weekendClose":"23:59","holidayOpen":"00:00","holidayClose":"23:59","feeInfo":"무료","phone":"033-480-7443","updatedAt":"2025-07-10","sido":"강원특별자치도","sigungu":"양구군","dong":"양구읍"},{"name":"경동약국 앞","type":"공영","category":"노외","address":"강원특별자치도 양구군 양구읍 상리 206-145","lat":38.103842,"lng":127.987871,"totalSpaces":69,"isFree":true,"operatingDays":"평일+토요일+공휴일","weekdayOpen":"00:00","weekdayClose":"23:59","weekendOpen":"00:00","weekendClose":"23:59","holidayOpen":"00:00","holidayClose":"23:59","feeInfo":"무료","phone":"033-480-7443","updatedAt":"2025-07-10","sido":"강원특별자치도","sigungu":"양구군","dong":"양구읍"},{"name":"중앙시장","type":"공영","category":"노외","address":"강원특별자치도 양구군 양구읍 상리 238-2","lat":38.103869,"lng":127.988526,"totalSpaces":42,"isFree":true,"operatingDays":"평일+토요일+공휴일","weekdayOpen":"00:00","weekdayClose":"23:59","weekendOpen":"00:00","weekendClose":"23:59","holidayOpen":"00:00","holidayClose":"23:59","feeInfo":"무료","phone":"033-480-7443","updatedAt":"2025-07-10","sido":"강원특별자치도","sigungu":"양구군","dong":"양구읍"},{"name":"송청리 심곡사","type":"공영","category":"노외","address":"강원특별자치도 양구군 양구읍 송청리 58-9","lat":38.095255,"lng":127.996803,"totalSpaces":37,"isFree":true,"operatingDays":"평일+토요일+공휴일","weekdayOpen":"00:00","weekdayClose":"23:59","weekendOpen":"00:00","weekendClose":"23:59","holidayOpen":"00:00","holidayClose":"23:59","feeInfo":"무료","phone":"033-480-7443","updatedAt":"2025-07-10","sido":"강원특별자치도","sigungu":"양구군","dong":"양구읍"},{"name":"송청택지제1주차장","type":"공영","category":"노외","address":"강원특별자치도 양구군 양구읍 상리 591-5","lat":38.098234,"lng":127.989359,"totalSpaces":35,"isFree":true,"operatingDays":"평일+토요일+공휴일","weekdayOpen":"00:00","weekdayClose":"23:59","weekendOpen":"00:00","weekendClose":"23:59","holidayOpen":"00:00","holidayClose":"23:59","feeInfo":"무료","phone":"033-480-7443","updatedAt":"2025-07-10","sido":"강원특별자치도","sigungu":"양구군","dong":"양구읍"},{"name":"송청택지 제2주차장","type":"공영","category":"노외","address":"강원특별자치도 양구군 양구읍 상리 603","lat":38.096712,"lng":127.990676,"totalSpaces":34,"isFree":true,"operatingDays":"평일+토요일+공휴일","weekdayOpen":"00:00","weekdayClose":"23:59","weekendOpen":"00:00","weekendClose":"23:59","holidayOpen":"00:00","holidayClose":"23:59","feeInfo":"무료","phone":"033-480-7443","updatedAt":"2025-07-10","sido":"강원특별자치도","sigungu":"양구군","dong":"양구읍"},{"name":"오렌지세차장 인근","type":"공영","category":"노외","address":"강원특별자치도 양구군 양구읍 상리 569-12","lat":38.100102,"lng":127.989534,"totalSpaces":31,"isFree":true,"operatingDays":"평일+토요일+공휴일","weekdayOpen":"00:00","weekdayClose":"23:59","weekendOpen":"00:00","weekendClose":"23:59","holidayOpen":"00:00","holidayClose":"23:59","feeInfo":"무료","phone":"033-480-7443","updatedAt":"2025-07-10","sido":"강원특별자치도","sigungu":"양구군","dong":"양구읍"},{"name":"웰빙먹거리 타운2","type":"공영","category":"노외","address":"강원특별자치도 양구군 양구읍 송청리 195-3","lat":38.089459,"lng":127.998011,"totalSpaces":23,"isFree":true,"operatingDays":"평일+토요일+공휴일","weekdayOpen":"00:00","weekdayClose":"23:59","weekendOpen":"00:00","weekendClose":"23:59","holidayOpen":"00:00","holidayClose":"23:59","feeInfo":"무료","phone":"033-480-7443","updatedAt":"2025-07-10","sido":"강원특별자치도","sigungu":"양구군","dong":"양구읍"},{"name":"현대관광 뒤","type":"공영","category":"노외","address":"강원특별자치도 양구군 양구읍 상리 373","lat":38.105768,"lng":127.986193,"totalSpaces":22,"isFree":true,"operatingDays":"평일+토요일+공휴일","weekdayOpen":"00:00","weekdayClose":"23:59","weekendOpen":"00:00","weekendClose":"23:59","holidayOpen":"00:00","holidayClose":"23:59","feeInfo":"무료","phone":"033-480-7443","updatedAt":"2025-07-10","sido":"강원특별자치도","sigungu":"양구군","dong":"양구읍"},{"name":"웰빙먹거리 타운1","type":"공영","category":"노외","address":"강원특별자치도 양구군 양구읍 송청리 195","lat":38.089903,"lng":127.997663,"totalSpaces":21,"isFree":true,"operatingDays":"평일+토요일+공휴일","weekdayOpen":"00:00","weekdayClose":"23:59","weekendOpen":"00:00","weekendClose":"23:59","holidayOpen":"00:00","holidayClose":"23:59","feeInfo":"무료","phone":"033-480-7443","updatedAt":"2025-07-10","sido":"강원특별자치도","sigungu":"양구군","dong":"양구읍"},{"name":"카페 봉봉","type":"공영","category":"노외","address":"강원특별자치도 양구군 양구읍 하리 82-1","lat":38.109034,"lng":127.987134,"totalSpaces":19,"isFree":true,"operatingDays":"평일+토요일+공휴일","weekdayOpen":"00:00","weekdayClose":"23:59","weekendOpen":"00:00","weekendClose":"23:59","holidayOpen":"00:00","holidayClose":"23:59","feeInfo":"무료","phone":"033-480-7443","updatedAt":"2025-07-10","sido":"강원특별자치도","sigungu":"양구군","dong":"양구읍"},{"name":"양구트레이닝센터 옆","type":"공영","category":"노외","address":"강원특별자치도 양구군 양구읍 하리 97-9","lat":38.109064,"lng":127.986085,"totalSpaces":17,"isFree":true,"operatingDays":"평일+토요일+공휴일","weekdayOpen":"00:00","weekdayClose":"23:59","weekendOpen":"00:00","weekendClose":"23:59","holidayOpen":"00:00","holidayClose":"23:59","feeInfo":"무료","phone":"033-480-7443","updatedAt":"2025-07-10","sido":"강원특별자치도","sigungu":"양구군","dong":"양구읍"},{"name":"감리교회","type":"공영","category":"노상","address":"강원특별자치도 양구군 양구읍 정림리 1-6","lat":38.102615,"lng":127.987871,"totalSpaces":15,"isFree":true,"operatingDays":"평일+토요일+공휴일","weekdayOpen":"00:00","weekdayClose":"23:59","weekendOpen":"00:00","weekendClose":"23:59","holidayOpen":"00:00","holidayClose":"23:59","feeInfo":"무료","phone":"033-480-7443","updatedAt":"2025-07-10","sido":"강원특별자치도","sigungu":"양구군","dong":"양구읍"},{"name":"옥림세차장 앞","type":"공영","category":"노외","address":"강원특별자치도 양구군 양구읍 중리 20-7","lat":38.108697,"lng":127.988197,"totalSpaces":15,"isFree":true,"operatingDays":"평일+토요일+공휴일","weekdayOpen":"00:00","weekdayClose":"23:59","weekendOpen":"00:00","weekendClose":"23:59","holidayOpen":"00:00","holidayClose":"23:59","feeInfo":"무료","phone":"033-480-7443","updatedAt":"2025-07-10","sido":"강원특별자치도","sigungu":"양구군","dong":"양구읍"},{"name":"무도화랑관 옆","type":"공영","category":"노외","address":"강원특별자치도 양구군 양구읍 상리 181-28","lat":38.101554,"lng":127.990361,"totalSpaces":13,"isFree":true,"operatingDays":"평일+토요일+공휴일","weekdayOpen":"00:00","weekdayClose":"23:59","weekendOpen":"00:00","weekendClose":"23:59","holidayOpen":"00:00","holidayClose":"23:59","feeInfo":"무료","phone":"033-480-7443","updatedAt":"2025-07-10","sido":"강원특별자치도","sigungu":"양구군","dong":"양구읍"},{"name":"전원예식장","type":"공영","category":"노외","address":"강원특별자치도 양구군 양구읍 정림리 148-14","lat":38.097624,"lng":127.983629,"totalSpaces":13,"isFree":true,"operatingDays":"평일+토요일+공휴일","weekdayOpen":"00:00","weekdayClose":"23:59","weekendOpen":"00:00","weekendClose":"23:59","holidayOpen":"00:00","holidayClose":"23:59","feeInfo":"무료","phone":"033-480-7443","updatedAt":"2025-07-10","sido":"강원특별자치도","sigungu":"양구군","dong":"양구읍"},{"name":"동대문옷간지 옆","type":"공영","category":"노외","address":"강원특별자치도 양구군 양구읍 상리 134-16","lat":38.095177,"lng":127.995234,"totalSpaces":12,"isFree":true,"operatingDays":"평일+토요일+공휴일","weekdayOpen":"00:00","weekdayClose":"23:59","weekendOpen":"00:00","weekendClose":"23:59","holidayOpen":"00:00","holidayClose":"23:59","feeInfo":"무료","phone":"033-480-7443","updatedAt":"2025-07-10","sido":"강원특별자치도","sigungu":"양구군","dong":"양구읍"},{"name":"상6리 마6을회관 앞","type":"공영","category":"노외","address":"강원특별자치도 양구군 양구읍 상리 192-11","lat":38.102464,"lng":127.992156,"totalSpaces":8,"isFree":true,"operatingDays":"평일+토요일+공휴일","weekdayOpen":"00:00","weekdayClose":"23:59","weekendOpen":"00:00","weekendClose":"23:59","holidayOpen":"00:00","holidayClose":"23:59","feeInfo":"무료","phone":"033-480-7443","updatedAt":"2025-07-10","sido":"강원특별자치도","sigungu":"양구군","dong":"양구읍"},{"name":"용사의집","type":"공영","category":"노상","address":"강원특별자치도 양구군 양구읍 상리 193-10","lat":38.103141,"lng":127.991883,"totalSpaces":4,"isFree":true,"operatingDays":"평일+토요일+공휴일","weekdayOpen":"00:00","weekdayClose":"23:59","weekendOpen":"00:00","weekendClose":"23:59","holidayOpen":"00:00","holidayClose":"23:59","feeInfo":"무료","phone":"033-480-7443","updatedAt":"2025-07-10","sido":"강원특별자치도","sigungu":"양구군","dong":"양구읍"},{"name":"다성각","type":"공영","category":"노외","address":"강원특별자치도 양구군 양구읍 상리 262-17","lat":38.105164,"lng":127.989899,"totalSpaces":4,"isFree":true,"operatingDays":"평일+토요일+공휴일","weekdayOpen":"00:00","weekdayClose":"23:59","weekendOpen":"00:00","weekendClose":"23:59","holidayOpen":"00:00","holidayClose":"23:59","feeInfo":"무료","phone":"033-480-7443","updatedAt":"2025-07-10","sido":"강원특별자치도","sigungu":"양구군","dong":"양구읍"},{"name":"한우마을","type":"공영","category":"노외","address":"강원특별자치도 양구군 양구읍 상리 549","lat":38.103658,"lng":127.985623,"totalSpaces":85,"isFree":false,"operatingDays":"평일+토요일+공휴일","weekdayOpen":"10:00","weekdayClose":"16:00","weekendOpen":"00:00","weekendClose":"23:59","holidayOpen":"00:00","holidayClose":"23:59","feeInfo":"기본 30분 500원 / 추가 10분당 100원","phone":"033-480-7443","updatedAt":"2025-07-10","sido":"강원특별자치도","sigungu":"양구군","dong":"양구읍"},{"name":"투가리감자탕 앞","type":"공영","category":"노외","address":"강원특별자치도 양구군 양구읍 상리 227-99","lat":38.105311,"lng":127.988914,"totalSpaces":53,"isFree":false,"operatingDays":"평일+토요일+공휴일","weekdayOpen":"10:00","weekdayClose":"16:00","weekendOpen":"00:00","weekendClose":"23:59","holidayOpen":"00:00","holidayClose":"23:59","feeInfo":"기본 30분 500원 / 추가 10분당 100원","phone":"033-480-7443","updatedAt":"2025-07-10","sido":"강원특별자치도","sigungu":"양구군","dong":"양구읍"},{"name":"양구군지적장애인자립지원센터","type":"공영","category":"노외","address":"강원특별자치도 양구군 양구읍 상리 239-7","lat":38.103316,"lng":127.989102,"totalSpaces":52,"isFree":false,"operatingDays":"평일+토요일+공휴일","weekdayOpen":"10:00","weekdayClose":"16:00","weekendOpen":"00:00","weekendClose":"23:59","holidayOpen":"00:00","holidayClose":"23:59","feeInfo":"기본 30분 500원 / 추가 10분당 100원","phone":"033-480-7443","updatedAt":"2025-07-10","sido":"강원특별자치도","sigungu":"양구군","dong":"양구읍"},{"name":"양구읍사무소","type":"공영","category":"노외","address":"강원특별자치도 양구군 양구읍 상리 324-2","lat":38.107947,"lng":127.990515,"totalSpaces":42,"isFree":false,"operatingDays":"평일+토요일+공휴일","weekdayOpen":"10:00","weekdayClose":"16:00","weekendOpen":"00:00","weekendClose":"23:59","holidayOpen":"00:00","holidayClose":"23:59","feeInfo":"기본 30분 500원 / 추가 10분당 100원","phone":"033-480-7443","updatedAt":"2025-07-10","sido":"강원특별자치도","sigungu":"양구군","dong":"양구읍"},{"name":"양구초교 앞","type":"공영","category":"노외","address":"강원특별자치도 양구군 양구읍 상리 248-11","lat":38.103292,"lng":127.990859,"totalSpaces":41,"isFree":false,"operatingDays":"평일+토요일+공휴일","weekdayOpen":"10:00","weekdayClose":"16:00","weekendOpen":"00:00","weekendClose":"23:59","holidayOpen":"00:00","holidayClose":"23:59","feeInfo":"기본 30분 500원 / 추가 10분당 100원","phone":"033-480-7443","updatedAt":"2025-07-10","sido":"강원특별자치도","sigungu":"양구군","dong":"양구읍"},{"name":"목화장 앞","type":"공영","category":"노외","address":"강원특별자치도 양구군 양구읍 상리 227-135","lat":38.105301,"lng":127.987625,"totalSpaces":40,"isFree":false,"operatingDays":"평일+토요일+공휴일","weekdayOpen":"10:00","weekdayClose":"16:00","weekendOpen":"00:00","weekendClose":"23:59","holidayOpen":"00:00","holidayClose":"23:59","feeInfo":"기본 30분 500원 / 추가 10분당 100원","phone":"033-480-7443","updatedAt":"2025-07-10","sido":"강원특별자치도","sigungu":"양구군","dong":"양구읍"},{"name":"성심병원 뒤","type":"공영","category":"노외","address":"강원특별자치도 양구군 양구읍 상리 255-9","lat":38.104874,"lng":127.991514,"totalSpaces":36,"isFree":false,"operatingDays":"평일+토요일+공휴일","weekdayOpen":"10:00","weekdayClose":"16:00","weekendOpen":"00:00","weekendClose":"23:59","holidayOpen":"00:00","holidayClose":"23:59","feeInfo":"기본 30분 500원 / 추가 10분당 100원","phone":"033-480-7443","updatedAt":"2025-07-10","sido":"강원특별자치도","sigungu":"양구군","dong":"양구읍"},{"name":"노인복지센터","type":"공영","category":"노외","address":"강원특별자치도 양구군 양구읍 상리 217-9","lat":38.106215,"lng":127.987463,"totalSpaces":36,"isFree":false,"operatingDays":"평일+토요일+공휴일","weekdayOpen":"10:00","weekdayClose":"16:00","weekendOpen":"00:00","weekendClose":"23:59","holidayOpen":"00:00","holidayClose":"23:59","feeInfo":"기본 30분 500원 / 추가 10분당 100원","phone":"033-480-7443","updatedAt":"2025-07-10","sido":"강원특별자치도","sigungu":"양구군","dong":"양구읍"},{"name":"대청마루 앞","type":"공영","category":"노외","address":"강원특별자치도 양구군 양구읍 상리 259-15","lat":38.104645,"lng":127.989907,"totalSpaces":33,"isFree":false,"operatingDays":"평일+토요일+공휴일","weekdayOpen":"10:00","weekdayClose":"16:00","weekendOpen":"00:00","weekendClose":"23:59","holidayOpen":"00:00","holidayClose":"23:59","feeInfo":"기본 30분 500원 / 추가 10분당 100원","phone":"033-480-7443","updatedAt":"2025-07-10","sido":"강원특별자치도","sigungu":"양구군","dong":"양구읍"},{"name":"법률구조공단 뒤","type":"공영","category":"노외","address":"강원특별자치도 양구군 양구읍 상리 317-3","lat":38.107377,"lng":127.990932,"totalSpaces":32,"isFree":false,"operatingDays":"평일+토요일+공휴일","weekdayOpen":"10:00","weekdayClose":"16:00","weekendOpen":"00:00","weekendClose":"23:59","holidayOpen":"00:00","holidayClose":"23:59","feeInfo":"기본 30분 500원 / 추가 10분당 100원","phone":"033-480-7443","updatedAt":"2025-07-10","sido":"강원특별자치도","sigungu":"양구군","dong":"양구읍"},{"name":"농협군지부 옆(최가네)","type":"공영","category":"노외","address":"강원특별자치도 양구군 양구읍 상리 520","lat":38.107306,"lng":127.986636,"totalSpaces":30,"isFree":false,"operatingDays":"평일+토요일+공휴일","weekdayOpen":"10:00","weekdayClose":"16:00","weekendOpen":"00:00","weekendClose":"23:59","holidayOpen":"00:00","holidayClose":"23:59","feeInfo":"기본 30분 500원 / 추가 10분당 100원","phone":"033-480-7443","updatedAt":"2025-07-10","sido":"강원특별자치도","sigungu":"양구군","dong":"양구읍"},{"name":"장원정육점 뒤","type":"공영","category":"노외","address":"강원특별자치도 양구군 양구읍 상리 207-34","lat":38.103212,"lng":127.987261,"totalSpaces":28,"isFree":false,"operatingDays":"평일+토요일+공휴일","weekdayOpen":"10:00","weekdayClose":"16:00","weekendOpen":"00:00","weekendClose":"23:59","holidayOpen":"00:00","holidayClose":"23:59","feeInfo":"기본 30분 500원 / 추가 10분당 100원","phone":"033-480-7443","updatedAt":"2025-07-10","sido":"강원특별자치도","sigungu":"양구군","dong":"양구읍"},{"name":"군지부~인도교","type":"공영","category":"노외","address":"강원특별자치도 양구군 양구읍 상리 526","lat":38.106682,"lng":127.985664,"totalSpaces":27,"isFree":false,"operatingDays":"평일+토요일+공휴일","weekdayOpen":"10:00","weekdayClose":"16:00","weekendOpen":"00:00","weekendClose":"23:59","holidayOpen":"00:00","holidayClose":"23:59","feeInfo":"기본 30분 500원 / 추가 10분당 100원","phone":"033-480-7443","updatedAt":"2025-07-10","sido":"강원특별자치도","sigungu":"양구군","dong":"양구읍"},{"name":"세종호텔 옆","type":"공영","category":"노외","address":"강원특별자치도 양구군 양구읍 상리 262-10","lat":38.105407,"lng":127.990184,"totalSpaces":27,"isFree":false,"operatingDays":"평일+토요일+공휴일","weekdayOpen":"10:00","weekdayClose":"16:00","weekendOpen":"00:00","weekendClose":"23:59","holidayOpen":"00:00","holidayClose":"23:59","feeInfo":"기본 30분 500원 / 추가 10분당 100원","phone":"033-480-7443","updatedAt":"2025-07-10","sido":"강원특별자치도","sigungu":"양구군","dong":"양구읍"},{"name":"명품관","type":"공영","category":"노외","address":"강원특별자치도 양구군 양구읍 상리 313","lat":38.106923,"lng":127.990545,"totalSpaces":25,"isFree":false,"operatingDays":"평일+토요일+공휴일","weekdayOpen":"10:00","weekdayClose":"16:00","weekendOpen":"00:00","weekendClose":"23:59","holidayOpen":"00:00","holidayClose":"23:59","feeInfo":"기본 30분 500원 / 추가 10분당 100원","phone":"033-480-7443","updatedAt":"2025-07-10","sido":"강원특별자치도","sigungu":"양구군","dong":"양구읍"},{"name":"대흥문구 뒤","type":"공영","category":"노외","address":"강원특별자치도 양구군 양구읍 상리 227-52","lat":38.106261,"lng":127.988693,"totalSpaces":24,"isFree":false,"operatingDays":"평일+토요일+공휴일","weekdayOpen":"10:00","weekdayClose":"16:00","weekendOpen":"00:00","weekendClose":"23:59","holidayOpen":"00:00","holidayClose":"23:59","feeInfo":"기본 30분 500원 / 추가 10분당 100원","phone":"033-480-7443","updatedAt":"2025-07-10","sido":"강원특별자치도","sigungu":"양구군","dong":"양구읍"},{"name":"양구종합약국 뒤","type":"공영","category":"노외","address":"강원특별자치도 양구군 양구읍 상리 258-4","lat":38.104369,"lng":127.990579,"totalSpaces":21,"isFree":false,"operatingDays":"평일+토요일+공휴일","weekdayOpen":"10:00","weekdayClose":"16:00","weekendOpen":"00:00","weekendClose":"23:59","holidayOpen":"00:00","holidayClose":"23:59","feeInfo":"기본 30분 500원 / 추가 10분당 100원","phone":"033-480-7443","updatedAt":"2025-07-10","sido":"강원특별자치도","sigungu":"양구군","dong":"양구읍"},{"name":"양구신협 옆","type":"공영","category":"노외","address":"강원특별자치도 양구군 양구읍 상리 377-2","lat":38.106352,"lng":127.986088,"totalSpaces":21,"isFree":false,"operatingDays":"평일+토요일+공휴일","weekdayOpen":"10:00","weekdayClose":"16:00","weekendOpen":"00:00","weekendClose":"23:59","holidayOpen":"00:00","holidayClose":"23:59","feeInfo":"기본 30분 500원 / 추가 10분당 100원","phone":"033-480-7443","updatedAt":"2025-07-10","sido":"강원특별자치도","sigungu":"양구군","dong":"양구읍"},{"name":"열린문화쉼터","type":"공영","category":"노상","address":"강원특별자치도 양구군 양구읍 상리 269-11","lat":38.105693,"lng":127.989496,"totalSpaces":20,"isFree":false,"operatingDays":"평일+토요일+공휴일","weekdayOpen":"10:00","weekdayClose":"16:00","weekendOpen":"00:00","weekendClose":"23:59","holidayOpen":"00:00","holidayClose":"23:59","feeInfo":"기본 30분 500원 / 추가 10분당 100원","phone":"033-480-7443","updatedAt":"2025-07-10","sido":"강원특별자치도","sigungu":"양구군","dong":"양구읍"},{"name":"산림조합 옆","type":"공영","category":"노외","address":"강원특별자치도 양구군 양구읍 중리 33-6","lat":38.107718,"lng":127.988095,"totalSpaces":19,"isFree":false,"operatingDays":"평일+토요일+공휴일","weekdayOpen":"10:00","weekdayClose":"16:00","weekendOpen":"00:00","weekendClose":"23:59","holidayOpen":"00:00","holidayClose":"23:59","feeInfo":"기본 30분 500원 / 추가 10분당 100원","phone":"033-480-7443","updatedAt":"2025-07-10","sido":"강원특별자치도","sigungu":"양구군","dong":"양구읍"},{"name":"해피플라워 옆","type":"공영","category":"노외","address":"강원특별자치도 양구군 양구읍 상리 231-3","lat":38.104648,"lng":127.988491,"totalSpaces":17,"isFree":false,"operatingDays":"평일+토요일+공휴일","weekdayOpen":"10:00","weekdayClose":"16:00","weekendOpen":"00:00","weekendClose":"23:59","holidayOpen":"00:00","holidayClose":"23:59","feeInfo":"기본 30분 500원 / 추가 10분당 100원","phone":"033-480-7443","updatedAt":"2025-07-10","sido":"강원특별자치도","sigungu":"양구군","dong":"양구읍"},{"name":"장태수법무사 뒤","type":"공영","category":"노외","address":"강원특별자치도 양구군 양구읍 중리 8-8","lat":38.108374,"lng":127.989834,"totalSpaces":16,"isFree":false,"operatingDays":"평일+토요일+공휴일","weekdayOpen":"10:00","weekdayClose":"16:00","weekendOpen":"00:00","weekendClose":"23:59","holidayOpen":"00:00","holidayClose":"23:59","feeInfo":"기본 30분 500원 / 추가 10분당 100원","phone":"033-480-7443","updatedAt":"2025-07-10","sido":"강원특별자치도","sigungu":"양구군","dong":"양구읍"},{"name":"향군회관 뒤","type":"공영","category":"노외","address":"강원특별자치도 양구군 양구읍 중리 18-6","lat":38.109187,"lng":127.988366,"totalSpaces":15,"isFree":false,"operatingDays":"평일+토요일+공휴일","weekdayOpen":"10:00","weekdayClose":"16:00","weekendOpen":"00:00","weekendClose":"23:59","holidayOpen":"00:00","holidayClose":"23:59","feeInfo":"기본 30분 500원 / 추가 10분당 100원","phone":"033-480-7443","updatedAt":"2025-07-10","sido":"강원특별자치도","sigungu":"양구군","dong":"양구읍"},{"name":"상리 DC 아울렛","type":"공영","category":"노외","address":"강원특별자치도 양구군 양구읍 상리 239-14","lat":38.103386,"lng":127.989479,"totalSpaces":14,"isFree":false,"operatingDays":"평일+토요일+공휴일","weekdayOpen":"10:00","weekdayClose":"16:00","weekendOpen":"00:00","weekendClose":"23:59","holidayOpen":"00:00","holidayClose":"23:59","feeInfo":"기본 30분 500원 / 추가 10분당 100원","phone":"033-480-7443","updatedAt":"2025-07-10","sido":"강원특별자치도","sigungu":"양구군","dong":"양구읍"},{"name":"양자강~희망화원","type":"공영","category":"노외","address":"강원특별자치도 양구군 양구읍 상리 272-17","lat":38.106413,"lng":127.989831,"totalSpaces":14,"isFree":false,"operatingDays":"평일+토요일+공휴일","weekdayOpen":"10:00","weekdayClose":"16:00","weekendOpen":"00:00","weekendClose":"23:59","holidayOpen":"00:00","holidayClose":"23:59","feeInfo":"기본 30분 500원 / 추가 10분당 100원","phone":"033-480-7443","updatedAt":"2025-07-10","sido":"강원특별자치도","sigungu":"양구군","dong":"양구읍"},{"name":"군민공원 앞","type":"공영","category":"노상","address":"강원특별자치도 양구군 양구읍 상리 267-2","lat":38.106162,"lng":127.990131,"totalSpaces":14,"isFree":false,"operatingDays":"평일+토요일+공휴일","weekdayOpen":"10:00","weekdayClose":"16:00","weekendOpen":"00:00","weekendClose":"23:59","holidayOpen":"00:00","holidayClose":"23:59","feeInfo":"기본 30분 500원 / 추가 10분당 100원","phone":"033-480-7443","updatedAt":"2025-07-10","sido":"강원특별자치도","sigungu":"양구군","dong":"양구읍"},{"name":"신라장 옆","type":"공영","category":"노외","address":"강원특별자치도 양구군 양구읍 중리 26-7","lat":38.108425,"lng":127.989179,"totalSpaces":13,"isFree":false,"operatingDays":"평일+토요일+공휴일","weekdayOpen":"10:00","weekdayClose":"16:00","weekendOpen":"00:00","weekendClose":"23:59","holidayOpen":"00:00","holidayClose":"23:59","feeInfo":"기본 30분 500원 / 추가 10분당 100원","phone":"033-480-7443","updatedAt":"2025-07-10","sido":"강원특별자치도","sigungu":"양구군","dong":"양구읍"},{"name":"양구 드론스쿨 옆","type":"공영","category":"노외","address":"강원특별자치도 양구군 양구읍 정림리 196-3","lat":38.103125,"lng":127.986628,"totalSpaces":11,"isFree":false,"operatingDays":"평일+토요일+공휴일","weekdayOpen":"10:00","weekdayClose":"16:00","weekendOpen":"00:00","weekendClose":"23:59","holidayOpen":"00:00","holidayClose":"23:59","feeInfo":"기본 30분 500원 / 추가 10분당 100원","phone":"033-480-7443","updatedAt":"2025-07-10","sido":"강원특별자치도","sigungu":"양구군","dong":"양구읍"},{"name":"산림조합 앞","type":"공영","category":"노외","address":"강원특별자치도 양구군 양구읍 상리 336-1","lat":38.107365,"lng":127.988598,"totalSpaces":11,"isFree":false,"operatingDays":"평일+토요일+공휴일","weekdayOpen":"10:00","weekdayClose":"16:00","weekendOpen":"00:00","weekendClose":"23:59","holidayOpen":"00:00","holidayClose":"23:59","feeInfo":"기본 30분 500원 / 추가 10분당 100원","phone":"033-480-7443","updatedAt":"2025-07-10","sido":"강원특별자치도","sigungu":"양구군","dong":"양구읍"},{"name":"군민공원","type":"공영","category":"노외","address":"강원특별자치도 양구군 양구읍 상리 278","lat":38.106082,"lng":127.990577,"totalSpaces":10,"isFree":false,"operatingDays":"평일+토요일+공휴일","weekdayOpen":"10:00","weekdayClose":"16:00","weekendOpen":"00:00","weekendClose":"23:59","holidayOpen":"00:00","holidayClose":"23:59","feeInfo":"기본 30분 500원 / 추가 10분당 100원","phone":"033-480-7443","updatedAt":"2025-07-10","sido":"강원특별자치도","sigungu":"양구군","dong":"양구읍"},{"name":"백암순대 뒤","type":"공영","category":"노외","address":"강원특별자치도 양구군 양구읍 상리 227-14","lat":38.106281,"lng":127.988005,"totalSpaces":8,"isFree":false,"operatingDays":"평일+토요일+공휴일","weekdayOpen":"10:00","weekdayClose":"16:00","weekendOpen":"00:00","weekendClose":"23:59","holidayOpen":"00:00","holidayClose":"23:59","feeInfo":"기본 30분 500원 / 추가 10분당 100원","phone":"033-480-7443","updatedAt":"2025-07-10","sido":"강원특별자치도","sigungu":"양구군","dong":"양구읍"},{"name":"황해장여관 뒤","type":"공영","category":"노외","address":"강원특별자치도 양구군 양구읍 중리 10-1","lat":38.108174,"lng":127.989405,"totalSpaces":8,"isFree":false,"operatingDays":"평일+토요일+공휴일","weekdayOpen":"10:00","weekdayClose":"16:00","weekendOpen":"00:00","weekendClose":"23:59","holidayOpen":"00:00","holidayClose":"23:59","feeInfo":"기본 30분 500원 / 추가 10분당 100원","phone":"033-480-7443","updatedAt":"2025-07-10","sido":"강원특별자치도","sigungu":"양구군","dong":"양구읍"}]}