{"sido":"강원특별자치도","sigungu":"양양군","totalCount":15,"validCount":15,"items":[{"name":"물치주차장","type":"공영","category":"노외","address":"강원특별자치도 양양군 강현면 물치리 7-5","lat":38.15725,"lng":128.609779,"totalSpaces":350,"isFree":true,"operatingDays":"평일+토요일+공휴일","weekdayOpen":"00:00","weekdayClose":"23:59","weekendOpen":"00:00","weekendClose":"23:59","holidayOpen":"00:00","holidayClose":"23:59","feeInfo":"무료","phone":"033-673-1335","updatedAt":"2024-11-26","sido":"강원특별자치도","sigungu":"양양군","dong":"강현면"},{"name":"낙산해변주차장","type":"공영","category":"노상","address":"강원특별자치도 양양군 강현면 주청리 2-14","lat":38.116789,"lng":128.631766,"totalSpaces":338,"isFree":true,"operatingDays":"평일+토요일+공휴일","weekdayOpen":"00:00","weekdayClose":"23:59","weekendOpen":"00:00","weekendClose":"23:59","holidayOpen":"00:00","holidayClose":"23:59","feeInfo":"무료","phone":"","updatedAt":"2024-11-26","sido":"강원특별자치도","sigungu":"양양군","dong":"강현면"},{"name":"설악주차장","type":"공영","category":"노외","address":"강원특별자치도 양양군 강현면 용호리 126-2","lat":38.130077,"lng":128.622731,"totalSpaces":274,"isFree":true,"operatingDays":"평일+토요일+공휴일","weekdayOpen":"00:00","weekdayClose":"23:59","weekendOpen":"00:00","weekendClose":"23:59","holidayOpen":"00:00","holidayClose":"23:59","feeInfo":"무료","phone":"033-670-2171","updatedAt":"2024-11-26","sido":"강원특별자치도","sigungu":"양양군","dong":"강현면"},{"name":"하조대해변주차장","type":"공영","category":"노상","address":"강원특별자치도 양양군 현북면 하광정리 641-2","lat":38.022619,"lng":128.724931,"totalSpaces":253,"isFree":true,"operatingDays":"평일+토요일+공휴일","weekdayOpen":"00:00","weekdayClose":"23:59","weekendOpen":"00:00","weekendClose":"23:59","holidayOpen":"00:00","holidayClose":"23:59","feeInfo":"무료","phone":"033-670-2171","updatedAt":"2024-11-26","sido":"강원특별자치도","sigungu":"양양군","dong":"현북면"},{"name":"수산항 주차장","type":"공영","category":"노외","address":"강원특별자치도 양양군 손양면 수산리 89-32","lat":38.076899,"lng":128.675195,"totalSpaces":79,"isFree":true,"operatingDays":"평일+토요일+공휴일","weekdayOpen":"00:00","weekdayClose":"23:59","weekendOpen":"00:00","weekendClose":"23:59","holidayOpen":"00:00","holidayClose":"23:59","feeInfo":"무료","phone":"033-670-2171","updatedAt":"2024-11-26","sido":"강원특별자치도","sigungu":"양양군","dong":"손양면"},{"name":"동호해변주차장","type":"공영","category":"노상","address":"강원특별자치도 양양군 손양면 동호리 141-26","lat":38.058315,"lng":128.682425,"totalSpaces":50,"isFree":true,"operatingDays":"평일+토요일+공휴일","weekdayOpen":"00:00","weekdayClose":"23:59","weekendOpen":"00:00","weekendClose":"23:59","holidayOpen":"00:00","holidayClose":"23:59","feeInfo":"무료","phone":"033-673-5933","updatedAt":"2024-11-26","sido":"강원특별자치도","sigungu":"양양군","dong":"손양면"},{"name":"미전거리주차장","type":"공영","category":"노외","address":"강원특별자치도 양양군 양양읍 남문리 76-9","lat":38.0743628114,"lng":128.6216393082,"totalSpaces":48,"isFree":true,"operatingDays":"평일+토요일+공휴일","weekdayOpen":"00:00","weekdayClose":"23:59","weekendOpen":"00:00","weekendClose":"23:59","holidayOpen":"00:00","holidayClose":"23:59","feeInfo":"무료","phone":"033-670-2171","updatedAt":"2024-11-26","sido":"강원특별자치도","sigungu":"양양군","dong":"양양읍"},{"name":"보훈회관 주차장","type":"공영","category":"부설","address":"강원특별자치도 양양군 양양읍 남문리 231-1","lat":38.072887,"lng":128.622028,"totalSpaces":34,"isFree":true,"operatingDays":"평일+토요일+공휴일","weekdayOpen":"00:00","weekdayClose":"23:59","weekendOpen":"00:00","weekendClose":"23:59","holidayOpen":"00:00","holidayClose":"23:59","feeInfo":"무료","phone":"033-670-2171","updatedAt":"2024-11-26","sido":"강원특별자치도","sigungu":"양양군","dong":"양양읍"},{"name":"의회주차장","type":"공영","category":"부설","address":"강원특별자치도 양양군 양양읍 군행리 5-1","lat":38.074496,"lng":128.619017,"totalSpaces":20,"isFree":true,"operatingDays":"평일+토요일+공휴일","weekdayOpen":"00:00","weekdayClose":"23:59","weekendOpen":"00:00","weekendClose":"23:59","holidayOpen":"00:00","holidayClose":"23:59","feeInfo":"무료","phone":"033-670-2171","updatedAt":"2024-11-26","sido":"강원특별자치도","sigungu":"양양군","dong":"양양읍"},{"name":"낙산건어물주차장","type":"민영","category":"노외","address":"강원특별자치도 양양군 강현면 전진리 23","lat":38.119639,"lng":128.628047,"totalSpaces":500,"isFree":false,"operatingDays":"평일+토요일+공휴일","weekdayOpen":"00:00","weekdayClose":"23:59","weekendOpen":"00:00","weekendClose":"23:59","holidayOpen":"00:00","holidayClose":"23:59","feeInfo":"기본 0분 6,000원 / 추가 0분당 0원","phone":"033-672-2447","updatedAt":"2024-11-26","sido":"강원특별자치도","sigungu":"양양군","dong":"강현면"},{"name":"오색주차장1","type":"공영","category":"노외","address":"강원특별자치도 양양군 서면 오색리 485","lat":38.07809,"lng":128.452705,"totalSpaces":471,"isFree":false,"operatingDays":"평일+토요일+공휴일","weekdayOpen":"00:00","weekdayClose":"23:59","weekendOpen":"00:00","weekendClose":"23:59","holidayOpen":"00:00","holidayClose":"23:59","feeInfo":"기본 0분 200원 / 추가 10분당 200원","phone":"033-670-2277","updatedAt":"2024-11-26","sido":"강원특별자치도","sigungu":"양양군","dong":"서면"},{"name":"오색주차장","type":"민영","category":"노외","address":"강원특별자치도 양양군 서면 오색리 483-6","lat":38.077458,"lng":128.451323,"totalSpaces":250,"isFree":false,"operatingDays":"평일+토요일+공휴일","weekdayOpen":"00:00","weekdayClose":"23:59","weekendOpen":"00:00","weekendClose":"23:59","holidayOpen":"00:00","holidayClose":"23:59","feeInfo":"기본 0분 5,000원 / 추가 0분당 0원","phone":"","updatedAt":"2024-11-26","sido":"강원특별자치도","sigungu":"양양군","dong":"서면"},{"name":"양양시장주차장","type":"공영","category":"노외","address":"강원특별자치도 양양군 양양읍 남문리 3-23","lat":38.0753076826,"lng":128.6250635765,"totalSpaces":150,"isFree":false,"operatingDays":"평일+토요일+공휴일","weekdayOpen":"00:00","weekdayClose":"23:59","weekendOpen":"00:00","weekendClose":"23:59","holidayOpen":"00:00","holidayClose":"23:59","feeInfo":"기본 0분 200원 / 추가 10분당 200원","phone":"033-670-2956","updatedAt":"2024-11-26","sido":"강원특별자치도","sigungu":"양양군","dong":"양양읍"},{"name":"오색그린야드호텔주차장","type":"민영","category":"노외","address":"강원특별자치도 양양군 서면 오색리 511","lat":38.080275,"lng":128.44755,"totalSpaces":120,"isFree":false,"operatingDays":"평일+토요일+공휴일","weekdayOpen":"00:00","weekdayClose":"23:59","weekendOpen":"00:00","weekendClose":"23:59","holidayOpen":"00:00","holidayClose":"23:59","feeInfo":"기본 0분 500원 / 추가 30분당 500원","phone":"033-670-1000","updatedAt":"2024-11-26","sido":"강원특별자치도","sigungu":"양양군","dong":"서면"},{"name":"낙산사주차장","type":"민영","category":"노외","address":"강원특별자치도 양양군 강현면 전진리 3-1","lat":38.123523,"lng":128.631435,"totalSpaces":120,"isFree":false,"operatingDays":"평일+토요일+공휴일","weekdayOpen":"00:00","weekdayClose":"23:59","weekendOpen":"00:00","weekendClose":"23:59","holidayOpen":"00:00","holidayClose":"23:59","feeInfo":"기본 0분 6,000원 / 추가 0분당 0원","phone":"033-672-2447","updatedAt":"2024-11-26","sido":"강원특별자치도","sigungu":"양양군","dong":"강현면"}]}