{"sido":"강원특별자치도","sigungu":"화천군","totalCount":35,"validCount":35,"items":[{"name":"강변-1","type":"공영","category":"노외","address":"강원특별자치도 화천군 화천읍 하리 53-11","lat":38.102441,"lng":127.7054917911,"totalSpaces":99,"isFree":true,"operatingDays":"평일+토요일+공휴일","weekdayOpen":"00:00","weekdayClose":"23:59","weekendOpen":"00:00","weekendClose":"23:59","holidayOpen":"00:00","holidayClose":"23:59","feeInfo":"무료","phone":"033-440-2365","updatedAt":"2025-05-16","sido":"강원특별자치도","sigungu":"화천군","dong":"화천읍"},{"name":"5일장터","type":"공영","category":"노외","address":"강원특별자치도 화천군 화천읍 중앙로8길 15","lat":38.10290045,"lng":127.7068619,"totalSpaces":86,"isFree":true,"operatingDays":"평일+토요일+공휴일","weekdayOpen":"00:00","weekdayClose":"23:59","weekendOpen":"00:00","weekendClose":"23:59","holidayOpen":"00:00","holidayClose":"23:59","feeInfo":"무료","phone":"033-440-2365","updatedAt":"2025-05-16","sido":"강원특별자치도","sigungu":"화천군","dong":"화천읍"},{"name":"사창리 공영주차장-1(삼대막국수 뒤)","type":"공영","category":"노외","address":"강원특별자치도 화천군 사내면 사창리 423-2","lat":38.070755,"lng":127.522236,"totalSpaces":75,"isFree":true,"operatingDays":"평일+토요일+공휴일","weekdayOpen":"00:00","weekdayClose":"23:59","weekendOpen":"00:00","weekendClose":"23:59","holidayOpen":"00:00","holidayClose":"23:59","feeInfo":"무료","phone":"033-440-2365","updatedAt":"2025-05-16","sido":"강원특별자치도","sigungu":"화천군","dong":"사내면"},{"name":"강변-2","type":"공영","category":"노외","address":"강원특별자치도 화천군 화천읍 하리 24-2","lat":38.102295,"lng":127.706417,"totalSpaces":70,"isFree":true,"operatingDays":"평일+토요일+공휴일","weekdayOpen":"00:00","weekdayClose":"23:59","weekendOpen":"00:00","weekendClose":"23:59","holidayOpen":"00:00","holidayClose":"23:59","feeInfo":"무료","phone":"033-440-2365","updatedAt":"2025-05-16","sido":"강원특별자치도","sigungu":"화천군","dong":"화천읍"},{"name":"산천어공방~지적공사","type":"공영","category":"노상","address":"강원특별자치도 화천군 화천읍 중리 258","lat":38.107528,"lng":127.7075284705,"totalSpaces":37,"isFree":true,"operatingDays":"평일+토요일+공휴일","weekdayOpen":"00:00","weekdayClose":"23:59","weekendOpen":"00:00","weekendClose":"23:59","holidayOpen":"00:00","holidayClose":"23:59","feeInfo":"무료","phone":"033-440-2365","updatedAt":"2025-05-16","sido":"강원특별자치도","sigungu":"화천군","dong":"화천읍"},{"name":"사창리 공영주차장-2(전우사 뒤)","type":"공영","category":"노외","address":"강원특별자치도 화천군 사내면 사내로5길 16-12","lat":38.071380981,"lng":127.5205341957,"totalSpaces":28,"isFree":true,"operatingDays":"평일+토요일+공휴일","weekdayOpen":"00:00","weekdayClose":"23:59","weekendOpen":"00:00","weekendClose":"23:59","holidayOpen":"00:00","holidayClose":"23:59","feeInfo":"무료","phone":"033-440-2365","updatedAt":"2025-05-16","sido":"강원특별자치도","sigungu":"화천군","dong":"사내면"},{"name":"속초식당~오성이발소","type":"공영","category":"노상","address":"강원특별자치도 화천군 화천읍 아리 256-23","lat":38.1053986088,"lng":127.706957,"totalSpaces":24,"isFree":true,"operatingDays":"평일+토요일+공휴일","weekdayOpen":"00:00","weekdayClose":"23:59","weekendOpen":"00:00","weekendClose":"23:59","holidayOpen":"00:00","holidayClose":"23:59","feeInfo":"무료","phone":"033-440-2365","updatedAt":"2025-05-16","sido":"강원특별자치도","sigungu":"화천군","dong":"화천읍"},{"name":"대동목욕탕~삼성화재","type":"공영","category":"노상","address":"강원특별자치도 화천군 화천읍 하리 60-7","lat":38.1048152175,"lng":127.706952054,"totalSpaces":18,"isFree":true,"operatingDays":"평일+토요일+공휴일","weekdayOpen":"00:00","weekdayClose":"23:59","weekendOpen":"00:00","weekendClose":"23:59","holidayOpen":"00:00","holidayClose":"23:59","feeInfo":"무료","phone":"033-440-2365","updatedAt":"2025-05-16","sido":"강원특별자치도","sigungu":"화천군","dong":"화천읍"},{"name":"사창리 공영주차장-4(육해공 앞)","type":"공영","category":"노외","address":"강원특별자치도 화천군 사내면 사창리 975-4","lat":38.068214,"lng":127.5231285,"totalSpaces":18,"isFree":true,"operatingDays":"평일+토요일+공휴일","weekdayOpen":"00:00","weekdayClose":"23:59","weekendOpen":"00:00","weekendClose":"23:59","holidayOpen":"00:00","holidayClose":"23:59","feeInfo":"무료","phone":"033-440-2365","updatedAt":"2025-05-16","sido":"강원특별자치도","sigungu":"화천군","dong":"사내면"},{"name":"사창리 공영주차장-5(문화마을 앞)","type":"공영","category":"노외","address":"강원특별자치도 화천군 사내면 사창리 978-4","lat":38.06830384,"lng":127.523817,"totalSpaces":18,"isFree":true,"operatingDays":"평일+토요일+공휴일","weekdayOpen":"00:00","weekdayClose":"23:59","weekendOpen":"00:00","weekendClose":"23:59","holidayOpen":"00:00","holidayClose":"23:59","feeInfo":"무료","phone":"033-440-2365","updatedAt":"2025-05-16","sido":"강원특별자치도","sigungu":"화천군","dong":"사내면"},{"name":"태흥~하리파출소","type":"공영","category":"노상","address":"강원특별자치도 화천군 화천읍 하리 51-5","lat":38.103139,"lng":127.705559,"totalSpaces":15,"isFree":true,"operatingDays":"평일+토요일+공휴일","weekdayOpen":"00:00","weekdayClose":"23:59","weekendOpen":"00:00","weekendClose":"23:59","holidayOpen":"00:00","holidayClose":"23:59","feeInfo":"무료","phone":"033-440-2365","updatedAt":"2025-05-16","sido":"강원특별자치도","sigungu":"화천군","dong":"화천읍"},{"name":"하리파출소 앞","type":"공영","category":"노외","address":"강원특별자치도 화천군 화천읍 강변로 27","lat":38.1026542,"lng":127.7055626,"totalSpaces":14,"isFree":true,"operatingDays":"평일+토요일+공휴일","weekdayOpen":"00:00","weekdayClose":"23:59","weekendOpen":"00:00","weekendClose":"23:59","holidayOpen":"00:00","holidayClose":"23:59","feeInfo":"무료","phone":"033-440-2365","updatedAt":"2025-05-16","sido":"강원특별자치도","sigungu":"화천군","dong":"화천읍"},{"name":"하리공영주차장","type":"공영","category":"노외","address":"강원특별자치도 화천군 화천읍 하리 5-25","lat":38.1028,"lng":127.7079817453,"totalSpaces":13,"isFree":true,"operatingDays":"평일+토요일+공휴일","weekdayOpen":"00:00","weekdayClose":"23:59","weekendOpen":"00:00","weekendClose":"23:59","holidayOpen":"00:00","holidayClose":"23:59","feeInfo":"무료","phone":"033-440-2365","updatedAt":"2025-05-16","sido":"강원특별자치도","sigungu":"화천군","dong":"화천읍"},{"name":"경찰서 뒤","type":"공영","category":"노외","address":"강원특별자치도 화천군 화천읍 중리 249-20","lat":38.106727,"lng":127.707648,"totalSpaces":13,"isFree":true,"operatingDays":"평일+토요일+공휴일","weekdayOpen":"00:00","weekdayClose":"23:59","weekendOpen":"00:00","weekendClose":"23:59","holidayOpen":"00:00","holidayClose":"23:59","feeInfo":"무료","phone":"033-440-2365","updatedAt":"2025-05-16","sido":"강원특별자치도","sigungu":"화천군","dong":"화천읍"},{"name":"임마누엘교회 앞","type":"공영","category":"노외","address":"강원특별자치도 화천군 화천읍 아리 213-4","lat":38.104547,"lng":127.708719,"totalSpaces":13,"isFree":true,"operatingDays":"평일+토요일+공휴일","weekdayOpen":"00:00","weekdayClose":"23:59","weekendOpen":"00:00","weekendClose":"23:59","holidayOpen":"00:00","holidayClose":"23:59","feeInfo":"무료","phone":"033-440-2365","updatedAt":"2025-05-16","sido":"강원특별자치도","sigungu":"화천군","dong":"화천읍"},{"name":"공영버스터미널~낭천가든","type":"공영","category":"노상","address":"강원특별자치도 화천군 화천읍 하리 27-16","lat":38.1038012822,"lng":127.7040317707,"totalSpaces":13,"isFree":true,"operatingDays":"평일+토요일+공휴일","weekdayOpen":"00:00","weekdayClose":"23:59","weekendOpen":"00:00","weekendClose":"23:59","holidayOpen":"00:00","holidayClose":"23:59","feeInfo":"무료","phone":"033-440-2365","updatedAt":"2025-05-16","sido":"강원특별자치도","sigungu":"화천군","dong":"화천읍"},{"name":"화천중고동문회","type":"공영","category":"노외","address":"강원특별자치도 화천군 화천읍 상승로 79-17","lat":38.108017,"lng":127.7048314,"totalSpaces":12,"isFree":true,"operatingDays":"평일+토요일+공휴일","weekdayOpen":"00:00","weekdayClose":"23:59","weekendOpen":"00:00","weekendClose":"23:59","holidayOpen":"00:00","holidayClose":"23:59","feeInfo":"무료","phone":"033-440-2365","updatedAt":"2025-05-16","sido":"강원특별자치도","sigungu":"화천군","dong":"화천읍"},{"name":"하리마을회관 앞","type":"공영","category":"노외","address":"강원특별자치도 화천군 화천읍 하리 53-30","lat":38.102834,"lng":127.705703,"totalSpaces":12,"isFree":true,"operatingDays":"평일+토요일+공휴일","weekdayOpen":"00:00","weekdayClose":"23:59","weekendOpen":"00:00","weekendClose":"23:59","holidayOpen":"00:00","holidayClose":"23:59","feeInfo":"무료","phone":"033-440-2365","updatedAt":"2025-05-16","sido":"강원특별자치도","sigungu":"화천군","dong":"화천읍"},{"name":"사창리 공영주차장-3","type":"공영","category":"노외","address":"강원특별자치도 화천군 사내면 사내로3길 8","lat":38.070462,"lng":127.5210924903,"totalSpaces":11,"isFree":true,"operatingDays":"평일+토요일+공휴일","weekdayOpen":"00:00","weekdayClose":"23:59","weekendOpen":"00:00","weekendClose":"23:59","holidayOpen":"00:00","holidayClose":"23:59","feeInfo":"무료","phone":"033-440-2365","updatedAt":"2025-05-16","sido":"강원특별자치도","sigungu":"화천군","dong":"사내면"},{"name":"마포갈비앞","type":"공영","category":"노외","address":"강원특별자치도 화천군 화천읍 하리 34-6","lat":38.105182,"lng":127.703518,"totalSpaces":9,"isFree":true,"operatingDays":"평일+토요일+공휴일","weekdayOpen":"00:00","weekdayClose":"23:59","weekendOpen":"00:00","weekendClose":"23:59","holidayOpen":"00:00","holidayClose":"23:59","feeInfo":"무료","phone":"033-440-2365","updatedAt":"2025-05-16","sido":"강원특별자치도","sigungu":"화천군","dong":"화천읍"},{"name":"청기와집 옆","type":"공영","category":"노외","address":"강원특별자치도 화천군 화천읍 아리 248-2","lat":38.106054,"lng":127.706344,"totalSpaces":8,"isFree":true,"operatingDays":"평일+토요일+공휴일","weekdayOpen":"00:00","weekdayClose":"23:59","weekendOpen":"00:00","weekendClose":"23:59","holidayOpen":"00:00","holidayClose":"23:59","feeInfo":"무료","phone":"033-440-2365","updatedAt":"2025-05-16","sido":"강원특별자치도","sigungu":"화천군","dong":"화천읍"},{"name":"화천순두부집 옆","type":"공영","category":"노외","address":"강원특별자치도 화천군 화천읍 아리 245-21","lat":38.106434,"lng":127.7066043326,"totalSpaces":8,"isFree":true,"operatingDays":"평일+토요일+공휴일","weekdayOpen":"00:00","weekdayClose":"23:59","weekendOpen":"00:00","weekendClose":"23:59","holidayOpen":"00:00","holidayClose":"23:59","feeInfo":"무료","phone":"033-440-2365","updatedAt":"2025-05-16","sido":"강원특별자치도","sigungu":"화천군","dong":"화천읍"},{"name":"낙원아파트 앞","type":"공영","category":"노외","address":"강원특별자치도 화천군 화천읍 아리 205-17","lat":38.104071,"lng":127.708873,"totalSpaces":8,"isFree":true,"operatingDays":"평일+토요일+공휴일","weekdayOpen":"00:00","weekdayClose":"23:59","weekendOpen":"00:00","weekendClose":"23:59","holidayOpen":"00:00","holidayClose":"23:59","feeInfo":"무료","phone":"033-440-2365","updatedAt":"2025-05-16","sido":"강원특별자치도","sigungu":"화천군","dong":"화천읍"},{"name":"화천중기 앞","type":"공영","category":"노외","address":"강원특별자치도 화천군 화천읍 산수화로4길 25-9","lat":38.1086741252,"lng":127.708443,"totalSpaces":7,"isFree":true,"operatingDays":"평일+토요일+공휴일","weekdayOpen":"00:00","weekdayClose":"23:59","weekendOpen":"00:00","weekendClose":"23:59","holidayOpen":"00:00","holidayClose":"23:59","feeInfo":"무료","phone":"033-440-2365","updatedAt":"2025-05-16","sido":"강원특별자치도","sigungu":"화천군","dong":"화천읍"},{"name":"그린장 앞","type":"공영","category":"노외","address":"강원특별자치도 화천군 화천읍 하리 52-10","lat":38.103563,"lng":127.705564,"totalSpaces":7,"isFree":true,"operatingDays":"평일+토요일+공휴일","weekdayOpen":"00:00","weekdayClose":"23:59","weekendOpen":"00:00","weekendClose":"23:59","holidayOpen":"00:00","holidayClose":"23:59","feeInfo":"무료","phone":"033-442-4013","updatedAt":"2025-05-16","sido":"강원특별자치도","sigungu":"화천군","dong":"화천읍"},{"name":"아리 경로당 앞","type":"공영","category":"노외","address":"강원특별자치도 화천군 화천읍 하리 99-19","lat":38.1062711559,"lng":127.703635,"totalSpaces":7,"isFree":true,"operatingDays":"평일+토요일+공휴일","weekdayOpen":"00:00","weekdayClose":"23:59","weekendOpen":"00:00","weekendClose":"23:59","holidayOpen":"00:00","holidayClose":"23:59","feeInfo":"무료","phone":"033-440-2365","updatedAt":"2025-05-16","sido":"강원특별자치도","sigungu":"화천군","dong":"화천읍"},{"name":"다이소 옆","type":"공영","category":"노외","address":"강원특별자치도 화천군 화천읍 하리 101-7","lat":38.105504,"lng":127.703457,"totalSpaces":6,"isFree":true,"operatingDays":"평일+토요일+공휴일","weekdayOpen":"00:00","weekdayClose":"23:59","weekendOpen":"00:00","weekendClose":"23:59","holidayOpen":"00:00","holidayClose":"23:59","feeInfo":"무료","phone":"033-440-2365","updatedAt":"2025-05-16","sido":"강원특별자치도","sigungu":"화천군","dong":"화천읍"},{"name":"영진빌라앞","type":"공영","category":"노외","address":"강원특별자치도 화천군 화천읍 중리 252-12","lat":38.108237,"lng":127.708118,"totalSpaces":5,"isFree":true,"operatingDays":"평일+토요일+공휴일","weekdayOpen":"00:00","weekdayClose":"23:59","weekendOpen":"00:00","weekendClose":"23:59","holidayOpen":"00:00","holidayClose":"23:59","feeInfo":"무료","phone":"033-440-2365","updatedAt":"2025-05-16","sido":"강원특별자치도","sigungu":"화천군","dong":"화천읍"},{"name":"선등거리 주차타워","type":"공영","category":"노외","address":"강원특별자치도 화천군 화천읍 중앙로9길 16","lat":38.1042819,"lng":127.7078061,"totalSpaces":147,"isFree":false,"operatingDays":"평일+토요일+공휴일","weekdayOpen":"00:00","weekdayClose":"23:59","weekendOpen":"00:00","weekendClose":"23:59","holidayOpen":"00:00","holidayClose":"23:59","feeInfo":"기본 60분 500원 / 추가 30분당 500원","phone":"033-440-2365","updatedAt":"2025-05-16","sido":"강원특별자치도","sigungu":"화천군","dong":"화천읍"},{"name":"산천어 주차타워","type":"공영","category":"노외","address":"강원특별자치도 화천군 화천읍 중앙로3길 10","lat":38.10498639,"lng":127.7060831279,"totalSpaces":134,"isFree":false,"operatingDays":"평일+토요일+공휴일","weekdayOpen":"00:00","weekdayClose":"23:59","weekendOpen":"00:00","weekendClose":"23:59","holidayOpen":"00:00","holidayClose":"23:59","feeInfo":"기본 60분 500원 / 추가 30분당 500원","phone":"033-440-2365","updatedAt":"2025-05-16","sido":"강원특별자치도","sigungu":"화천군","dong":"화천읍"},{"name":"전광판~회전교차로","type":"공영","category":"노상","address":"강원특별자치도 화천군 화천읍 하리 43-64","lat":38.1050339589,"lng":127.7049401351,"totalSpaces":71,"isFree":false,"operatingDays":"평일+토요일+공휴일","weekdayOpen":"09:00","weekdayClose":"18:00","weekendOpen":"00:00","weekendClose":"23:59","holidayOpen":"00:00","holidayClose":"23:59","feeInfo":"기본 30분 500원 / 추가 30분당 500원","phone":"033-440-2365","updatedAt":"2025-05-16","sido":"강원특별자치도","sigungu":"화천군","dong":"화천읍"},{"name":"정산고~교육청","type":"공영","category":"노상","address":"강원특별자치도 화천군 화천읍 하리 28-6","lat":38.1035979461,"lng":127.7034162044,"totalSpaces":71,"isFree":false,"operatingDays":"평일+토요일+공휴일","weekdayOpen":"09:00","weekdayClose":"18:00","weekendOpen":"00:00","weekendClose":"23:59","holidayOpen":"00:00","holidayClose":"23:59","feeInfo":"기본 30분 500원 / 추가 30분당 500원","phone":"033-440-2365","updatedAt":"2025-05-16","sido":"강원특별자치도","sigungu":"화천군","dong":"화천읍"},{"name":"화천시장주차장-1","type":"공영","category":"노외","address":"강원특별자치도 화천군 화천읍 중앙로 12-10","lat":38.10434569,"lng":127.705124,"totalSpaces":22,"isFree":false,"operatingDays":"평일+토요일+공휴일","weekdayOpen":"00:00","weekdayClose":"23:59","weekendOpen":"00:00","weekendClose":"23:59","holidayOpen":"00:00","holidayClose":"23:59","feeInfo":"기본 60분 500원 / 추가 30분당 500원","phone":"033-440-2365","updatedAt":"2025-05-16","sido":"강원특별자치도","sigungu":"화천군","dong":"화천읍"},{"name":"산림조합 앞 주차장","type":"공영","category":"노외","address":"강원특별자치도 화천군 화천읍 중앙로6길 21-2","lat":38.10320176,"lng":127.705854,"totalSpaces":20,"isFree":false,"operatingDays":"평일+토요일+공휴일","weekdayOpen":"00:00","weekdayClose":"23:59","weekendOpen":"00:00","weekendClose":"23:59","holidayOpen":"00:00","holidayClose":"23:59","feeInfo":"기본 60분 500원 / 추가 30분당 500원","phone":"033-440-2365","updatedAt":"2025-05-16","sido":"강원특별자치도","sigungu":"화천군","dong":"화천읍"},{"name":"화천시장주차장-2","type":"공영","category":"노외","address":"강원특별자치도 화천군 화천읍 중앙로4길 29-9","lat":38.103218,"lng":127.7054741,"totalSpaces":9,"isFree":false,"operatingDays":"평일+토요일+공휴일","weekdayOpen":"00:00","weekdayClose":"23:59","weekendOpen":"00:00","weekendClose":"23:59","holidayOpen":"00:00","holidayClose":"23:59","feeInfo":"기본 60분 500원 / 추가 30분당 500원","phone":"033-440-2365","updatedAt":"2025-05-16","sido":"강원특별자치도","sigungu":"화천군","dong":"화천읍"}]}