{"sido":"강원특별자치도","sigungu":"횡성군","totalCount":63,"validCount":63,"items":[{"name":"앞들2공영주차장","type":"공영","category":"노외","address":"강원특별자치도 횡성군 횡성읍 읍하리 424-1","lat":37.48660488,"lng":127.9834703,"totalSpaces":214,"isFree":true,"operatingDays":"평일+토요일+공휴일","weekdayOpen":"00:00","weekdayClose":"23:59","weekendOpen":"00:00","weekendClose":"23:59","holidayOpen":"00:00","holidayClose":"23:59","feeInfo":"무료","phone":"033-340-2243","updatedAt":"2023-08-30","sido":"강원특별자치도","sigungu":"횡성군","dong":"횡성읍"},{"name":"횡성먹거리단지 주차장","type":"공영","category":"노외","address":"강원특별자치도 횡성군 횡성읍 곡교리 122-17","lat":37.45968505,"lng":127.9753369,"totalSpaces":96,"isFree":true,"operatingDays":"평일+토요일+공휴일","weekdayOpen":"00:00","weekdayClose":"23:59","weekendOpen":"00:00","weekendClose":"23:59","holidayOpen":"00:00","holidayClose":"23:59","feeInfo":"무료","phone":"033-340-2243","updatedAt":"2023-08-30","sido":"강원특별자치도","sigungu":"횡성군","dong":"횡성읍"},{"name":"읍상지구공영주차장(감리교회앞)","type":"공영","category":"노외","address":"강원특별자치도 횡성군 횡성읍 읍상리 354","lat":37.49169617,"lng":127.9890671,"totalSpaces":88,"isFree":true,"operatingDays":"평일+토요일+공휴일","weekdayOpen":"00:00","weekdayClose":"23:59","weekendOpen":"00:00","weekendClose":"23:59","holidayOpen":"00:00","holidayClose":"23:59","feeInfo":"무료","phone":"033-340-2243","updatedAt":"2023-08-30","sido":"강원특별자치도","sigungu":"횡성군","dong":"횡성읍"},{"name":"만세공원 앞 주차장","type":"공영","category":"노외","address":"강원특별자치도 횡성군 횡성읍 읍상리 545","lat":37.48811107,"lng":127.9866832,"totalSpaces":66,"isFree":true,"operatingDays":"평일+토요일+공휴일","weekdayOpen":"00:00","weekdayClose":"23:59","weekendOpen":"00:00","weekendClose":"23:59","holidayOpen":"00:00","holidayClose":"23:59","feeInfo":"무료","phone":"033-340-2243","updatedAt":"2023-08-30","sido":"강원특별자치도","sigungu":"횡성군","dong":"횡성읍"},{"name":"우천제1공영주차장(한우프라자 인근)","type":"공영","category":"노외","address":"강원특별자치도 횡성군 우천면 우항리 583-2","lat":37.46005669,"lng":128.0640844,"totalSpaces":54,"isFree":true,"operatingDays":"평일+토요일+공휴일","weekdayOpen":"00:00","weekdayClose":"23:59","weekendOpen":"00:00","weekendClose":"23:59","holidayOpen":"00:00","holidayClose":"23:59","feeInfo":"무료","phone":"033-340-2243","updatedAt":"2023-08-30","sido":"강원특별자치도","sigungu":"횡성군","dong":"우천면"},{"name":"횡성전통시장 제2주차장","type":"공영","category":"노외","address":"강원특별자치도 횡성군 횡성읍 읍상리 288-49","lat":37.49056512,"lng":127.9869264,"totalSpaces":46,"isFree":true,"operatingDays":"평일+토요일+공휴일","weekdayOpen":"00:00","weekdayClose":"23:59","weekendOpen":"00:00","weekendClose":"23:59","holidayOpen":"00:00","holidayClose":"23:59","feeInfo":"무료","phone":"033-340-2243","updatedAt":"2023-08-30","sido":"강원특별자치도","sigungu":"횡성군","dong":"횡성읍"},{"name":"앞들1공영주차장","type":"공영","category":"노외","address":"강원특별자치도 횡성군 횡성읍 읍상리 674","lat":37.48644908,"lng":127.9853927,"totalSpaces":38,"isFree":true,"operatingDays":"평일+토요일+공휴일","weekdayOpen":"00:00","weekdayClose":"23:59","weekendOpen":"00:00","weekendClose":"23:59","holidayOpen":"00:00","holidayClose":"23:59","feeInfo":"무료","phone":"033-340-2243","updatedAt":"2023-08-30","sido":"강원특별자치도","sigungu":"횡성군","dong":"횡성읍"},{"name":"둔내체육공원 테니스장 인근","type":"공영","category":"노상","address":"강원특별자치도 횡성군 둔내면 둔방내리 67-2","lat":37.51671984,"lng":128.213708,"totalSpaces":38,"isFree":true,"operatingDays":"평일+토요일+공휴일","weekdayOpen":"00:00","weekdayClose":"23:59","weekendOpen":"00:00","weekendClose":"23:59","holidayOpen":"00:00","holidayClose":"23:59","feeInfo":"무료","phone":"033-340-2243","updatedAt":"2023-08-30","sido":"강원특별자치도","sigungu":"횡성군","dong":"둔내면"},{"name":"춘자네 곱창구이 앞","type":"공영","category":"노외","address":"강원특별자치도 횡성군 횡성읍 읍하리 526-1","lat":37.49511785,"lng":127.9881053,"totalSpaces":30,"isFree":true,"operatingDays":"평일+토요일+공휴일","weekdayOpen":"00:00","weekdayClose":"23:59","weekendOpen":"00:00","weekendClose":"23:59","holidayOpen":"00:00","holidayClose":"23:59","feeInfo":"무료","phone":"033-340-2243","updatedAt":"2023-08-30","sido":"강원특별자치도","sigungu":"횡성군","dong":"횡성읍"},{"name":"우천제2공영주차장(우천우체국 인근)","type":"공영","category":"노외","address":"강원특별자치도 횡성군 우천면 우항리 754-7","lat":37.45906573,"lng":128.0636427,"totalSpaces":29,"isFree":true,"operatingDays":"평일+토요일+공휴일","weekdayOpen":"00:00","weekdayClose":"23:59","weekendOpen":"00:00","weekendClose":"23:59","holidayOpen":"00:00","holidayClose":"23:59","feeInfo":"무료","phone":"033-340-2243","updatedAt":"2023-08-30","sido":"강원특별자치도","sigungu":"횡성군","dong":"우천면"},{"name":"횡성전통시장 제1주차장","type":"공영","category":"노외","address":"강원특별자치도 횡성군 횡성읍 읍상리 293-2","lat":37.48963922,"lng":127.988302,"totalSpaces":29,"isFree":true,"operatingDays":"평일+토요일+공휴일","weekdayOpen":"00:00","weekdayClose":"23:59","weekendOpen":"00:00","weekendClose":"23:59","holidayOpen":"00:00","holidayClose":"23:59","feeInfo":"무료","phone":"033-340-2243","updatedAt":"2023-08-30","sido":"강원특별자치도","sigungu":"횡성군","dong":"횡성읍"},{"name":"읍상1공영주차장","type":"공영","category":"노외","address":"강원특별자치도 횡성군 횡성읍 읍상리 541-11","lat":37.48857587,"lng":127.9875394,"totalSpaces":28,"isFree":true,"operatingDays":"평일+토요일+공휴일","weekdayOpen":"00:00","weekdayClose":"23:59","weekendOpen":"00:00","weekendClose":"23:59","holidayOpen":"00:00","holidayClose":"23:59","feeInfo":"무료","phone":"033-340-2243","updatedAt":"2023-08-30","sido":"강원특별자치도","sigungu":"횡성군","dong":"횡성읍"},{"name":"모락모락찐방마을 공영주차장","type":"공영","category":"노외","address":"강원특별자치도 횡성군 안흥면 안흥리 1063","lat":37.40978635,"lng":128.1554853,"totalSpaces":26,"isFree":true,"operatingDays":"평일+토요일+공휴일","weekdayOpen":"00:00","weekdayClose":"23:59","weekendOpen":"00:00","weekendClose":"23:59","holidayOpen":"00:00","holidayClose":"23:59","feeInfo":"무료","phone":"033-340-2243","updatedAt":"2023-08-30","sido":"강원특별자치도","sigungu":"횡성군","dong":"안흥면"},{"name":"읍상3공영주차장","type":"공영","category":"노외","address":"강원특별자치도 횡성군 횡성읍 읍상리 514-4","lat":37.48831463,"lng":127.9882872,"totalSpaces":26,"isFree":true,"operatingDays":"평일+토요일+공휴일","weekdayOpen":"00:00","weekdayClose":"23:59","weekendOpen":"00:00","weekendClose":"23:59","holidayOpen":"00:00","holidayClose":"23:59","feeInfo":"무료","phone":"033-340-2243","updatedAt":"2023-08-30","sido":"강원특별자치도","sigungu":"횡성군","dong":"횡성읍"},{"name":"공항길식당 앞","type":"공영","category":"노외","address":"강원특별자치도 횡성군 횡성읍 읍하리 538","lat":37.49344191,"lng":127.9892252,"totalSpaces":26,"isFree":true,"operatingDays":"평일+토요일+공휴일","weekdayOpen":"00:00","weekdayClose":"23:59","weekendOpen":"00:00","weekendClose":"23:59","holidayOpen":"00:00","holidayClose":"23:59","feeInfo":"무료","phone":"033-340-2243","updatedAt":"2023-08-30","sido":"강원특별자치도","sigungu":"횡성군","dong":"횡성읍"},{"name":"둔내자포1공영주차장","type":"공영","category":"노외","address":"강원특별자치도 횡성군 둔내면 자포곡리 418","lat":37.51010085,"lng":128.216449,"totalSpaces":25,"isFree":true,"operatingDays":"평일+토요일+공휴일","weekdayOpen":"00:00","weekdayClose":"23:59","weekendOpen":"00:00","weekendClose":"23:59","holidayOpen":"00:00","holidayClose":"23:59","feeInfo":"무료","phone":"033-340-2243","updatedAt":"2023-08-30","sido":"강원특별자치도","sigungu":"횡성군","dong":"둔내면"},{"name":"서도2차아파트 앞 공영주차장","type":"공영","category":"노외","address":"강원특별자치도 횡성군 횡성읍 입석리 90","lat":37.47996577,"lng":127.9813185,"totalSpaces":25,"isFree":true,"operatingDays":"평일+토요일+공휴일","weekdayOpen":"00:00","weekdayClose":"23:59","weekendOpen":"00:00","weekendClose":"23:59","holidayOpen":"00:00","holidayClose":"23:59","feeInfo":"무료","phone":"033-340-2243","updatedAt":"2023-08-30","sido":"강원특별자치도","sigungu":"횡성군","dong":"횡성읍"},{"name":"읍상2공영주차장","type":"공영","category":"노외","address":"강원특별자치도 횡성군 횡성읍 읍상리 514-2","lat":37.48841134,"lng":127.9879064,"totalSpaces":25,"isFree":true,"operatingDays":"평일+토요일+공휴일","weekdayOpen":"00:00","weekdayClose":"23:59","weekendOpen":"00:00","weekendClose":"23:59","holidayOpen":"00:00","holidayClose":"23:59","feeInfo":"무료","phone":"033-340-2243","updatedAt":"2023-08-30","sido":"강원특별자치도","sigungu":"횡성군","dong":"횡성읍"},{"name":"청일면행정복지센터 앞 공영주차장","type":"공영","category":"노외","address":"강원특별자치도 횡성군 청일면 유동리 855-11","lat":37.58316467,"lng":128.1504473,"totalSpaces":21,"isFree":true,"operatingDays":"평일+토요일+공휴일","weekdayOpen":"00:00","weekdayClose":"23:59","weekendOpen":"00:00","weekendClose":"23:59","holidayOpen":"00:00","holidayClose":"23:59","feeInfo":"무료","phone":"033-340-2243","updatedAt":"2023-08-30","sido":"강원특별자치도","sigungu":"횡성군","dong":"청일면"},{"name":"철기시대 유적지 공영주차장","type":"공영","category":"노외","address":"강원특별자치도 횡성군 둔내면 둔방내리 594","lat":37.51255769,"lng":128.2132322,"totalSpaces":18,"isFree":true,"operatingDays":"평일+토요일+공휴일","weekdayOpen":"00:00","weekdayClose":"23:59","weekendOpen":"00:00","weekendClose":"23:59","holidayOpen":"00:00","holidayClose":"23:59","feeInfo":"무료","phone":"033-340-2243","updatedAt":"2023-08-30","sido":"강원특별자치도","sigungu":"횡성군","dong":"둔내면"},{"name":"산골밥상 앞~안흥뻥튀기","type":"공영","category":"노상","address":"강원특별자치도 횡성군 안흥면 안흥리 282-5","lat":37.4135606,"lng":128.1581478,"totalSpaces":18,"isFree":true,"operatingDays":"평일+토요일+공휴일","weekdayOpen":"00:00","weekdayClose":"23:59","weekendOpen":"00:00","weekendClose":"23:59","holidayOpen":"00:00","holidayClose":"23:59","feeInfo":"무료","phone":"033-340-2243","updatedAt":"2023-08-30","sido":"강원특별자치도","sigungu":"횡성군","dong":"안흥면"},{"name":"횡성초등학교 정문 앞","type":"공영","category":"노외","address":"강원특별자치도 횡성군 횡성읍 읍하리 593-2","lat":37.48756584,"lng":127.9808353,"totalSpaces":17,"isFree":true,"operatingDays":"평일+토요일+공휴일","weekdayOpen":"00:00","weekdayClose":"23:59","weekendOpen":"00:00","weekendClose":"23:59","holidayOpen":"00:00","holidayClose":"23:59","feeInfo":"무료","phone":"033-340-2243","updatedAt":"2023-08-30","sido":"강원특별자치도","sigungu":"횡성군","dong":"횡성읍"},{"name":"읍상4리 마을회관 앞","type":"공영","category":"노외","address":"강원특별자치도 횡성군 횡성읍 읍상리 304-2","lat":37.48717036,"lng":127.9897574,"totalSpaces":15,"isFree":true,"operatingDays":"평일+토요일+공휴일","weekdayOpen":"00:00","weekdayClose":"23:59","weekendOpen":"00:00","weekendClose":"23:59","holidayOpen":"00:00","holidayClose":"23:59","feeInfo":"무료","phone":"033-340-2243","updatedAt":"2023-08-30","sido":"강원특별자치도","sigungu":"횡성군","dong":"횡성읍"},{"name":"읍상5리 마을회관 앞","type":"공영","category":"노외","address":"강원특별자치도 횡성군 횡성읍 읍상리 573","lat":37.48540556,"lng":127.9923653,"totalSpaces":14,"isFree":true,"operatingDays":"평일+토요일+공휴일","weekdayOpen":"00:00","weekdayClose":"23:59","weekendOpen":"00:00","weekendClose":"23:59","holidayOpen":"00:00","holidayClose":"23:59","feeInfo":"무료","phone":"033-340-2243","updatedAt":"2023-08-30","sido":"강원특별자치도","sigungu":"횡성군","dong":"횡성읍"},{"name":"횡성소방서 공터주차장","type":"공영","category":"노외","address":"강원특별자치도 횡성군 횡성읍 읍하리 476-37","lat":37.48549635,"lng":127.9733952,"totalSpaces":13,"isFree":true,"operatingDays":"평일+토요일+공휴일","weekdayOpen":"00:00","weekdayClose":"23:59","weekendOpen":"00:00","weekendClose":"23:59","holidayOpen":"00:00","holidayClose":"23:59","feeInfo":"무료","phone":"033-340-2243","updatedAt":"2023-08-30","sido":"강원특별자치도","sigungu":"횡성군","dong":"횡성읍"},{"name":"대한농자재 앞","type":"공영","category":"노상","address":"강원특별자치도 횡성군 둔내면 둔방내리 587-11","lat":37.51272377,"lng":128.2110835,"totalSpaces":11,"isFree":true,"operatingDays":"평일+토요일+공휴일","weekdayOpen":"00:00","weekdayClose":"23:59","weekendOpen":"00:00","weekendClose":"23:59","holidayOpen":"00:00","holidayClose":"23:59","feeInfo":"무료","phone":"033-340-2243","updatedAt":"2023-08-30","sido":"강원특별자치도","sigungu":"횡성군","dong":"둔내면"},{"name":"양자강 앞","type":"공영","category":"노상","address":"강원특별자치도 횡성군 둔내면 둔방내리 579-3","lat":37.51314799,"lng":128.2106887,"totalSpaces":11,"isFree":true,"operatingDays":"평일+토요일+공휴일","weekdayOpen":"00:00","weekdayClose":"23:59","weekendOpen":"00:00","weekendClose":"23:59","holidayOpen":"00:00","holidayClose":"23:59","feeInfo":"무료","phone":"033-340-2243","updatedAt":"2023-08-30","sido":"강원특별자치도","sigungu":"횡성군","dong":"둔내면"},{"name":"태기산건상원 앞","type":"공영","category":"노상","address":"강원특별자치도 횡성군 둔내면 둔방내리 584-4","lat":37.51371341,"lng":128.211946,"totalSpaces":11,"isFree":true,"operatingDays":"평일+토요일+공휴일","weekdayOpen":"00:00","weekdayClose":"23:59","weekendOpen":"00:00","weekendClose":"23:59","holidayOpen":"00:00","holidayClose":"23:59","feeInfo":"무료","phone":"033-340-2243","updatedAt":"2023-08-30","sido":"강원특별자치도","sigungu":"횡성군","dong":"둔내면"},{"name":"둔내교회 앞","type":"공영","category":"노상","address":"강원특별자치도 횡성군 둔내면 둔방내리 585-2","lat":37.51378645,"lng":128.2114145,"totalSpaces":11,"isFree":true,"operatingDays":"평일+토요일+공휴일","weekdayOpen":"00:00","weekdayClose":"23:59","weekendOpen":"00:00","weekendClose":"23:59","holidayOpen":"00:00","holidayClose":"23:59","feeInfo":"무료","phone":"033-340-2243","updatedAt":"2023-08-30","sido":"강원특별자치도","sigungu":"횡성군","dong":"둔내면"},{"name":"카페0919 앞","type":"공영","category":"노상","address":"강원특별자치도 횡성군 공근면 학담리 206-5","lat":37.53513005,"lng":127.9624705,"totalSpaces":10,"isFree":true,"operatingDays":"평일+토요일+공휴일","weekdayOpen":"00:00","weekdayClose":"23:59","weekendOpen":"00:00","weekendClose":"23:59","holidayOpen":"00:00","holidayClose":"23:59","feeInfo":"무료","phone":"033-340-2243","updatedAt":"2023-08-30","sido":"강원특별자치도","sigungu":"횡성군","dong":"공근면"},{"name":"강림성결교회 앞 공영주차장","type":"공영","category":"노외","address":"강원특별자치도 횡성군 강림면 강림리 837-5","lat":37.36121678,"lng":128.1274096,"totalSpaces":9,"isFree":true,"operatingDays":"평일+토요일+공휴일","weekdayOpen":"00:00","weekdayClose":"23:59","weekendOpen":"00:00","weekendClose":"23:59","holidayOpen":"00:00","holidayClose":"23:59","feeInfo":"무료","phone":"033-340-2243","updatedAt":"2023-08-30","sido":"강원특별자치도","sigungu":"횡성군","dong":"강림면"},{"name":"둔내파출소~삼흥약국","type":"공영","category":"노상","address":"강원특별자치도 횡성군 둔내면 둔방내리 84-5","lat":37.51291608,"lng":128.2143532,"totalSpaces":9,"isFree":true,"operatingDays":"평일+토요일+공휴일","weekdayOpen":"00:00","weekdayClose":"23:59","weekendOpen":"00:00","weekendClose":"23:59","holidayOpen":"00:00","holidayClose":"23:59","feeInfo":"무료","phone":"033-340-2243","updatedAt":"2023-08-30","sido":"강원특별자치도","sigungu":"횡성군","dong":"둔내면"},{"name":"횡성성당 입구","type":"공영","category":"노외","address":"강원특별자치도 횡성군 횡성읍 읍상리 382-5","lat":37.49199466,"lng":127.9877062,"totalSpaces":9,"isFree":true,"operatingDays":"평일+토요일+공휴일","weekdayOpen":"00:00","weekdayClose":"23:59","weekendOpen":"00:00","weekendClose":"23:59","holidayOpen":"00:00","holidayClose":"23:59","feeInfo":"무료","phone":"033-340-2243","updatedAt":"2023-08-30","sido":"강원특별자치도","sigungu":"횡성군","dong":"횡성읍"},{"name":"안흥시장 노상주차장","type":"공영","category":"노상","address":"강원특별자치도 횡성군 안흥면 안흥리 300-14","lat":37.41270292,"lng":128.1576602,"totalSpaces":9,"isFree":true,"operatingDays":"평일+토요일+공휴일","weekdayOpen":"00:00","weekdayClose":"23:59","weekendOpen":"00:00","weekendClose":"23:59","holidayOpen":"00:00","holidayClose":"23:59","feeInfo":"무료","phone":"033-340-2243","updatedAt":"2023-08-30","sido":"강원특별자치도","sigungu":"횡성군","dong":"안흥면"},{"name":"태기산막국수~세븐일레븐(둔내점)","type":"공영","category":"노상","address":"강원특별자치도 횡성군 둔내면 자포곡리 415-2","lat":37.51153859,"lng":128.2186024,"totalSpaces":8,"isFree":true,"operatingDays":"평일+토요일+공휴일","weekdayOpen":"00:00","weekdayClose":"23:59","weekendOpen":"00:00","weekendClose":"23:59","holidayOpen":"00:00","holidayClose":"23:59","feeInfo":"무료","phone":"033-340-2243","updatedAt":"2023-08-30","sido":"강원특별자치도","sigungu":"횡성군","dong":"둔내면"},{"name":"태기산막국수~강원여관","type":"공영","category":"노상","address":"강원특별자치도 횡성군 둔내면 자포곡리 415-2","lat":37.51153859,"lng":128.2186024,"totalSpaces":8,"isFree":true,"operatingDays":"평일+토요일+공휴일","weekdayOpen":"00:00","weekdayClose":"23:59","weekendOpen":"00:00","weekendClose":"23:59","holidayOpen":"00:00","holidayClose":"23:59","feeInfo":"무료","phone":"033-340-2243","updatedAt":"2023-08-30","sido":"강원특별자치도","sigungu":"횡성군","dong":"둔내면"},{"name":"인정국물떡볶이 앞~파워학습법 입시학원","type":"공영","category":"노상","address":"강원특별자치도 횡성군 횡성읍 교항리 50-9","lat":37.48651152,"lng":127.9806094,"totalSpaces":8,"isFree":true,"operatingDays":"평일+토요일+공휴일","weekdayOpen":"00:00","weekdayClose":"23:59","weekendOpen":"00:00","weekendClose":"23:59","holidayOpen":"00:00","holidayClose":"23:59","feeInfo":"무료","phone":"033-340-2243","updatedAt":"2023-08-30","sido":"강원특별자치도","sigungu":"횡성군","dong":"횡성읍"},{"name":"중앙연립 앞","type":"공영","category":"노외","address":"강원특별자치도 횡성군 횡성읍 읍하리 347-15","lat":37.49310779,"lng":127.9825642,"totalSpaces":7,"isFree":true,"operatingDays":"평일+토요일+공휴일","weekdayOpen":"00:00","weekdayClose":"23:59","weekendOpen":"00:00","weekendClose":"23:59","holidayOpen":"00:00","holidayClose":"23:59","feeInfo":"무료","phone":"033-340-2243","updatedAt":"2023-08-30","sido":"강원특별자치도","sigungu":"횡성군","dong":"횡성읍"},{"name":"둔내한의원~영흥종묘사","type":"공영","category":"노상","address":"강원특별자치도 횡성군 둔내면 자포곡리 413-4","lat":37.51163026,"lng":128.2177656,"totalSpaces":6,"isFree":true,"operatingDays":"평일+토요일+공휴일","weekdayOpen":"00:00","weekdayClose":"23:59","weekendOpen":"00:00","weekendClose":"23:59","holidayOpen":"00:00","holidayClose":"23:59","feeInfo":"무료","phone":"033-340-2243","updatedAt":"2023-08-30","sido":"강원특별자치도","sigungu":"횡성군","dong":"둔내면"},{"name":"문화OK마트~CU둔내문화점","type":"공영","category":"노상","address":"강원특별자치도 횡성군 둔내면 둔방내리 584-7","lat":37.51328125,"lng":128.2117411,"totalSpaces":5,"isFree":true,"operatingDays":"평일+토요일+공휴일","weekdayOpen":"00:00","weekdayClose":"23:59","weekendOpen":"00:00","weekendClose":"23:59","holidayOpen":"00:00","holidayClose":"23:59","feeInfo":"무료","phone":"033-340-2243","updatedAt":"2023-08-30","sido":"강원특별자치도","sigungu":"횡성군","dong":"둔내면"},{"name":"이디아커피 앞","type":"공영","category":"노상","address":"강원특별자치도 횡성군 둔내면 둔방내리 588-1","lat":37.51299321,"lng":128.2115706,"totalSpaces":5,"isFree":true,"operatingDays":"평일+토요일+공휴일","weekdayOpen":"00:00","weekdayClose":"23:59","weekendOpen":"00:00","weekendClose":"23:59","holidayOpen":"00:00","holidayClose":"23:59","feeInfo":"무료","phone":"033-340-2243","updatedAt":"2023-08-30","sido":"강원특별자치도","sigungu":"횡성군","dong":"둔내면"},{"name":"횡성동물병원 인근 공터주차장","type":"공영","category":"노외","address":"강원특별자치도 횡성군 횡성읍 읍상리 676-1","lat":37.48723303,"lng":127.9854264,"totalSpaces":4,"isFree":true,"operatingDays":"평일+토요일+공휴일","weekdayOpen":"00:00","weekdayClose":"23:59","weekendOpen":"00:00","weekendClose":"23:59","holidayOpen":"00:00","holidayClose":"23:59","feeInfo":"무료","phone":"033-340-2243","updatedAt":"2023-08-30","sido":"강원특별자치도","sigungu":"횡성군","dong":"횡성읍"},{"name":"성북초교 후문","type":"공영","category":"노외","address":"강원특별자치도 횡성군 횡성읍 읍상리 592-8","lat":37.49082894,"lng":127.9919509,"totalSpaces":4,"isFree":true,"operatingDays":"평일+토요일+공휴일","weekdayOpen":"00:00","weekdayClose":"23:59","weekendOpen":"00:00","weekendClose":"23:59","holidayOpen":"00:00","holidayClose":"23:59","feeInfo":"무료","phone":"033-340-2243","updatedAt":"2023-08-30","sido":"강원특별자치도","sigungu":"횡성군","dong":"횡성읍"},{"name":"둔내막국수~일품식당","type":"공영","category":"노상","address":"강원특별자치도 횡성군 둔내면 둔방내리 107-5","lat":37.51254719,"lng":128.2140467,"totalSpaces":4,"isFree":true,"operatingDays":"평일+토요일+공휴일","weekdayOpen":"00:00","weekdayClose":"23:59","weekendOpen":"00:00","weekendClose":"23:59","holidayOpen":"00:00","holidayClose":"23:59","feeInfo":"무료","phone":"033-340-2243","updatedAt":"2023-08-30","sido":"강원특별자치도","sigungu":"횡성군","dong":"둔내면"},{"name":"둔내미니스톱 앞","type":"공영","category":"노상","address":"강원특별자치도 횡성군 둔내면 둔방내리 107-1","lat":37.51276341,"lng":128.2140699,"totalSpaces":3,"isFree":true,"operatingDays":"평일+토요일+공휴일","weekdayOpen":"00:00","weekdayClose":"23:59","weekendOpen":"00:00","weekendClose":"23:59","holidayOpen":"00:00","holidayClose":"23:59","feeInfo":"무료","phone":"033-340-2243","updatedAt":"2023-08-30","sido":"강원특별자치도","sigungu":"횡성군","dong":"둔내면"},{"name":"공근하나로마트앞","type":"공영","category":"노상","address":"강원특별자치도 횡성군 공근면 학담리 58-6","lat":37.53556264,"lng":127.9626853,"totalSpaces":3,"isFree":true,"operatingDays":"평일+토요일+공휴일","weekdayOpen":"00:00","weekdayClose":"23:59","weekendOpen":"00:00","weekendClose":"23:59","holidayOpen":"00:00","holidayClose":"23:59","feeInfo":"무료","phone":"033-340-2243","updatedAt":"2023-08-30","sido":"강원특별자치도","sigungu":"횡성군","dong":"공근면"},{"name":"횡성성결교회 뒷편 삼거리","type":"공영","category":"노외","address":"강원특별자치도 횡성군 횡성읍 읍하리 338-7","lat":37.49182843,"lng":127.9839781,"totalSpaces":3,"isFree":true,"operatingDays":"평일+토요일+공휴일","weekdayOpen":"00:00","weekdayClose":"23:59","weekendOpen":"00:00","weekendClose":"23:59","holidayOpen":"00:00","holidayClose":"23:59","feeInfo":"무료","phone":"033-340-2243","updatedAt":"2023-08-30","sido":"강원특별자치도","sigungu":"횡성군","dong":"횡성읍"},{"name":"강원식당 ~ 횡성불교사","type":"공영","category":"노상","address":"강원특별자치도 횡성군 횡성읍 읍하리 90-1","lat":37.49084322,"lng":127.9846205,"totalSpaces":12,"isFree":false,"operatingDays":"평일","weekdayOpen":"09:00","weekdayClose":"18:00","weekendOpen":"00:00","weekendClose":"00:00","holidayOpen":"00:00","holidayClose":"00:00","feeInfo":"기본 30분 600원 / 추가 30분당 600원","phone":"033-340-2243","updatedAt":"2023-08-30","sido":"강원특별자치도","sigungu":"횡성군","dong":"횡성읍"},{"name":"우리지붕공사 ~ 별빛포차","type":"공영","category":"노상","address":"강원특별자치도 횡성군 횡성읍 읍상리 377-5","lat":37.4925588,"lng":127.9886825,"totalSpaces":12,"isFree":false,"operatingDays":"평일","weekdayOpen":"09:00","weekdayClose":"18:00","weekendOpen":"00:00","weekendClose":"00:00","holidayOpen":"00:00","holidayClose":"00:00","feeInfo":"기본 30분 600원 / 추가 30분당 600원","phone":"033-340-2243","updatedAt":"2023-08-30","sido":"강원특별자치도","sigungu":"횡성군","dong":"횡성읍"},{"name":"일성당약국 ~ 삼천리자전거","type":"공영","category":"노상","address":"강원특별자치도 횡성군 횡성읍 읍상리 573-1","lat":37.48959391,"lng":127.9865778,"totalSpaces":11,"isFree":false,"operatingDays":"평일","weekdayOpen":"09:00","weekdayClose":"18:00","weekendOpen":"00:00","weekendClose":"00:00","holidayOpen":"00:00","holidayClose":"00:00","feeInfo":"기본 30분 600원 / 추가 30분당 600원","phone":"033-340-2243","updatedAt":"2023-08-30","sido":"강원특별자치도","sigungu":"횡성군","dong":"횡성읍"},{"name":"사월에호텔 ~ 영재스포츠","type":"공영","category":"노상","address":"강원특별자치도 횡성군 횡성읍 읍하리 134-19","lat":37.49036803,"lng":127.9841146,"totalSpaces":9,"isFree":false,"operatingDays":"평일","weekdayOpen":"09:00","weekdayClose":"18:00","weekendOpen":"00:00","weekendClose":"00:00","holidayOpen":"00:00","holidayClose":"00:00","feeInfo":"기본 30분 600원 / 추가 30분당 600원","phone":"033-340-2243","updatedAt":"2023-08-30","sido":"강원특별자치도","sigungu":"횡성군","dong":"횡성읍"},{"name":"큰손왕만두 ~ 로타리슈퍼","type":"공영","category":"노상","address":"강원특별자치도 횡성군 횡성읍 읍상리 386-12","lat":37.49091865,"lng":127.9868733,"totalSpaces":9,"isFree":false,"operatingDays":"평일","weekdayOpen":"09:00","weekdayClose":"18:00","weekendOpen":"00:00","weekendClose":"00:00","holidayOpen":"00:00","holidayClose":"00:00","feeInfo":"기본 30분 600원 / 추가 30분당 600원","phone":"033-340-2243","updatedAt":"2023-08-30","sido":"강원특별자치도","sigungu":"횡성군","dong":"횡성읍"},{"name":"횡성등기소 앞","type":"공영","category":"노상","address":"강원특별자치도 횡성군 횡성읍 읍상리 300-1","lat":37.48917974,"lng":127.9890674,"totalSpaces":9,"isFree":false,"operatingDays":"평일","weekdayOpen":"09:00","weekdayClose":"18:00","weekendOpen":"00:00","weekendClose":"00:00","holidayOpen":"00:00","holidayClose":"00:00","feeInfo":"기본 30분 600원 / 추가 30분당 600원","phone":"033-340-2243","updatedAt":"2023-08-30","sido":"강원특별자치도","sigungu":"횡성군","dong":"횡성읍"},{"name":"신전떡볶이 ~ 서원건축","type":"공영","category":"노상","address":"강원특별자치도 횡성군 횡성읍 읍상리 384-4","lat":37.49162953,"lng":127.9876602,"totalSpaces":8,"isFree":false,"operatingDays":"평일","weekdayOpen":"09:00","weekdayClose":"18:00","weekendOpen":"00:00","weekendClose":"00:00","holidayOpen":"00:00","holidayClose":"00:00","feeInfo":"기본 30분 600원 / 추가 30분당 600원","phone":"033-340-2243","updatedAt":"2023-08-30","sido":"강원특별자치도","sigungu":"횡성군","dong":"횡성읍"},{"name":"명문공인중개사 ~ 강남식당","type":"공영","category":"노상","address":"강원특별자치도 횡성군 횡성읍 읍하리 86-3","lat":37.49073826,"lng":127.9852675,"totalSpaces":8,"isFree":false,"operatingDays":"평일","weekdayOpen":"09:00","weekdayClose":"18:00","weekendOpen":"00:00","weekendClose":"00:00","holidayOpen":"00:00","holidayClose":"00:00","feeInfo":"기본 30분 600원 / 추가 30분당 600원","phone":"033-340-2243","updatedAt":"2023-08-30","sido":"강원특별자치도","sigungu":"횡성군","dong":"횡성읍"},{"name":"청일한약방 ~ 경의한의원","type":"공영","category":"노상","address":"강원특별자치도 횡성군 횡성읍 읍하리 79-4","lat":37.49092754,"lng":127.9857311,"totalSpaces":7,"isFree":false,"operatingDays":"평일","weekdayOpen":"09:00","weekdayClose":"18:00","weekendOpen":"00:00","weekendClose":"00:00","holidayOpen":"00:00","holidayClose":"00:00","feeInfo":"기본 30분 600원 / 추가 30분당 600원","phone":"033-340-2243","updatedAt":"2023-08-30","sido":"강원특별자치도","sigungu":"횡성군","dong":"횡성읍"},{"name":"군의회 ~ 삼일설렁탕","type":"공영","category":"노상","address":"강원특별자치도 횡성군 횡성읍 읍하리 58-9","lat":37.49200887,"lng":127.9858779,"totalSpaces":6,"isFree":false,"operatingDays":"평일","weekdayOpen":"09:00","weekdayClose":"18:00","weekendOpen":"00:00","weekendClose":"00:00","holidayOpen":"00:00","holidayClose":"00:00","feeInfo":"기본 30분 600원 / 추가 30분당 600원","phone":"033-340-2243","updatedAt":"2023-08-30","sido":"강원특별자치도","sigungu":"횡성군","dong":"횡성읍"},{"name":"미카도스시 ~ 올리브영","type":"공영","category":"노상","address":"강원특별자치도 횡성군 횡성읍 읍하리 94-16","lat":37.48991827,"lng":127.9852676,"totalSpaces":6,"isFree":false,"operatingDays":"평일","weekdayOpen":"09:00","weekdayClose":"18:00","weekendOpen":"00:00","weekendClose":"00:00","holidayOpen":"00:00","holidayClose":"00:00","feeInfo":"기본 30분 600원 / 추가 30분당 600원","phone":"033-340-2243","updatedAt":"2023-08-30","sido":"강원특별자치도","sigungu":"횡성군","dong":"횡성읍"},{"name":"만능철물공구 ~ 횡성더덕공판장","type":"공영","category":"노상","address":"강원특별자치도 횡성군 횡성읍 읍상리 335","lat":37.49081072,"lng":127.9891237,"totalSpaces":6,"isFree":false,"operatingDays":"평일","weekdayOpen":"09:00","weekdayClose":"18:00","weekendOpen":"00:00","weekendClose":"00:00","holidayOpen":"00:00","holidayClose":"00:00","feeInfo":"기본 30분 600원 / 추가 30분당 600원","phone":"033-340-2243","updatedAt":"2023-08-30","sido":"강원특별자치도","sigungu":"횡성군","dong":"횡성읍"},{"name":"노루표페인트 ~ 만능건재","type":"공영","category":"노상","address":"강원특별자치도 횡성군 횡성읍 읍상리 574-10","lat":37.49116206,"lng":127.9881059,"totalSpaces":5,"isFree":false,"operatingDays":"평일","weekdayOpen":"09:00","weekdayClose":"18:00","weekendOpen":"00:00","weekendClose":"00:00","holidayOpen":"00:00","holidayClose":"00:00","feeInfo":"기본 30분 600원 / 추가 30분당 600원","phone":"033-340-2243","updatedAt":"2023-08-30","sido":"강원특별자치도","sigungu":"횡성군","dong":"횡성읍"},{"name":"횡성군농업인회관 앞","type":"공영","category":"노상","address":"강원특별자치도 횡성군 횡성읍 읍상리 298-9","lat":37.48943204,"lng":127.9890008,"totalSpaces":3,"isFree":false,"operatingDays":"평일","weekdayOpen":"09:00","weekdayClose":"18:00","weekendOpen":"00:00","weekendClose":"00:00","holidayOpen":"00:00","holidayClose":"00:00","feeInfo":"기본 30분 600원 / 추가 30분당 600원","phone":"033-340-2243","updatedAt":"2023-08-30","sido":"강원특별자치도","sigungu":"횡성군","dong":"횡성읍"},{"name":"형제보일러 ~ 한성막국수","type":"공영","category":"노상","address":"강원특별자치도 횡성군 횡성읍 읍상리 347-1","lat":37.49114409,"lng":127.9886612,"totalSpaces":2,"isFree":false,"operatingDays":"평일","weekdayOpen":"09:00","weekdayClose":"18:00","weekendOpen":"00:00","weekendClose":"00:00","holidayOpen":"00:00","holidayClose":"00:00","feeInfo":"기본 30분 600원 / 추가 30분당 600원","phone":"033-340-2243","updatedAt":"2023-08-30","sido":"강원특별자치도","sigungu":"횡성군","dong":"횡성읍"},{"name":"평화당한의원 앞","type":"공영","category":"노상","address":"강원특별자치도 횡성군 횡성읍 읍상리 298-14","lat":37.48984211,"lng":127.9889542,"totalSpaces":1,"isFree":false,"operatingDays":"평일","weekdayOpen":"09:00","weekdayClose":"18:00","weekendOpen":"00:00","weekendClose":"00:00","holidayOpen":"00:00","holidayClose":"00:00","feeInfo":"기본 30분 600원 / 추가 30분당 600원","phone":"033-340-2243","updatedAt":"2023-08-30","sido":"강원특별자치도","sigungu":"횡성군","dong":"횡성읍"}]}