{"sido":"충청남도","sigungu":"공주시","totalCount":163,"validCount":120,"items":[{"name":"신관금강공원 주차장","type":"공영","category":"노외","address":"충청남도 공주시 신관동 553","lat":36.47021499,"lng":127.1274388399,"totalSpaces":263,"isFree":true,"operatingDays":"평일+토요일+공휴일","weekdayOpen":"00:00","weekdayClose":"23:59","weekendOpen":"00:00","weekendClose":"23:59","holidayOpen":"00:00","holidayClose":"23:59","feeInfo":"무료","phone":"041-840-8503","updatedAt":"2024-08-28","sido":"충청남도","sigungu":"공주시","dong":"신관동"},{"name":"유구마곡사로 주차장","type":"공영","category":"노상","address":"충청남도 공주시 사곡면 운암리731-2","lat":36.556171,"lng":127.0205918,"totalSpaces":200,"isFree":true,"operatingDays":"평일+토요일+공휴일","weekdayOpen":"00:00","weekdayClose":"23:59","weekendOpen":"00:00","weekendClose":"23:59","holidayOpen":"00:00","holidayClose":"23:59","feeInfo":"무료","phone":"041-840-8503","updatedAt":"2024-08-28","sido":"충청남도","sigungu":"공주시","dong":"사곡면"},{"name":"금학동 공영주차장","type":"공영","category":"노외","address":"충청남도 공주시 금학동 105-3","lat":36.434861,"lng":127.1238659,"totalSpaces":141,"isFree":true,"operatingDays":"평일+토요일+공휴일","weekdayOpen":"00:00","weekdayClose":"23:59","weekendOpen":"00:00","weekendClose":"23:59","holidayOpen":"00:00","holidayClose":"23:59","feeInfo":"무료","phone":"041-840-8503","updatedAt":"2024-08-28","sido":"충청남도","sigungu":"공주시","dong":"금학동"},{"name":"신관대학로 주차장","type":"공영","category":"노외","address":"충청남도 공주시 신관동 241-9","lat":36.471201,"lng":127.1381607,"totalSpaces":118,"isFree":true,"operatingDays":"평일+토요일+공휴일","weekdayOpen":"00:00","weekdayClose":"23:59","weekendOpen":"00:00","weekendClose":"23:59","holidayOpen":"00:00","holidayClose":"23:59","feeInfo":"무료","phone":"","updatedAt":"2024-08-28","sido":"충청남도","sigungu":"공주시","dong":"신관동"},{"name":"공주고 앞 주차장","type":"공영","category":"노외","address":"충청남도 공주시 중학동 197-2","lat":36.448991,"lng":127.123037,"totalSpaces":102,"isFree":true,"operatingDays":"평일+토요일+공휴일","weekdayOpen":"00:00","weekdayClose":"23:59","weekendOpen":"00:00","weekendClose":"23:59","holidayOpen":"00:00","holidayClose":"23:59","feeInfo":"무료","phone":"041-840-8503","updatedAt":"2024-08-28","sido":"충청남도","sigungu":"공주시","dong":"중학동"},{"name":"신관동 공영주차장","type":"공영","category":"노외","address":"충청남도 공주시 신관동 280-14","lat":36.475102,"lng":127.1459389,"totalSpaces":101,"isFree":true,"operatingDays":"평일+토요일+공휴일","weekdayOpen":"00:00","weekdayClose":"23:59","weekendOpen":"00:00","weekendClose":"23:59","holidayOpen":"00:00","holidayClose":"23:59","feeInfo":"무료","phone":"041-840-8503","updatedAt":"2024-08-28","sido":"충청남도","sigungu":"공주시","dong":"신관동"},{"name":"반죽동 공영주차장","type":"공영","category":"노외","address":"충청남도 공주시 반죽동 332-3","lat":36.453651,"lng":127.1207809,"totalSpaces":92,"isFree":true,"operatingDays":"평일+토요일+공휴일","weekdayOpen":"00:00","weekdayClose":"23:59","weekendOpen":"00:00","weekendClose":"23:59","holidayOpen":"00:00","holidayClose":"23:59","feeInfo":"무료","phone":"041-840-8503","updatedAt":"2024-08-28","sido":"충청남도","sigungu":"공주시","dong":"반죽동"},{"name":"쌍신동 금강공영주차장","type":"공영","category":"노외","address":"충청남도 공주시 쌍신동 422","lat":36.476141,"lng":127.109819,"totalSpaces":84,"isFree":true,"operatingDays":"평일+토요일+공휴일","weekdayOpen":"00:00","weekdayClose":"23:59","weekendOpen":"00:00","weekendClose":"23:59","holidayOpen":"00:00","holidayClose":"23:59","feeInfo":"무료","phone":"041-840-8503","updatedAt":"2024-08-28","sido":"충청남도","sigungu":"공주시","dong":"쌍신동"},{"name":"다목적광장 주차장","type":"공영","category":"노외","address":"충청남도 공주시 금성동 69-1","lat":36.466608,"lng":127.123193,"totalSpaces":83,"isFree":true,"operatingDays":"평일+토요일+공휴일","weekdayOpen":"00:00","weekdayClose":"23:59","weekendOpen":"00:00","weekendClose":"23:59","holidayOpen":"00:00","holidayClose":"23:59","feeInfo":"무료","phone":"041-840-8503","updatedAt":"2024-08-28","sido":"충청남도","sigungu":"공주시","dong":"금성동"},{"name":"유구읍 주차장","type":"공영","category":"노외","address":"충청남도 공주시 유구읍 석남리 291","lat":36.552717,"lng":126.9528201,"totalSpaces":74,"isFree":true,"operatingDays":"평일+토요일+공휴일","weekdayOpen":"00:00","weekdayClose":"23:59","weekendOpen":"00:00","weekendClose":"23:59","holidayOpen":"00:00","holidayClose":"23:59","feeInfo":"무료","phone":"041-840-8503","updatedAt":"2024-08-28","sido":"충청남도","sigungu":"공주시","dong":"유구읍"},{"name":"교동 교회주차장","type":"공영","category":"노외","address":"충청남도 공주시 교동 153-6","lat":36.457213,"lng":127.1196846,"totalSpaces":67,"isFree":true,"operatingDays":"평일+토요일+공휴일","weekdayOpen":"00:00","weekdayClose":"23:59","weekendOpen":"00:00","weekendClose":"23:59","holidayOpen":"00:00","holidayClose":"23:59","feeInfo":"무료","phone":"","updatedAt":"2024-08-28","sido":"충청남도","sigungu":"공주시","dong":"교동"},{"name":"옥룡동 공영주차장","type":"공영","category":"노외","address":"충청남도 공주시 옥룡동 296","lat":36.456183,"lng":127.1308531,"totalSpaces":63,"isFree":true,"operatingDays":"평일+토요일+공휴일","weekdayOpen":"00:00","weekdayClose":"23:59","weekendOpen":"00:00","weekendClose":"23:59","holidayOpen":"00:00","holidayClose":"23:59","feeInfo":"무료","phone":"","updatedAt":"2024-08-28","sido":"충청남도","sigungu":"공주시","dong":"옥룡동"},{"name":"유구자카드 주차장","type":"공영","category":"노외","address":"충청남도 공주시 유구읍 백교리 619","lat":36.547825,"lng":126.939446,"totalSpaces":61,"isFree":true,"operatingDays":"평일+토요일+공휴일","weekdayOpen":"00:00","weekdayClose":"23:59","weekendOpen":"00:00","weekendClose":"23:59","holidayOpen":"00:00","holidayClose":"23:59","feeInfo":"무료","phone":"","updatedAt":"2024-08-28","sido":"충청남도","sigungu":"공주시","dong":"유구읍"},{"name":"대통1길 주차장","type":"공영","category":"노상","address":"충청남도 공주시 봉황동 91-3","lat":36.449006,"lng":127.1219954,"totalSpaces":53,"isFree":true,"operatingDays":"평일+토요일+공휴일","weekdayOpen":"00:00","weekdayClose":"23:59","weekendOpen":"00:00","weekendClose":"23:59","holidayOpen":"00:00","holidayClose":"23:59","feeInfo":"무료","phone":"041-840-8503","updatedAt":"2024-08-28","sido":"충청남도","sigungu":"공주시","dong":"봉황동"},{"name":"우성면 주차장","type":"공영","category":"노외","address":"충청남도 공주시 우성면 동대리 145-1","lat":36.469475,"lng":127.053372,"totalSpaces":50,"isFree":true,"operatingDays":"평일+토요일+공휴일","weekdayOpen":"00:00","weekdayClose":"23:59","weekendOpen":"00:00","weekendClose":"23:59","holidayOpen":"00:00","holidayClose":"23:59","feeInfo":"무료","phone":"041-840-8503","updatedAt":"2024-08-28","sido":"충청남도","sigungu":"공주시","dong":"우성면"},{"name":"금학동 공영주차장","type":"공영","category":"노외","address":"충청남도 공주시 금학동 290","lat":36.440152,"lng":127.117993,"totalSpaces":44,"isFree":true,"operatingDays":"평일+토요일+공휴일","weekdayOpen":"00:00","weekdayClose":"23:59","weekendOpen":"00:00","weekendClose":"23:59","holidayOpen":"00:00","holidayClose":"23:59","feeInfo":"무료","phone":"041-840-8503","updatedAt":"2024-08-28","sido":"충청남도","sigungu":"공주시","dong":"금학동"},{"name":"옥룡동 공영주차장","type":"공영","category":"노외","address":"충청남도 공주시 옥룡동 90-1","lat":36.448755,"lng":127.1360497,"totalSpaces":42,"isFree":true,"operatingDays":"평일+토요일+공휴일","weekdayOpen":"00:00","weekdayClose":"23:59","weekendOpen":"00:00","weekendClose":"23:59","holidayOpen":"00:00","holidayClose":"23:59","feeInfo":"무료","phone":"041-840-8503","updatedAt":"2024-08-28","sido":"충청남도","sigungu":"공주시","dong":"옥룡동"},{"name":"신관로 주차장","type":"공영","category":"노상","address":"충청남도 공주시 신관동 629","lat":36.470439,"lng":127.132138,"totalSpaces":39,"isFree":true,"operatingDays":"평일+토요일+공휴일","weekdayOpen":"00:00","weekdayClose":"23:59","weekendOpen":"00:00","weekendClose":"23:59","holidayOpen":"00:00","holidayClose":"23:59","feeInfo":"무료","phone":"041-840-8503","updatedAt":"2024-08-28","sido":"충청남도","sigungu":"공주시","dong":"신관동"},{"name":"공주고담길 주차장","type":"공영","category":"노상","address":"충청남도 공주시 중학동 137-21","lat":36.446546,"lng":127.1238761,"totalSpaces":36,"isFree":true,"operatingDays":"평일+토요일+공휴일","weekdayOpen":"00:00","weekdayClose":"23:59","weekendOpen":"00:00","weekendClose":"23:59","holidayOpen":"00:00","holidayClose":"23:59","feeInfo":"무료","phone":"041-840-8503","updatedAt":"2024-08-28","sido":"충청남도","sigungu":"공주시","dong":"중학동"},{"name":"반죽동 공주성결교회주차장","type":"공영","category":"노외","address":"충청남도 공주시 반죽동 153-8","lat":36.454339,"lng":127.1229462,"totalSpaces":36,"isFree":true,"operatingDays":"평일+토요일+공휴일","weekdayOpen":"00:00","weekdayClose":"23:59","weekendOpen":"00:00","weekendClose":"23:59","holidayOpen":"00:00","holidayClose":"23:59","feeInfo":"무료","phone":"041-840-8503","updatedAt":"2024-08-28","sido":"충청남도","sigungu":"공주시","dong":"반죽동"},{"name":"산성동 주차장(3)","type":"공영","category":"노외","address":"충청남도 공주시 산성동 146-10","lat":36.458778,"lng":127.126881,"totalSpaces":36,"isFree":true,"operatingDays":"평일+토요일+공휴일","weekdayOpen":"00:00","weekdayClose":"23:59","weekendOpen":"00:00","weekendClose":"23:59","holidayOpen":"00:00","holidayClose":"23:59","feeInfo":"무료","phone":"041-840-8503","updatedAt":"2024-08-28","sido":"충청남도","sigungu":"공주시","dong":"산성동"},{"name":"정안중앙길 주차장","type":"공영","category":"노상","address":"충청남도 공주시 정안면 광정리 270-9","lat":36.609059,"lng":127.120983,"totalSpaces":34,"isFree":true,"operatingDays":"평일+토요일+공휴일","weekdayOpen":"00:00","weekdayClose":"23:59","weekendOpen":"00:00","weekendClose":"23:59","holidayOpen":"00:00","holidayClose":"23:59","feeInfo":"무료","phone":"041-840-8503","updatedAt":"2024-08-28","sido":"충청남도","sigungu":"공주시","dong":"정안면"},{"name":"옥룡동 공영주차장","type":"공영","category":"노외","address":"충청남도 공주시 옥룡동 11-11","lat":36.457841,"lng":127.135184,"totalSpaces":33,"isFree":true,"operatingDays":"평일+토요일+공휴일","weekdayOpen":"00:00","weekdayClose":"23:59","weekendOpen":"00:00","weekendClose":"23:59","holidayOpen":"00:00","holidayClose":"23:59","feeInfo":"무료","phone":"041-840-8503","updatedAt":"2024-08-28","sido":"충청남도","sigungu":"공주시","dong":"옥룡동"},{"name":"탄천면 복지관 주차장","type":"공영","category":"노외","address":"충청남도 공주시 탄천면 삼각리 487","lat":36.331277,"lng":127.028844,"totalSpaces":31,"isFree":true,"operatingDays":"평일+토요일+공휴일","weekdayOpen":"00:00","weekdayClose":"23:59","weekendOpen":"00:00","weekendClose":"23:59","holidayOpen":"00:00","holidayClose":"23:59","feeInfo":"무료","phone":"041-840-8503","updatedAt":"2024-08-28","sido":"충청남도","sigungu":"공주시","dong":"탄천면"},{"name":"유구읍 쌈지주차장","type":"공영","category":"노외","address":"충청남도 공주시 유구읍 석남리 337","lat":36.549965,"lng":126.9518724,"totalSpaces":30,"isFree":true,"operatingDays":"평일+토요일+공휴일","weekdayOpen":"00:00","weekdayClose":"23:59","weekendOpen":"00:00","weekendClose":"23:59","holidayOpen":"00:00","holidayClose":"23:59","feeInfo":"무료","phone":"041-840-8503","updatedAt":"2024-08-28","sido":"충청남도","sigungu":"공주시","dong":"유구읍"},{"name":"옥룡동 쌈지주차장","type":"공영","category":"노외","address":"충청남도 공주시 옥룡동 154-3","lat":36.448817,"lng":127.130275,"totalSpaces":30,"isFree":true,"operatingDays":"평일+토요일+공휴일","weekdayOpen":"00:00","weekdayClose":"23:59","weekendOpen":"00:00","weekendClose":"23:59","holidayOpen":"00:00","holidayClose":"23:59","feeInfo":"무료","phone":"041-840-8503","updatedAt":"2024-08-28","sido":"충청남도","sigungu":"공주시","dong":"옥룡동"},{"name":"옥룡동 교회주차장","type":"공영","category":"노외","address":"충청남도 공주시 옥룡동 167-2","lat":36.451821,"lng":127.1346205,"totalSpaces":30,"isFree":true,"operatingDays":"평일+토요일+공휴일","weekdayOpen":"00:00","weekdayClose":"23:59","weekendOpen":"00:00","weekendClose":"23:59","holidayOpen":"00:00","holidayClose":"23:59","feeInfo":"무료","phone":"041-840-8503","updatedAt":"2024-08-28","sido":"충청남도","sigungu":"공주시","dong":"옥룡동"},{"name":"정안면 주차장","type":"공영","category":"노외","address":"충청남도 공주시 정안면 광정리 283-7","lat":36.609321,"lng":127.1226893,"totalSpaces":30,"isFree":true,"operatingDays":"평일+토요일+공휴일","weekdayOpen":"00:00","weekdayClose":"23:59","weekendOpen":"00:00","weekendClose":"23:59","holidayOpen":"00:00","holidayClose":"23:59","feeInfo":"무료","phone":"041-840-8503","updatedAt":"2024-08-28","sido":"충청남도","sigungu":"공주시","dong":"정안면"},{"name":"신관동 쌈지주차장","type":"공영","category":"노외","address":"충청남도 공주시 신관동 606-9","lat":36.468844,"lng":127.132563,"totalSpaces":29,"isFree":true,"operatingDays":"평일+토요일+공휴일","weekdayOpen":"00:00","weekdayClose":"23:59","weekendOpen":"00:00","weekendClose":"23:59","holidayOpen":"00:00","holidayClose":"23:59","feeInfo":"무료","phone":"041-840-8503","updatedAt":"2024-08-28","sido":"충청남도","sigungu":"공주시","dong":"신관동"},{"name":"우성문화마을 주차장","type":"공영","category":"노외","address":"충청남도 공주시 우성면 단지리 337-1","lat":36.476008,"lng":127.063408,"totalSpaces":29,"isFree":true,"operatingDays":"평일+토요일+공휴일","weekdayOpen":"00:00","weekdayClose":"23:59","weekendOpen":"00:00","weekendClose":"23:59","holidayOpen":"00:00","holidayClose":"23:59","feeInfo":"무료","phone":"041-840-8503","updatedAt":"2024-08-28","sido":"충청남도","sigungu":"공주시","dong":"우성면"},{"name":"의당문화마을 주차장","type":"공영","category":"노외","address":"충청남도 공주시 의당면 청룡리 818","lat":36.500362,"lng":127.1415048,"totalSpaces":28,"isFree":true,"operatingDays":"평일+토요일+공휴일","weekdayOpen":"00:00","weekdayClose":"23:59","weekendOpen":"00:00","weekendClose":"23:59","holidayOpen":"00:00","holidayClose":"23:59","feeInfo":"무료","phone":"041-840-8503","updatedAt":"2024-08-28","sido":"충청남도","sigungu":"공주시","dong":"의당면"},{"name":"옥룡동 쌈지주차장(22)","type":"공영","category":"노외","address":"충청남도 공주시 옥룡동 4-5","lat":36.459196,"lng":127.137420009,"totalSpaces":26,"isFree":true,"operatingDays":"평일+토요일+공휴일","weekdayOpen":"00:00","weekdayClose":"23:59","weekendOpen":"00:00","weekendClose":"23:59","holidayOpen":"00:00","holidayClose":"23:59","feeInfo":"무료","phone":"041-840-8503","updatedAt":"2024-08-28","sido":"충청남도","sigungu":"공주시","dong":"옥룡동"},{"name":"신풍면 쌈지주차장","type":"공영","category":"노외","address":"충청남도 공주시 신풍면 산정리 182-14","lat":36.517056,"lng":126.955442,"totalSpaces":25,"isFree":true,"operatingDays":"평일+토요일+공휴일","weekdayOpen":"00:00","weekdayClose":"23:59","weekendOpen":"00:00","weekendClose":"23:59","holidayOpen":"00:00","holidayClose":"23:59","feeInfo":"무료","phone":"041-840-8503","updatedAt":"2024-08-28","sido":"충청남도","sigungu":"공주시","dong":"신풍면"},{"name":"금학동 쌈지주차장","type":"공영","category":"노외","address":"충청남도 공주시 금학동 250-23","lat":36.442013,"lng":127.1200744,"totalSpaces":25,"isFree":true,"operatingDays":"평일+토요일+공휴일","weekdayOpen":"00:00","weekdayClose":"23:59","weekendOpen":"00:00","weekendClose":"23:59","holidayOpen":"00:00","holidayClose":"23:59","feeInfo":"무료","phone":"041-840-8503","updatedAt":"2024-08-28","sido":"충청남도","sigungu":"공주시","dong":"금학동"},{"name":"유구읍 공영주차장","type":"공영","category":"노외","address":"충청남도 공주시 유구읍 석남리 300-2","lat":36.550667,"lng":126.9527959,"totalSpaces":23,"isFree":true,"operatingDays":"평일+토요일+공휴일","weekdayOpen":"00:00","weekdayClose":"23:59","weekendOpen":"00:00","weekendClose":"23:59","holidayOpen":"00:00","holidayClose":"23:59","feeInfo":"무료","phone":"041-840-8503","updatedAt":"2024-08-28","sido":"충청남도","sigungu":"공주시","dong":"유구읍"},{"name":"신풍면사무소 쌈지주차장","type":"공영","category":"노외","address":"충청남도 공주시 신풍면 산정리 144-1","lat":36.514412,"lng":126.9551365,"totalSpaces":22,"isFree":true,"operatingDays":"평일+토요일+공휴일","weekdayOpen":"00:00","weekdayClose":"23:59","weekendOpen":"00:00","weekendClose":"23:59","holidayOpen":"00:00","holidayClose":"23:59","feeInfo":"무료","phone":"041-840-8503","updatedAt":"2024-08-28","sido":"충청남도","sigungu":"공주시","dong":"신풍면"},{"name":"봉황동 주차장","type":"공영","category":"노외","address":"충청남도 공주시 봉황동 202","lat":36.449179,"lng":127.120272,"totalSpaces":22,"isFree":true,"operatingDays":"평일+토요일+공휴일","weekdayOpen":"00:00","weekdayClose":"23:59","weekendOpen":"00:00","weekendClose":"23:59","holidayOpen":"00:00","holidayClose":"23:59","feeInfo":"무료","phone":"041-840-8503","updatedAt":"2024-08-28","sido":"충청남도","sigungu":"공주시","dong":"봉황동"},{"name":"한적2길 주차장","type":"공영","category":"노상","address":"충청남도 공주시 금흥동 621","lat":36.478878,"lng":127.1401911,"totalSpaces":22,"isFree":true,"operatingDays":"평일+토요일+공휴일","weekdayOpen":"00:00","weekdayClose":"23:59","weekendOpen":"00:00","weekendClose":"23:59","holidayOpen":"00:00","holidayClose":"23:59","feeInfo":"무료","phone":"041-840-8503","updatedAt":"2024-08-28","sido":"충청남도","sigungu":"공주시","dong":"금흥동"},{"name":"금성동 공영주차장","type":"공영","category":"노외","address":"충청남도 공주시 금성동 201-1","lat":36.46156005,"lng":127.1232692,"totalSpaces":20,"isFree":true,"operatingDays":"평일+토요일+공휴일","weekdayOpen":"00:00","weekdayClose":"23:59","weekendOpen":"00:00","weekendClose":"23:59","holidayOpen":"00:00","holidayClose":"23:59","feeInfo":"무료","phone":"041-840-8503","updatedAt":"2024-08-28","sido":"충청남도","sigungu":"공주시","dong":"금성동"},{"name":"큰샘 주차장(1)","type":"공영","category":"노외","address":"충청남도 공주시 봉황동 245-1","lat":36.450246,"lng":127.1181609,"totalSpaces":20,"isFree":true,"operatingDays":"평일+토요일+공휴일","weekdayOpen":"00:00","weekdayClose":"23:59","weekendOpen":"00:00","weekendClose":"23:59","holidayOpen":"00:00","holidayClose":"23:59","feeInfo":"무료","phone":"041-840-8503","updatedAt":"2024-08-28","sido":"충청남도","sigungu":"공주시","dong":"봉황동"},{"name":"봉황동 쌈지주차장(2)","type":"공영","category":"노외","address":"충청남도 공주시 봉황동 282-1","lat":36.448741,"lng":127.120281,"totalSpaces":20,"isFree":true,"operatingDays":"평일+토요일+공휴일","weekdayOpen":"00:00","weekdayClose":"23:59","weekendOpen":"00:00","weekendClose":"23:59","holidayOpen":"00:00","holidayClose":"23:59","feeInfo":"무료","phone":"041-840-8503","updatedAt":"2024-08-28","sido":"충청남도","sigungu":"공주시","dong":"봉황동"},{"name":"교동1 주차장","type":"공영","category":"노외","address":"충청남도 공주시 교동 3-35","lat":36.459378,"lng":127.120501,"totalSpaces":20,"isFree":true,"operatingDays":"평일+토요일+공휴일","weekdayOpen":"00:00","weekdayClose":"23:59","weekendOpen":"00:00","weekendClose":"23:59","holidayOpen":"00:00","holidayClose":"23:59","feeInfo":"무료","phone":"041-840-8503","updatedAt":"2024-08-28","sido":"충청남도","sigungu":"공주시","dong":"교동"},{"name":"교동2 주차장","type":"공영","category":"노외","address":"충청남도 공주시 교동 62-4","lat":36.459155,"lng":127.120021,"totalSpaces":20,"isFree":true,"operatingDays":"평일+토요일+공휴일","weekdayOpen":"00:00","weekdayClose":"23:59","weekendOpen":"00:00","weekendClose":"23:59","holidayOpen":"00:00","holidayClose":"23:59","feeInfo":"무료","phone":"041-840-8503","updatedAt":"2024-08-28","sido":"충청남도","sigungu":"공주시","dong":"교동"},{"name":"중학동 쌈지주차장(11)","type":"공영","category":"노외","address":"충청남도 공주시 중학동 15","lat":36.45059032,"lng":127.1254786,"totalSpaces":19,"isFree":true,"operatingDays":"평일+토요일+공휴일","weekdayOpen":"00:00","weekdayClose":"23:59","weekendOpen":"00:00","weekendClose":"23:59","holidayOpen":"00:00","holidayClose":"23:59","feeInfo":"무료","phone":"041-840-8503","updatedAt":"2024-08-28","sido":"충청남도","sigungu":"공주시","dong":"중학동"},{"name":"시나무골 주차장","type":"공영","category":"노외","address":"충청남도 공주시 중학동 179-1","lat":36.445714,"lng":127.1240391,"totalSpaces":19,"isFree":true,"operatingDays":"평일+토요일+공휴일","weekdayOpen":"00:00","weekdayClose":"23:59","weekendOpen":"00:00","weekendClose":"23:59","holidayOpen":"00:00","holidayClose":"23:59","feeInfo":"무료","phone":"041-840-8503","updatedAt":"2024-08-28","sido":"충청남도","sigungu":"공주시","dong":"중학동"},{"name":"큰샘 주차장(2)","type":"공영","category":"노외","address":"충청남도 공주시 봉황동 285","lat":36.449506,"lng":127.119013,"totalSpaces":18,"isFree":true,"operatingDays":"평일+토요일+공휴일","weekdayOpen":"00:00","weekdayClose":"23:59","weekendOpen":"00:00","weekendClose":"23:59","holidayOpen":"00:00","holidayClose":"23:59","feeInfo":"무료","phone":"041-840-8503","updatedAt":"2024-08-28","sido":"충청남도","sigungu":"공주시","dong":"봉황동"},{"name":"계룡문화마을 주차장","type":"공영","category":"노외","address":"충청남도 공주시 계룡면 월암리 382","lat":36.361534,"lng":127.142076,"totalSpaces":18,"isFree":true,"operatingDays":"평일+토요일+공휴일","weekdayOpen":"00:00","weekdayClose":"23:59","weekendOpen":"00:00","weekendClose":"23:59","holidayOpen":"00:00","holidayClose":"23:59","feeInfo":"무료","phone":"041-840-8503","updatedAt":"2024-08-28","sido":"충청남도","sigungu":"공주시","dong":"계룡면"},{"name":"제민1길 주차장","type":"공영","category":"노상","address":"충청남도 공주시 교동 260","lat":36.460282,"lng":127.1217579,"totalSpaces":17,"isFree":true,"operatingDays":"평일+토요일+공휴일","weekdayOpen":"00:00","weekdayClose":"23:59","weekendOpen":"00:00","weekendClose":"23:59","holidayOpen":"00:00","holidayClose":"23:59","feeInfo":"무료","phone":"041-840-8503","updatedAt":"2024-08-28","sido":"충청남도","sigungu":"공주시","dong":"교동"},{"name":"번영1길 주차장","type":"공영","category":"노상","address":"충청남도 공주시 신관동 622","lat":36.472002,"lng":127.133733,"totalSpaces":17,"isFree":true,"operatingDays":"평일+토요일+공휴일","weekdayOpen":"00:00","weekdayClose":"23:59","weekendOpen":"00:00","weekendClose":"23:59","holidayOpen":"00:00","holidayClose":"23:59","feeInfo":"무료","phone":"041-840-8503","updatedAt":"2024-08-28","sido":"충청남도","sigungu":"공주시","dong":"신관동"},{"name":"금학동 공영주차장","type":"공영","category":"노외","address":"충청남도 공주시 금학동 263-22","lat":36.441433,"lng":127.1228808,"totalSpaces":17,"isFree":true,"operatingDays":"평일+토요일+공휴일","weekdayOpen":"00:00","weekdayClose":"23:59","weekendOpen":"00:00","weekendClose":"23:59","holidayOpen":"00:00","holidayClose":"23:59","feeInfo":"무료","phone":"041-840-8503","updatedAt":"2024-08-28","sido":"충청남도","sigungu":"공주시","dong":"금학동"},{"name":"옥룡동 쌈지주차장(21)","type":"공영","category":"노외","address":"충청남도 공주시 옥룡동 109","lat":36.445947,"lng":127.135963,"totalSpaces":17,"isFree":true,"operatingDays":"평일+토요일+공휴일","weekdayOpen":"00:00","weekdayClose":"23:59","weekendOpen":"00:00","weekendClose":"23:59","holidayOpen":"00:00","holidayClose":"23:59","feeInfo":"무료","phone":"041-840-8503","updatedAt":"2024-08-28","sido":"충청남도","sigungu":"공주시","dong":"옥룡동"},{"name":"옥룡동 주차장","type":"공영","category":"노외","address":"충청남도 공주시 옥룡동 46-13","lat":36.455162,"lng":127.134515,"totalSpaces":17,"isFree":true,"operatingDays":"평일+토요일+공휴일","weekdayOpen":"00:00","weekdayClose":"23:59","weekendOpen":"00:00","weekendClose":"23:59","holidayOpen":"00:00","holidayClose":"23:59","feeInfo":"무료","phone":"041-840-8503","updatedAt":"2024-08-28","sido":"충청남도","sigungu":"공주시","dong":"옥룡동"},{"name":"쪽지골 주차장","type":"공영","category":"노외","address":"충청남도 공주시 중학동 143-18","lat":36.448659,"lng":127.1245228,"totalSpaces":17,"isFree":true,"operatingDays":"평일+토요일+공휴일","weekdayOpen":"00:00","weekdayClose":"23:59","weekendOpen":"00:00","weekendClose":"23:59","holidayOpen":"00:00","holidayClose":"23:59","feeInfo":"무료","phone":"041-840-8503","updatedAt":"2024-08-28","sido":"충청남도","sigungu":"공주시","dong":"중학동"},{"name":"월암리 쌈지주차장","type":"공영","category":"노외","address":"충청남도 공주시 계룡면 월암리 86","lat":36.360373,"lng":127.1405725,"totalSpaces":16,"isFree":true,"operatingDays":"평일+토요일+공휴일","weekdayOpen":"00:00","weekdayClose":"23:59","weekendOpen":"00:00","weekendClose":"23:59","holidayOpen":"00:00","holidayClose":"23:59","feeInfo":"무료","phone":"041-840-8503","updatedAt":"2024-08-28","sido":"충청남도","sigungu":"공주시","dong":"계룡면"},{"name":"반죽동 주차장","type":"공영","category":"노외","address":"충청남도 공주시 반죽동 28","lat":36.455502,"lng":127.1208817,"totalSpaces":16,"isFree":true,"operatingDays":"평일+토요일+공휴일","weekdayOpen":"00:00","weekdayClose":"23:59","weekendOpen":"00:00","weekendClose":"23:59","holidayOpen":"00:00","holidayClose":"23:59","feeInfo":"무료","phone":"041-840-8503","updatedAt":"2024-08-28","sido":"충청남도","sigungu":"공주시","dong":"반죽동"},{"name":"탄천농협창고 주자창","type":"공영","category":"노외","address":"충청남도 공주시 탄천면 삼각리 504-16","lat":36.330316,"lng":127.0287573,"totalSpaces":16,"isFree":true,"operatingDays":"평일+토요일+공휴일","weekdayOpen":"00:00","weekdayClose":"23:59","weekendOpen":"00:00","weekendClose":"23:59","holidayOpen":"00:00","holidayClose":"23:59","feeInfo":"무료","phone":"041-840-8503","updatedAt":"2024-08-28","sido":"충청남도","sigungu":"공주시","dong":"탄천면"},{"name":"대추골1 주차장","type":"공영","category":"노상","address":"충청남도 공주시 옥룡동 307-2","lat":36.455867,"lng":127.132583,"totalSpaces":16,"isFree":true,"operatingDays":"평일+토요일+공휴일","weekdayOpen":"00:00","weekdayClose":"23:59","weekendOpen":"00:00","weekendClose":"23:59","holidayOpen":"00:00","holidayClose":"23:59","feeInfo":"무료","phone":"041-840-8503","updatedAt":"2024-08-28","sido":"충청남도","sigungu":"공주시","dong":"옥룡동"},{"name":"옥룡동 공영주차장","type":"공영","category":"노외","address":"충청남도 공주시 옥룡동 63-2","lat":36.451441,"lng":127.1345519,"totalSpaces":15,"isFree":true,"operatingDays":"평일+토요일+공휴일","weekdayOpen":"00:00","weekdayClose":"23:59","weekendOpen":"00:00","weekendClose":"23:59","holidayOpen":"00:00","holidayClose":"23:59","feeInfo":"무료","phone":"041-840-8503","updatedAt":"2024-08-28","sido":"충청남도","sigungu":"공주시","dong":"옥룡동"},{"name":"금성동 쌈지주차장(24)","type":"공영","category":"노외","address":"충청남도 공주시 금성동 73-11","lat":36.466662,"lng":127.1209264,"totalSpaces":15,"isFree":true,"operatingDays":"평일+토요일+공휴일","weekdayOpen":"00:00","weekdayClose":"23:59","weekendOpen":"00:00","weekendClose":"23:59","holidayOpen":"00:00","holidayClose":"23:59","feeInfo":"무료","phone":"041-840-8503","updatedAt":"2024-08-28","sido":"충청남도","sigungu":"공주시","dong":"금성동"},{"name":"남향마을 주차장","type":"공영","category":"노외","address":"충청남도 공주시 교동 239-10","lat":36.456829,"lng":127.1153395,"totalSpaces":15,"isFree":true,"operatingDays":"평일+토요일+공휴일","weekdayOpen":"00:00","weekdayClose":"23:59","weekendOpen":"00:00","weekendClose":"23:59","holidayOpen":"00:00","holidayClose":"23:59","feeInfo":"무료","phone":"041-840-8503","updatedAt":"2024-08-28","sido":"충청남도","sigungu":"공주시","dong":"교동"},{"name":"옥룡동 쌈지주차장","type":"공영","category":"노외","address":"충청남도 공주시 옥룡동 56-8","lat":36.455921,"lng":127.1367875,"totalSpaces":14,"isFree":true,"operatingDays":"평일+토요일+공휴일","weekdayOpen":"00:00","weekdayClose":"23:59","weekendOpen":"00:00","weekendClose":"23:59","holidayOpen":"00:00","holidayClose":"23:59","feeInfo":"무료","phone":"041-840-8503","updatedAt":"2024-08-28","sido":"충청남도","sigungu":"공주시","dong":"옥룡동"},{"name":"금성동 공영주차장","type":"공영","category":"노외","address":"충청남도 공주시 금성동 201-4","lat":36.461391,"lng":127.1232605,"totalSpaces":14,"isFree":true,"operatingDays":"평일+토요일+공휴일","weekdayOpen":"00:00","weekdayClose":"23:59","weekendOpen":"00:00","weekendClose":"23:59","holidayOpen":"00:00","holidayClose":"23:59","feeInfo":"무료","phone":"041-840-8503","updatedAt":"2024-08-28","sido":"충청남도","sigungu":"공주시","dong":"금성동"},{"name":"상왕동 쌈지주차장","type":"공영","category":"노외","address":"충청남도 공주시 상왕동 568-1","lat":36.424511,"lng":127.1715629,"totalSpaces":14,"isFree":true,"operatingDays":"평일+토요일+공휴일","weekdayOpen":"00:00","weekdayClose":"23:59","weekendOpen":"00:00","weekendClose":"23:59","holidayOpen":"00:00","holidayClose":"23:59","feeInfo":"무료","phone":"041-840-8503","updatedAt":"2024-08-28","sido":"충청남도","sigungu":"공주시","dong":"상왕동"},{"name":"석남리 쌈지주차장","type":"공영","category":"노외","address":"충청남도 공주시 유구읍 석남리 246-2","lat":36.554527,"lng":126.9512814,"totalSpaces":14,"isFree":true,"operatingDays":"평일+토요일+공휴일","weekdayOpen":"00:00","weekdayClose":"23:59","weekendOpen":"00:00","weekendClose":"23:59","holidayOpen":"00:00","holidayClose":"23:59","feeInfo":"무료","phone":"041-840-8503","updatedAt":"2024-08-28","sido":"충청남도","sigungu":"공주시","dong":"유구읍"},{"name":"반포면 쌈지주차장","type":"공영","category":"노외","address":"충청남도 공주시 반포면 공암리 356-7","lat":36.397619,"lng":127.251231,"totalSpaces":14,"isFree":true,"operatingDays":"평일+토요일+공휴일","weekdayOpen":"00:00","weekdayClose":"23:59","weekendOpen":"00:00","weekendClose":"23:59","holidayOpen":"00:00","holidayClose":"23:59","feeInfo":"무료","phone":"041-840-8503","updatedAt":"2024-08-28","sido":"충청남도","sigungu":"공주시","dong":"반포면"},{"name":"탄천면 쌈지주차장","type":"공영","category":"노외","address":"충청남도 공주시 탄천면 삼각리 500","lat":36.331435,"lng":127.0272373,"totalSpaces":14,"isFree":true,"operatingDays":"평일+토요일+공휴일","weekdayOpen":"00:00","weekdayClose":"23:59","weekendOpen":"00:00","weekendClose":"23:59","holidayOpen":"00:00","holidayClose":"23:59","feeInfo":"무료","phone":"041-840-8503","updatedAt":"2024-08-28","sido":"충청남도","sigungu":"공주시","dong":"탄천면"},{"name":"반죽동 쌈지주차장(19)","type":"공영","category":"노외","address":"충청남도 공주시 반죽동 310-3","lat":36.451805,"lng":127.121017,"totalSpaces":14,"isFree":true,"operatingDays":"평일+토요일+공휴일","weekdayOpen":"00:00","weekdayClose":"23:59","weekendOpen":"00:00","weekendClose":"23:59","holidayOpen":"00:00","holidayClose":"23:59","feeInfo":"무료","phone":"041-840-8503","updatedAt":"2024-08-28","sido":"충청남도","sigungu":"공주시","dong":"반죽동"},{"name":"산성동 주차장(1)","type":"공영","category":"노외","address":"충청남도 공주시 산성동 22-18","lat":36.459558,"lng":127.1268941,"totalSpaces":14,"isFree":true,"operatingDays":"평일+토요일+공휴일","weekdayOpen":"00:00","weekdayClose":"23:59","weekendOpen":"00:00","weekendClose":"23:59","holidayOpen":"00:00","holidayClose":"23:59","feeInfo":"무료","phone":"041-840-8503","updatedAt":"2024-08-28","sido":"충청남도","sigungu":"공주시","dong":"산성동"},{"name":"산성동 쌈지주차장(8)","type":"공영","category":"노외","address":"충청남도 공주시 산성동 146-10","lat":36.458729,"lng":127.126881,"totalSpaces":13,"isFree":true,"operatingDays":"평일+토요일+공휴일","weekdayOpen":"00:00","weekdayClose":"23:59","weekendOpen":"00:00","weekendClose":"23:59","holidayOpen":"00:00","holidayClose":"23:59","feeInfo":"무료","phone":"041-840-8503","updatedAt":"2024-08-28","sido":"충청남도","sigungu":"공주시","dong":"산성동"},{"name":"봉황동 쌈지주차장(1)","type":"공영","category":"노외","address":"충청남도 공주시 봉황동 140","lat":36.450825,"lng":127.120877,"totalSpaces":13,"isFree":true,"operatingDays":"평일+토요일+공휴일","weekdayOpen":"00:00","weekdayClose":"23:59","weekendOpen":"00:00","weekendClose":"23:59","holidayOpen":"00:00","holidayClose":"23:59","feeInfo":"무료","phone":"041-840-8503","updatedAt":"2024-08-28","sido":"충청남도","sigungu":"공주시","dong":"봉황동"},{"name":"욕룡동 쌈지주차장","type":"공영","category":"노외","address":"충청남도 공주시 옥룡동 284-45","lat":36.455438,"lng":127.131975,"totalSpaces":12,"isFree":true,"operatingDays":"평일+토요일+공휴일","weekdayOpen":"00:00","weekdayClose":"23:59","weekendOpen":"00:00","weekendClose":"23:59","holidayOpen":"00:00","holidayClose":"23:59","feeInfo":"무료","phone":"041-840-8503","updatedAt":"2024-08-28","sido":"충청남도","sigungu":"공주시","dong":"옥룡동"},{"name":"반죽동 쌈지주차장(16)","type":"공영","category":"노외","address":"충청남도 공주시 반죽동 149-1","lat":36.454747,"lng":127.1219152,"totalSpaces":12,"isFree":true,"operatingDays":"평일+토요일+공휴일","weekdayOpen":"00:00","weekdayClose":"23:59","weekendOpen":"00:00","weekendClose":"23:59","holidayOpen":"00:00","holidayClose":"23:59","feeInfo":"무료","phone":"041-840-8503","updatedAt":"2024-08-28","sido":"충청남도","sigungu":"공주시","dong":"반죽동"},{"name":"금학동 쌈지주차장(6)","type":"공영","category":"노외","address":"충청남도 공주시 금학동 186-8","lat":36.438361,"lng":127.119293,"totalSpaces":12,"isFree":true,"operatingDays":"평일+토요일+공휴일","weekdayOpen":"00:00","weekdayClose":"23:59","weekendOpen":"00:00","weekendClose":"23:59","holidayOpen":"00:00","holidayClose":"23:59","feeInfo":"무료","phone":"041-840-8503","updatedAt":"2024-08-28","sido":"충청남도","sigungu":"공주시","dong":"금학동"},{"name":"대추골2 주차장","type":"공영","category":"노상","address":"충청남도 공주시 옥룡동 434-5","lat":36.449348,"lng":127.1302317,"totalSpaces":12,"isFree":true,"operatingDays":"평일+토요일+공휴일","weekdayOpen":"00:00","weekdayClose":"23:59","weekendOpen":"00:00","weekendClose":"23:59","holidayOpen":"00:00","holidayClose":"23:59","feeInfo":"무료","phone":"041-840-8503","updatedAt":"2024-08-28","sido":"충청남도","sigungu":"공주시","dong":"옥룡동"},{"name":"산성동 주차장(2)","type":"공영","category":"노외","address":"충청남도 공주시 산성동 22-1","lat":36.45988972,"lng":127.1269051,"totalSpaces":11,"isFree":true,"operatingDays":"평일+토요일+공휴일","weekdayOpen":"00:00","weekdayClose":"23:59","weekendOpen":"00:00","weekendClose":"23:59","holidayOpen":"00:00","holidayClose":"23:59","feeInfo":"무료","phone":"041-840-8503","updatedAt":"2024-08-28","sido":"충청남도","sigungu":"공주시","dong":"산성동"},{"name":"유구 창말주차장(2)","type":"공영","category":"노외","address":"충청남도 공주시 유구읍 유구리 429-29","lat":36.554049,"lng":126.9568339,"totalSpaces":11,"isFree":true,"operatingDays":"평일+토요일+공휴일","weekdayOpen":"00:00","weekdayClose":"23:59","weekendOpen":"00:00","weekendClose":"23:59","holidayOpen":"00:00","holidayClose":"23:59","feeInfo":"무료","phone":"041-840-8503","updatedAt":"2024-08-28","sido":"충청남도","sigungu":"공주시","dong":"유구읍"},{"name":"중학동 주차장","type":"공영","category":"노외","address":"충청남도 공주시 중학동 173-6","lat":36.44593476,"lng":127.1237606,"totalSpaces":11,"isFree":true,"operatingDays":"평일+토요일+공휴일","weekdayOpen":"00:00","weekdayClose":"23:59","weekendOpen":"00:00","weekendClose":"23:59","holidayOpen":"00:00","holidayClose":"23:59","feeInfo":"무료","phone":"041-840-8503","updatedAt":"2024-08-28","sido":"충청남도","sigungu":"공주시","dong":"중학동"},{"name":"관골1길 주차장","type":"공영","category":"노상","address":"충청남도 공주시 신관동 648","lat":36.471987,"lng":127.1339508,"totalSpaces":10,"isFree":true,"operatingDays":"평일+토요일+공휴일","weekdayOpen":"00:00","weekdayClose":"23:59","weekendOpen":"00:00","weekendClose":"23:59","holidayOpen":"00:00","holidayClose":"23:59","feeInfo":"무료","phone":"041-840-8503","updatedAt":"2024-08-28","sido":"충청남도","sigungu":"공주시","dong":"신관동"},{"name":"호계리 쌈지주차장","type":"공영","category":"노외","address":"충청남도 공주시 사곡면 호계리 340-3","lat":36.501208,"lng":127.0254176,"totalSpaces":10,"isFree":true,"operatingDays":"평일+토요일+공휴일","weekdayOpen":"00:00","weekdayClose":"23:59","weekendOpen":"00:00","weekendClose":"23:59","holidayOpen":"00:00","holidayClose":"23:59","feeInfo":"무료","phone":"041-840-8503","updatedAt":"2024-08-28","sido":"충청남도","sigungu":"공주시","dong":"사곡면"},{"name":"봉황동 쌈지주차장(3)","type":"공영","category":"노외","address":"충청남도 공주시 봉황동 200-3","lat":36.449514,"lng":127.120422,"totalSpaces":10,"isFree":true,"operatingDays":"평일+토요일+공휴일","weekdayOpen":"00:00","weekdayClose":"23:59","weekendOpen":"00:00","weekendClose":"23:59","holidayOpen":"00:00","holidayClose":"23:59","feeInfo":"무료","phone":"041-840-8503","updatedAt":"2024-08-28","sido":"충청남도","sigungu":"공주시","dong":"봉황동"},{"name":"사곡면 주차장","type":"공영","category":"노외","address":"충청남도 공주시 사곡면 호계리 297-4","lat":36.5021701,"lng":127.026176,"totalSpaces":10,"isFree":true,"operatingDays":"평일+토요일+공휴일","weekdayOpen":"00:00","weekdayClose":"23:59","weekendOpen":"00:00","weekendClose":"23:59","holidayOpen":"00:00","holidayClose":"23:59","feeInfo":"무료","phone":"041-840-8503","updatedAt":"2024-08-28","sido":"충청남도","sigungu":"공주시","dong":"사곡면"},{"name":"중학동 쌈지주차장","type":"공영","category":"노외","address":"충청남도 공주시 중학동 251-5","lat":36.445797,"lng":127.1208169,"totalSpaces":9,"isFree":true,"operatingDays":"평일+토요일+공휴일","weekdayOpen":"00:00","weekdayClose":"23:59","weekendOpen":"00:00","weekendClose":"23:59","holidayOpen":"00:00","holidayClose":"23:59","feeInfo":"무료","phone":"041-840-8503","updatedAt":"2024-08-28","sido":"충청남도","sigungu":"공주시","dong":"중학동"},{"name":"산성동 쌈지주차장(15)","type":"공영","category":"노외","address":"충청남도 공주시 산성동 114-2","lat":36.457064,"lng":127.125522,"totalSpaces":9,"isFree":true,"operatingDays":"평일+토요일+공휴일","weekdayOpen":"00:00","weekdayClose":"23:59","weekendOpen":"00:00","weekendClose":"23:59","holidayOpen":"00:00","holidayClose":"23:59","feeInfo":"무료","phone":"041-840-8503","updatedAt":"2024-08-28","sido":"충청남도","sigungu":"공주시","dong":"산성동"},{"name":"옥룡동 쌈지주차장(23)","type":"공영","category":"노외","address":"충청남도 공주시 옥룡동 산11-15","lat":36.454724,"lng":127.1372217,"totalSpaces":9,"isFree":true,"operatingDays":"평일+토요일+공휴일","weekdayOpen":"00:00","weekdayClose":"23:59","weekendOpen":"00:00","weekendClose":"23:59","holidayOpen":"00:00","holidayClose":"23:59","feeInfo":"무료","phone":"041-840-8503","updatedAt":"2024-08-28","sido":"충청남도","sigungu":"공주시","dong":"옥룡동"},{"name":"옥룡동 쌈지주차장(13)","type":"공영","category":"노외","address":"충청남도 공주시 옥룡동 10-3","lat":36.457743,"lng":127.134405,"totalSpaces":9,"isFree":true,"operatingDays":"평일+토요일+공휴일","weekdayOpen":"00:00","weekdayClose":"23:59","weekendOpen":"00:00","weekendClose":"23:59","holidayOpen":"00:00","holidayClose":"23:59","feeInfo":"무료","phone":"041-840-8503","updatedAt":"2024-08-28","sido":"충청남도","sigungu":"공주시","dong":"옥룡동"},{"name":"우금티로 주차장","type":"공영","category":"노상","address":"충청남도 공주시 옥룡동 331-43","lat":36.455267,"lng":127.133665,"totalSpaces":9,"isFree":true,"operatingDays":"평일+토요일+공휴일","weekdayOpen":"00:00","weekdayClose":"23:59","weekendOpen":"00:00","weekendClose":"23:59","holidayOpen":"00:00","holidayClose":"23:59","feeInfo":"무료","phone":"041-840-8503","updatedAt":"2024-08-28","sido":"충청남도","sigungu":"공주시","dong":"옥룡동"},{"name":"계룡면 주차장","type":"공영","category":"노외","address":"충청남도 공주시 계룡면 월암리 246","lat":36.359115,"lng":127.142761,"totalSpaces":9,"isFree":true,"operatingDays":"평일+토요일+공휴일","weekdayOpen":"00:00","weekdayClose":"23:59","weekendOpen":"00:00","weekendClose":"23:59","holidayOpen":"00:00","holidayClose":"23:59","feeInfo":"무료","phone":"041-840-8503","updatedAt":"2024-08-28","sido":"충청남도","sigungu":"공주시","dong":"계룡면"},{"name":"중동 공영주차장","type":"공영","category":"노외","address":"충청남도 공주시 중동 296-1","lat":36.454492,"lng":127.1281993,"totalSpaces":8,"isFree":true,"operatingDays":"평일+토요일+공휴일","weekdayOpen":"00:00","weekdayClose":"23:59","weekendOpen":"00:00","weekendClose":"23:59","holidayOpen":"00:00","holidayClose":"23:59","feeInfo":"무료","phone":"041-840-8503","updatedAt":"2024-08-28","sido":"충청남도","sigungu":"공주시","dong":"중동"},{"name":"고상아리1길 주차장","type":"공영","category":"노상","address":"충청남도 공주시 중학동 32","lat":36.450503,"lng":127.124486,"totalSpaces":8,"isFree":true,"operatingDays":"평일+토요일+공휴일","weekdayOpen":"00:00","weekdayClose":"23:59","weekendOpen":"00:00","weekendClose":"23:59","holidayOpen":"00:00","holidayClose":"23:59","feeInfo":"무료","phone":"041-840-8503","updatedAt":"2024-08-28","sido":"충청남도","sigungu":"공주시","dong":"중학동"},{"name":"신풍면 양조장 주차장","type":"공영","category":"노외","address":"충청남도 공주시 신풍면 산정리 81","lat":36.514561,"lng":126.9574119,"totalSpaces":8,"isFree":true,"operatingDays":"평일+토요일+공휴일","weekdayOpen":"00:00","weekdayClose":"23:59","weekendOpen":"00:00","weekendClose":"23:59","holidayOpen":"00:00","holidayClose":"23:59","feeInfo":"무료","phone":"041-840-8503","updatedAt":"2024-08-28","sido":"충청남도","sigungu":"공주시","dong":"신풍면"},{"name":"신관동 쌈지주차장","type":"공영","category":"노외","address":"충청남도 공주시 신관동 193-6","lat":36.469061,"lng":127.1373999,"totalSpaces":7,"isFree":true,"operatingDays":"평일+토요일+공휴일","weekdayOpen":"00:00","weekdayClose":"23:59","weekendOpen":"00:00","weekendClose":"23:59","holidayOpen":"00:00","holidayClose":"23:59","feeInfo":"무료","phone":"041-840-8503","updatedAt":"2024-08-28","sido":"충청남도","sigungu":"공주시","dong":"신관동"},{"name":"신관동 쌈지주차장","type":"공영","category":"노외","address":"충청남도 공주시 신관동 2-5","lat":36.475046,"lng":127.146621,"totalSpaces":7,"isFree":true,"operatingDays":"평일+토요일+공휴일","weekdayOpen":"00:00","weekdayClose":"23:59","weekendOpen":"00:00","weekendClose":"23:59","holidayOpen":"00:00","holidayClose":"23:59","feeInfo":"무료","phone":"041-840-8503","updatedAt":"2024-08-28","sido":"충청남도","sigungu":"공주시","dong":"신관동"},{"name":"금성동 쌈지주차장","type":"공영","category":"노외","address":"충청남도 공주시 금성동 80-7","lat":36.465016,"lng":127.1202558,"totalSpaces":7,"isFree":true,"operatingDays":"평일+토요일+공휴일","weekdayOpen":"00:00","weekdayClose":"23:59","weekendOpen":"00:00","weekendClose":"23:59","holidayOpen":"00:00","holidayClose":"23:59","feeInfo":"무료","phone":"041-840-8503","updatedAt":"2024-08-28","sido":"충청남도","sigungu":"공주시","dong":"금성동"},{"name":"유구 창말주차장(1)","type":"공영","category":"노외","address":"충청남도 공주시 유구읍 유구리 617","lat":36.557092,"lng":126.9559854,"totalSpaces":7,"isFree":true,"operatingDays":"평일+토요일+공휴일","weekdayOpen":"00:00","weekdayClose":"23:59","weekendOpen":"00:00","weekendClose":"23:59","holidayOpen":"00:00","holidayClose":"23:59","feeInfo":"무료","phone":"041-840-8503","updatedAt":"2024-08-28","sido":"충청남도","sigungu":"공주시","dong":"유구읍"},{"name":"중동3길 주차장","type":"공영","category":"노상","address":"충청남도 공주시 중동 51-1","lat":36.455415,"lng":127.126464,"totalSpaces":7,"isFree":true,"operatingDays":"평일+토요일+공휴일","weekdayOpen":"00:00","weekdayClose":"23:59","weekendOpen":"00:00","weekendClose":"23:59","holidayOpen":"00:00","holidayClose":"23:59","feeInfo":"무료","phone":"041-840-8503","updatedAt":"2024-08-28","sido":"충청남도","sigungu":"공주시","dong":"중동"},{"name":"중학동 쌈지주차장","type":"공영","category":"노외","address":"충청남도 공주시 중학동 83-2","lat":36.449279,"lng":127.1246037,"totalSpaces":6,"isFree":true,"operatingDays":"평일+토요일+공휴일","weekdayOpen":"00:00","weekdayClose":"23:59","weekendOpen":"00:00","weekendClose":"23:59","holidayOpen":"00:00","holidayClose":"23:59","feeInfo":"무료","phone":"041-840-8503","updatedAt":"2024-08-28","sido":"충청남도","sigungu":"공주시","dong":"중학동"},{"name":"중동 쌈지주차장","type":"공영","category":"노외","address":"충청남도 공주시 중동 147-190","lat":36.456083,"lng":127.1235928,"totalSpaces":6,"isFree":true,"operatingDays":"평일+토요일+공휴일","weekdayOpen":"00:00","weekdayClose":"23:59","weekendOpen":"00:00","weekendClose":"23:59","holidayOpen":"00:00","holidayClose":"23:59","feeInfo":"무료","phone":"041-840-8503","updatedAt":"2024-08-28","sido":"충청남도","sigungu":"공주시","dong":"중동"},{"name":"교동 쌈지주차장(14)","type":"공영","category":"노외","address":"충청남도 공주시 교동 3-144","lat":36.462147,"lng":127.120122,"totalSpaces":6,"isFree":true,"operatingDays":"평일+토요일+공휴일","weekdayOpen":"00:00","weekdayClose":"23:59","weekendOpen":"00:00","weekendClose":"23:59","holidayOpen":"00:00","holidayClose":"23:59","feeInfo":"무료","phone":"041-840-8503","updatedAt":"2024-08-28","sido":"충청남도","sigungu":"공주시","dong":"교동"},{"name":"반죽동 쌈지주차장(17)","type":"공영","category":"노외","address":"충청남도 공주시 반죽동 291-1","lat":36.45155496,"lng":127.1220769,"totalSpaces":6,"isFree":true,"operatingDays":"평일+토요일+공휴일","weekdayOpen":"00:00","weekdayClose":"23:59","weekendOpen":"00:00","weekendClose":"23:59","holidayOpen":"00:00","holidayClose":"23:59","feeInfo":"무료","phone":"041-840-8503","updatedAt":"2024-08-28","sido":"충청남도","sigungu":"공주시","dong":"반죽동"},{"name":"봉황동 쌈지주차장(4)","type":"공영","category":"노외","address":"충청남도 공주시 봉황동 149-6","lat":36.451031,"lng":127.120664,"totalSpaces":6,"isFree":true,"operatingDays":"평일+토요일+공휴일","weekdayOpen":"00:00","weekdayClose":"23:59","weekendOpen":"00:00","weekendClose":"23:59","holidayOpen":"00:00","holidayClose":"23:59","feeInfo":"무료","phone":"041-840-8503","updatedAt":"2024-08-28","sido":"충청남도","sigungu":"공주시","dong":"봉황동"},{"name":"금성동 쌈지주차장","type":"공영","category":"노외","address":"충청남도 공주시 금성동 89-3","lat":36.46597228,"lng":127.1188995,"totalSpaces":5,"isFree":true,"operatingDays":"평일+토요일+공휴일","weekdayOpen":"00:00","weekdayClose":"23:59","weekendOpen":"00:00","weekendClose":"23:59","holidayOpen":"00:00","holidayClose":"23:59","feeInfo":"무료","phone":"041-840-8503","updatedAt":"2024-08-28","sido":"충청남도","sigungu":"공주시","dong":"금성동"},{"name":"옥룡동 공영주차장","type":"공영","category":"노외","address":"충청남도 공주시 옥룡동 42-10","lat":36.456319,"lng":127.136551,"totalSpaces":5,"isFree":true,"operatingDays":"평일+토요일+공휴일","weekdayOpen":"00:00","weekdayClose":"23:59","weekendOpen":"00:00","weekendClose":"23:59","holidayOpen":"00:00","holidayClose":"23:59","feeInfo":"무료","phone":"041-840-8503","updatedAt":"2024-08-28","sido":"충청남도","sigungu":"공주시","dong":"옥룡동"},{"name":"금학동 쌈지주차장(7)","type":"공영","category":"노외","address":"충청남도 공주시 금학동 186-1","lat":36.438542,"lng":127.118952,"totalSpaces":5,"isFree":true,"operatingDays":"평일+토요일+공휴일","weekdayOpen":"00:00","weekdayClose":"23:59","weekendOpen":"00:00","weekendClose":"23:59","holidayOpen":"00:00","holidayClose":"23:59","feeInfo":"무료","phone":"041-840-8503","updatedAt":"2024-08-28","sido":"충청남도","sigungu":"공주시","dong":"금학동"},{"name":"봉황동 쌈지주차장(10)","type":"공영","category":"노외","address":"충청남도 공주시 봉황동 45","lat":36.449812,"lng":127.122655,"totalSpaces":5,"isFree":true,"operatingDays":"평일+토요일+공휴일","weekdayOpen":"00:00","weekdayClose":"23:59","weekendOpen":"00:00","weekendClose":"23:59","holidayOpen":"00:00","holidayClose":"23:59","feeInfo":"무료","phone":"041-840-8503","updatedAt":"2024-08-28","sido":"충청남도","sigungu":"공주시","dong":"봉황동"},{"name":"산성동 쌈지주차장(12)","type":"공영","category":"노외","address":"충청남도 공주시 산성동 64-7","lat":36.457301,"lng":127.1286928,"totalSpaces":5,"isFree":true,"operatingDays":"평일+토요일+공휴일","weekdayOpen":"00:00","weekdayClose":"23:59","weekendOpen":"00:00","weekendClose":"23:59","holidayOpen":"00:00","holidayClose":"23:59","feeInfo":"무료","phone":"041-840-8503","updatedAt":"2024-08-28","sido":"충청남도","sigungu":"공주시","dong":"산성동"},{"name":"반죽동 쌈지주차장(5)","type":"공영","category":"노외","address":"충청남도 공주시 반죽동 318-2","lat":36.451776,"lng":127.120788,"totalSpaces":5,"isFree":true,"operatingDays":"평일+토요일+공휴일","weekdayOpen":"00:00","weekdayClose":"23:59","weekendOpen":"00:00","weekendClose":"23:59","holidayOpen":"00:00","holidayClose":"23:59","feeInfo":"무료","phone":"041-840-8503","updatedAt":"2024-08-28","sido":"충청남도","sigungu":"공주시","dong":"반죽동"},{"name":"옥룡동 쌈지주차장","type":"공영","category":"노외","address":"충청남도 공주시 옥룡동 283-36","lat":36.454485,"lng":127.1321366,"totalSpaces":4,"isFree":true,"operatingDays":"평일+토요일+공휴일","weekdayOpen":"00:00","weekdayClose":"23:59","weekendOpen":"00:00","weekendClose":"23:59","holidayOpen":"00:00","holidayClose":"23:59","feeInfo":"무료","phone":"041-840-8503","updatedAt":"2024-08-28","sido":"충청남도","sigungu":"공주시","dong":"옥룡동"},{"name":"산성동 쌈지주차장","type":"공영","category":"노외","address":"충청남도 공주시 산성동 18-3","lat":36.459658,"lng":127.1277519,"totalSpaces":3,"isFree":true,"operatingDays":"평일+토요일+공휴일","weekdayOpen":"00:00","weekdayClose":"23:59","weekendOpen":"00:00","weekendClose":"23:59","holidayOpen":"00:00","holidayClose":"23:59","feeInfo":"무료","phone":"041-840-8503","updatedAt":"2024-08-28","sido":"충청남도","sigungu":"공주시","dong":"산성동"},{"name":"금학동 쌈지주차장","type":"공영","category":"노외","address":"충청남도 공주시 금학동 198-5","lat":36.436498,"lng":127.1206125,"totalSpaces":3,"isFree":true,"operatingDays":"평일+토요일+공휴일","weekdayOpen":"00:00","weekdayClose":"23:59","weekendOpen":"00:00","weekendClose":"23:59","holidayOpen":"00:00","holidayClose":"23:59","feeInfo":"무료","phone":"041-840-8503","updatedAt":"2024-08-28","sido":"충청남도","sigungu":"공주시","dong":"금학동"},{"name":"금학동 쌈지주차장","type":"공영","category":"노외","address":"충청남도 공주시 금학동 200-13","lat":36.436897,"lng":127.120404,"totalSpaces":3,"isFree":true,"operatingDays":"평일+토요일+공휴일","weekdayOpen":"00:00","weekdayClose":"23:59","weekendOpen":"00:00","weekendClose":"23:59","holidayOpen":"00:00","holidayClose":"23:59","feeInfo":"무료","phone":"041-840-8503","updatedAt":"2024-08-28","sido":"충청남도","sigungu":"공주시","dong":"금학동"},{"name":"중학동 쌈지주차장(9)","type":"공영","category":"노외","address":"충청남도 공주시 중학동 83-1","lat":36.449302,"lng":127.124524,"totalSpaces":3,"isFree":true,"operatingDays":"평일+토요일+공휴일","weekdayOpen":"00:00","weekdayClose":"23:59","weekendOpen":"00:00","weekendClose":"23:59","holidayOpen":"00:00","holidayClose":"23:59","feeInfo":"무료","phone":"041-840-8503","updatedAt":"2024-08-28","sido":"충청남도","sigungu":"공주시","dong":"중학동"},{"name":"산성시장 공영주차장","type":"공영","category":"노외","address":"충청남도 공주시 산성동 190-1","lat":36.458818,"lng":127.1227277,"totalSpaces":241,"isFree":false,"operatingDays":"평일+토요일+공휴일","weekdayOpen":"08:00","weekdayClose":"20:00","weekendOpen":"08:00","weekendClose":"20:00","holidayOpen":"00:00","holidayClose":"23:59","feeInfo":"기본 30분 500원 / 추가 10분당 200원","phone":"041-840-8503","updatedAt":"2024-08-28","sido":"충청남도","sigungu":"공주시","dong":"산성동"},{"name":"중동 국고개 공영주차장","type":"공영","category":"노외","address":"충청남도 공주시 중동 63","lat":36.454847,"lng":127.1256957,"totalSpaces":186,"isFree":false,"operatingDays":"평일+토요일+공휴일","weekdayOpen":"09:00","weekdayClose":"21:00","weekendOpen":"09:00","weekendClose":"21:00","holidayOpen":"00:00","holidayClose":"23:59","feeInfo":"기본 30분 500원 / 추가 10분당 200원","phone":"041-840-8503","updatedAt":"2024-08-28","sido":"충청남도","sigungu":"공주시","dong":"중동"},{"name":"신관동 공영주차빌딩","type":"공영","category":"노외","address":"충청남도 공주시 신관동 639-3","lat":36.472119,"lng":127.1354615,"totalSpaces":142,"isFree":false,"operatingDays":"평일+토요일+공휴일","weekdayOpen":"10:00","weekdayClose":"22:00","weekendOpen":"10:00","weekendClose":"22:00","holidayOpen":"00:00","holidayClose":"23:59","feeInfo":"기본 30분 500원 / 추가 10분당 200원","phone":"","updatedAt":"2024-08-28","sido":"충청남도","sigungu":"공주시","dong":"신관동"},{"name":"제민천1길 공영주차장","type":"공영","category":"노상","address":"충청남도 공주시 교동 110-5","lat":36.45783044,"lng":127.1221807,"totalSpaces":55,"isFree":false,"operatingDays":"평일+토요일+공휴일","weekdayOpen":"09:00","weekdayClose":"19:00","weekendOpen":"09:00","weekendClose":"19:00","holidayOpen":"00:00","holidayClose":"23:59","feeInfo":"기본 30분 500원 / 추가 10분당 200원","phone":"041-840-8503","updatedAt":"2024-08-28","sido":"충청남도","sigungu":"공주시","dong":"교동"},{"name":"신관동 공영주차장","type":"공영","category":"노외","address":"충청남도 공주시 신관동 590-1","lat":36.471744,"lng":127.1292321,"totalSpaces":43,"isFree":false,"operatingDays":"평일+토요일+공휴일","weekdayOpen":"09:00","weekdayClose":"19:00","weekendOpen":"09:00","weekendClose":"19:00","holidayOpen":"00:00","holidayClose":"23:59","feeInfo":"기본 30분 500원 / 추가 10분당 200원","phone":"041-840-8503","updatedAt":"2024-08-28","sido":"충청남도","sigungu":"공주시","dong":"신관동"},{"name":"웅진로1 공영주차장","type":"공영","category":"노상","address":"충청남도 공주시 산성동 170-1","lat":36.460354,"lng":127.1241709,"totalSpaces":37,"isFree":false,"operatingDays":"평일+토요일+공휴일","weekdayOpen":"09:00","weekdayClose":"19:00","weekendOpen":"09:00","weekendClose":"19:00","holidayOpen":"00:00","holidayClose":"23:59","feeInfo":"기본 30분 500원 / 추가 10분당 200원","phone":"041-840-8503","updatedAt":"2024-08-28","sido":"충청남도","sigungu":"공주시","dong":"산성동"},{"name":"중동 봉산길 주차장","type":"공영","category":"노외","address":"충청남도 공주시 중동 147-89","lat":36.455733,"lng":127.1232408,"totalSpaces":37,"isFree":false,"operatingDays":"평일+토요일+공휴일","weekdayOpen":"09:00","weekdayClose":"19:00","weekendOpen":"09:00","weekendClose":"19:00","holidayOpen":"00:00","holidayClose":"23:59","feeInfo":"기본 30분 500원 / 추가 10분당 200원","phone":"041-840-8503","updatedAt":"2024-08-28","sido":"충청남도","sigungu":"공주시","dong":"중동"},{"name":"신관동 공원주차장","type":"공영","category":"노외","address":"충청남도 공주시 신관동 639-1","lat":36.47266971,"lng":127.1358508,"totalSpaces":27,"isFree":false,"operatingDays":"평일+토요일+공휴일","weekdayOpen":"09:00","weekdayClose":"21:00","weekendOpen":"09:00","weekendClose":"21:00","holidayOpen":"00:00","holidayClose":"23:59","feeInfo":"기본 30분 500원 / 추가 10분당 200원","phone":"041-840-8503","updatedAt":"2024-08-28","sido":"충청남도","sigungu":"공주시","dong":"신관동"},{"name":"웅진로2 공영주차장","type":"공영","category":"노상","address":"충청남도 공주시 금성동 19-1","lat":36.461757,"lng":127.1238472,"totalSpaces":22,"isFree":false,"operatingDays":"평일+토요일+공휴일","weekdayOpen":"09:00","weekdayClose":"19:00","weekendOpen":"09:00","weekendClose":"19:00","holidayOpen":"00:00","holidayClose":"23:59","feeInfo":"기본 30분 500원 / 추가 10분당 200원","phone":"041-840-8503","updatedAt":"2024-08-28","sido":"충청남도","sigungu":"공주시","dong":"금성동"}]}