{"sido":"충청남도","sigungu":"당진시","totalCount":10,"validCount":10,"items":[{"name":"복운3리공영주차장","type":"공영","category":"노외","address":"충청남도 당진시 송악읍 구래길 331","lat":36.9413306547,"lng":126.7841979768,"totalSpaces":160,"isFree":true,"operatingDays":"평일+토요일+공휴일","weekdayOpen":"00:00","weekdayClose":"23:59","weekendOpen":"00:00","weekendClose":"23:59","holidayOpen":"00:00","holidayClose":"23:59","feeInfo":"무료","phone":"041-350-4543","updatedAt":"2023-07-01","sido":"충청남도","sigungu":"당진시","dong":"송악읍"},{"name":"북부공영주차장","type":"공영","category":"노외","address":"충청남도 당진시 북문로1길 35-15","lat":36.901491,"lng":126.630121,"totalSpaces":109,"isFree":true,"operatingDays":"평일+토요일+공휴일","weekdayOpen":"00:00","weekdayClose":"23:59","weekendOpen":"00:00","weekendClose":"23:59","holidayOpen":"00:00","holidayClose":"23:59","feeInfo":"무료","phone":"041-350-4543","updatedAt":"2023-07-01","sido":"충청남도","sigungu":"당진시","dong":"읍내동"},{"name":"합덕공영주차장","type":"공영","category":"노외","address":"충청남도 당진시 합덕읍 운산리 263-49","lat":36.8089269896,"lng":126.7753601037,"totalSpaces":89,"isFree":true,"operatingDays":"평일+토요일+공휴일","weekdayOpen":"00:00","weekdayClose":"23:59","weekendOpen":"00:00","weekendClose":"23:59","holidayOpen":"00:00","holidayClose":"23:59","feeInfo":"무료","phone":"041-350-4543","updatedAt":"2023-07-01","sido":"충청남도","sigungu":"당진시","dong":"합덕읍"},{"name":"당진시장공영주차장","type":"공영","category":"노외","address":"충청남도 당진시 당진시장서길13","lat":36.88941914,"lng":126.6288239,"totalSpaces":217,"isFree":false,"operatingDays":"평일+토요일+공휴일","weekdayOpen":"08:00","weekdayClose":"20:00","weekendOpen":"08:00","weekendClose":"20:00","holidayOpen":"08:00","holidayClose":"20:00","feeInfo":"기본 30분 300원 / 추가 10분당 100원","phone":"041-350-4543","updatedAt":"2023-07-01","sido":"충청남도","sigungu":"당진시","dong":"읍내동"},{"name":"당진공영버스터미널공영주차장","type":"공영","category":"노외","address":"충청남도 당진시 밤절로 149","lat":36.90234577,"lng":126.6454357,"totalSpaces":203,"isFree":false,"operatingDays":"평일+토요일+공휴일","weekdayOpen":"08:00","weekdayClose":"23:59","weekendOpen":"08:00","weekendClose":"23:59","holidayOpen":"00:00","holidayClose":"23:59","feeInfo":"기본 30분 400원 / 추가 10분당 200원","phone":"041-350-4543","updatedAt":"2023-07-01","sido":"충청남도","sigungu":"당진시","dong":"수청동"},{"name":"남부공영주차장","type":"공영","category":"노외","address":"충청남도 당진시 시장중앙길 41","lat":36.88675477,"lng":126.6312214,"totalSpaces":140,"isFree":false,"operatingDays":"평일+토요일+공휴일","weekdayOpen":"08:00","weekdayClose":"20:00","weekendOpen":"08:00","weekendClose":"20:00","holidayOpen":"08:00","holidayClose":"20:00","feeInfo":"기본 30분 400원 / 추가 10분당 200원","phone":"041-350-4543","updatedAt":"2023-07-01","sido":"충청남도","sigungu":"당진시","dong":"채운동"},{"name":"중앙공영주차장","type":"공영","category":"노외","address":"충청남도 당진시 시장중앙길 148-3","lat":36.89158324,"lng":126.6297295,"totalSpaces":72,"isFree":false,"operatingDays":"평일+토요일+공휴일","weekdayOpen":"08:00","weekdayClose":"20:00","weekendOpen":"08:00","weekendClose":"20:00","holidayOpen":"08:00","holidayClose":"20:00","feeInfo":"기본 30분 400원 / 추가 10분당 200원","phone":"041-350-4543","updatedAt":"2023-07-01","sido":"충청남도","sigungu":"당진시","dong":"읍내동"},{"name":"당진중앙2~3로 노상공영주차장","type":"공영","category":"노상","address":"충청남도 당진시 당진중앙2로 134","lat":36.89474017,"lng":126.6320075,"totalSpaces":47,"isFree":false,"operatingDays":"평일+토요일+공휴일","weekdayOpen":"08:00","weekdayClose":"20:00","weekendOpen":"08:00","weekendClose":"20:00","holidayOpen":"08:00","holidayClose":"20:00","feeInfo":"기본 30분 400원 / 추가 10분당 200원","phone":"041-350-4543","updatedAt":"2023-07-01","sido":"충청남도","sigungu":"당진시","dong":"읍내동"},{"name":"계성공영주차장","type":"공영","category":"노외","address":"충청남도 당진시 당진중앙1로 153","lat":36.89612609,"lng":126.6319899,"totalSpaces":39,"isFree":false,"operatingDays":"평일+토요일+공휴일","weekdayOpen":"08:00","weekdayClose":"20:00","weekendOpen":"08:00","weekendClose":"20:00","holidayOpen":"08:00","holidayClose":"20:00","feeInfo":"기본 30분 400원 / 추가 10분당 200원","phone":"041-350-4543","updatedAt":"2023-07-01","sido":"충청남도","sigungu":"당진시","dong":"읍내동"},{"name":"동문공영주차장","type":"공영","category":"노외","address":"충청남도 당진시 당진중앙1로 79","lat":36.89371723,"lng":126.6292452,"totalSpaces":30,"isFree":false,"operatingDays":"평일+토요일+공휴일","weekdayOpen":"08:00","weekdayClose":"20:00","weekendOpen":"08:00","weekendClose":"20:00","holidayOpen":"08:00","holidayClose":"20:00","feeInfo":"기본 30분 400원 / 추가 10분당 200원","phone":"041-350-4543","updatedAt":"2023-07-01","sido":"충청남도","sigungu":"당진시","dong":"읍내동"}]}