{"sido":"충청남도","sigungu":"부여군","totalCount":60,"validCount":60,"items":[{"name":"백강주차장","type":"공영","category":"노외","address":"충청남도 부여군 부여읍 구교리 366-3","lat":36.27875316,"lng":126.9050108,"totalSpaces":244,"isFree":true,"operatingDays":"평일+토요일+공휴일","weekdayOpen":"08:00","weekdayClose":"19:00","weekendOpen":"08:00","weekendClose":"19:00","holidayOpen":"08:00","holidayClose":"19:00","feeInfo":"무료","phone":"041-830-2284","updatedAt":"2025-12-12","sido":"충청남도","sigungu":"부여군","dong":"부여읍"},{"name":"구드래나루터주차장","type":"공영","category":"노외","address":"충청남도 부여군 부여읍 구교리 1-1","lat":36.29012328,"lng":126.9083686,"totalSpaces":148,"isFree":true,"operatingDays":"평일+토요일+공휴일","weekdayOpen":"08:00","weekdayClose":"19:00","weekendOpen":"08:00","weekendClose":"19:00","holidayOpen":"08:00","holidayClose":"19:00","feeInfo":"무료","phone":"041-830-2284","updatedAt":"2025-12-12","sido":"충청남도","sigungu":"부여군","dong":"부여읍"},{"name":"서동공원(서문주차장)","type":"공영","category":"노외","address":"충청남도 부여군 부여읍 동남리 167-1","lat":36.27074513,"lng":126.9095619,"totalSpaces":140,"isFree":true,"operatingDays":"평일+토요일+공휴일","weekdayOpen":"08:00","weekdayClose":"19:00","weekendOpen":"08:00","weekendClose":"19:00","holidayOpen":"08:00","holidayClose":"19:00","feeInfo":"무료","phone":"041-830-2284","updatedAt":"2025-12-12","sido":"충청남도","sigungu":"부여군","dong":"부여읍"},{"name":"정림사지주차장","type":"공영","category":"노외","address":"충청남도 부여군 부여읍 정림로 83","lat":36.27902527,"lng":126.9128806,"totalSpaces":117,"isFree":true,"operatingDays":"평일+토요일+공휴일","weekdayOpen":"08:00","weekdayClose":"19:00","weekendOpen":"08:00","weekendClose":"19:00","holidayOpen":"08:00","holidayClose":"19:00","feeInfo":"무료","phone":"041-830-2284","updatedAt":"2025-12-12","sido":"충청남도","sigungu":"부여군","dong":"부여읍"},{"name":"사비로 노상주차장","type":"공영","category":"노상","address":"충청남도 부여군 부여읍 사비로 32","lat":36.27542237,"lng":126.910771,"totalSpaces":111,"isFree":true,"operatingDays":"평일+토요일+공휴일","weekdayOpen":"08:00","weekdayClose":"19:00","weekendOpen":"08:00","weekendClose":"19:00","holidayOpen":"08:00","holidayClose":"19:00","feeInfo":"무료","phone":"041-830-2284","updatedAt":"2025-12-12","sido":"충청남도","sigungu":"부여군","dong":"부여읍"},{"name":"서동공원(임시주차장)","type":"공영","category":"노외","address":"충청남도 부여군 부여읍 군수리 22-1","lat":36.26797493,"lng":126.9095019,"totalSpaces":110,"isFree":true,"operatingDays":"평일+토요일+공휴일","weekdayOpen":"08:00","weekdayClose":"19:00","weekendOpen":"08:00","weekendClose":"19:00","holidayOpen":"08:00","holidayClose":"19:00","feeInfo":"무료","phone":"041-830-2284","updatedAt":"2025-12-12","sido":"충청남도","sigungu":"부여군","dong":"부여읍"},{"name":"관광주차장","type":"공영","category":"노외","address":"충청남도 부여군 부여읍 성왕로 247-9","lat":36.28406872,"lng":126.9145313,"totalSpaces":100,"isFree":true,"operatingDays":"평일+토요일+공휴일","weekdayOpen":"08:00","weekdayClose":"19:00","weekendOpen":"08:00","weekendClose":"19:00","holidayOpen":"08:00","holidayClose":"19:00","feeInfo":"무료","phone":"041-830-2284","updatedAt":"2025-12-12","sido":"충청남도","sigungu":"부여군","dong":"부여읍"},{"name":"구드래주차장","type":"공영","category":"노외","address":"충청남도 부여군 부여읍 나루터로 43","lat":36.28596975,"lng":126.9086484,"totalSpaces":93,"isFree":true,"operatingDays":"평일+토요일+공휴일","weekdayOpen":"08:00","weekdayClose":"19:00","weekendOpen":"08:00","weekendClose":"19:00","holidayOpen":"08:00","holidayClose":"19:00","feeInfo":"무료","phone":"041-830-2284","updatedAt":"2025-12-12","sido":"충청남도","sigungu":"부여군","dong":"부여읍"},{"name":"무량사주차장","type":"공영","category":"노외","address":"충청남도 부여군 외산면 무량로176번길 16","lat":36.3152493,"lng":126.6957617,"totalSpaces":75,"isFree":true,"operatingDays":"평일+토요일+공휴일","weekdayOpen":"08:00","weekdayClose":"19:00","weekendOpen":"08:00","weekendClose":"19:00","holidayOpen":"08:00","holidayClose":"19:00","feeInfo":"무료","phone":"041-830-2284","updatedAt":"2025-12-12","sido":"충청남도","sigungu":"부여군","dong":"외산면"},{"name":"석탑로노상주차장","type":"공영","category":"노상","address":"충청남도 부여군 부여읍 의열로 15-20","lat":36.28090108,"lng":126.9144719,"totalSpaces":65,"isFree":true,"operatingDays":"평일+토요일+공휴일","weekdayOpen":"08:00","weekdayClose":"19:00","weekendOpen":"08:00","weekendClose":"19:00","holidayOpen":"08:00","holidayClose":"19:00","feeInfo":"무료","phone":"041-830-2284","updatedAt":"2025-12-12","sido":"충청남도","sigungu":"부여군","dong":"부여읍"},{"name":"사비로노상주차장","type":"공영","category":"노상","address":"충청남도 부여군 부여읍 나루터로 7","lat":36.28364338,"lng":126.9112279,"totalSpaces":63,"isFree":true,"operatingDays":"평일+토요일+공휴일","weekdayOpen":"08:00","weekdayClose":"19:00","weekendOpen":"08:00","weekendClose":"19:00","holidayOpen":"08:00","holidayClose":"19:00","feeInfo":"무료","phone":"041-830-2284","updatedAt":"2025-12-12","sido":"충청남도","sigungu":"부여군","dong":"부여읍"},{"name":"서동문화관주차장","type":"공영","category":"노외","address":"충청남도 부여군 부여읍 동남리 134","lat":36.27210731,"lng":126.9148036,"totalSpaces":60,"isFree":true,"operatingDays":"평일+토요일+공휴일","weekdayOpen":"08:00","weekdayClose":"19:00","weekendOpen":"08:00","weekendClose":"19:00","holidayOpen":"08:00","holidayClose":"19:00","feeInfo":"무료","phone":"041-830-2284","updatedAt":"2025-12-12","sido":"충청남도","sigungu":"부여군","dong":"부여읍"},{"name":"선화공원주차장","type":"공영","category":"노외","address":"충청남도 부여군 부여읍 동남리 597-10","lat":36.27562809,"lng":126.9006233,"totalSpaces":60,"isFree":true,"operatingDays":"평일+토요일+공휴일","weekdayOpen":"08:00","weekdayClose":"19:00","weekendOpen":"08:00","weekendClose":"19:00","holidayOpen":"08:00","holidayClose":"19:00","feeInfo":"무료","phone":"041-830-2284","updatedAt":"2025-12-12","sido":"충청남도","sigungu":"부여군","dong":"부여읍"},{"name":"서동공원(동문주차장)","type":"공영","category":"노외","address":"충청남도 부여군 부여읍 동남리 152-1","lat":36.27181906,"lng":126.9131871,"totalSpaces":59,"isFree":true,"operatingDays":"평일+토요일+공휴일","weekdayOpen":"08:00","weekdayClose":"19:00","weekendOpen":"08:00","weekendClose":"19:00","holidayOpen":"08:00","holidayClose":"19:00","feeInfo":"무료","phone":"041-830-2284","updatedAt":"2025-12-12","sido":"충청남도","sigungu":"부여군","dong":"부여읍"},{"name":"부소산 칼국수 앞","type":"공영","category":"노외","address":"충청남도 부여군 부여읍 관북리 96","lat":36.28372819,"lng":126.912451,"totalSpaces":55,"isFree":true,"operatingDays":"평일+토요일+공휴일","weekdayOpen":"08:00","weekdayClose":"19:00","weekendOpen":"08:00","weekendClose":"19:00","holidayOpen":"08:00","holidayClose":"19:00","feeInfo":"무료","phone":"041-830-2284","updatedAt":"2025-12-12","sido":"충청남도","sigungu":"부여군","dong":"부여읍"},{"name":"규암시장주차장","type":"공영","category":"노외","address":"충청남도 부여군 규암면 규암리 132-17","lat":36.27346434,"lng":126.8896268,"totalSpaces":47,"isFree":true,"operatingDays":"평일+토요일+공휴일","weekdayOpen":"08:00","weekdayClose":"19:00","weekendOpen":"08:00","weekendClose":"19:00","holidayOpen":"08:00","holidayClose":"19:00","feeInfo":"무료","phone":"041-830-2284","updatedAt":"2025-12-12","sido":"충청남도","sigungu":"부여군","dong":"규암면"},{"name":"계백로터리노상주차장","type":"공영","category":"노상","address":"충청남도 부여군 부여읍 의열로 15-20","lat":36.28090108,"lng":126.9144719,"totalSpaces":43,"isFree":true,"operatingDays":"평일+토요일+공휴일","weekdayOpen":"08:00","weekdayClose":"19:00","weekendOpen":"08:00","weekendClose":"19:00","holidayOpen":"08:00","holidayClose":"19:00","feeInfo":"무료","phone":"041-830-2284","updatedAt":"2025-12-12","sido":"충청남도","sigungu":"부여군","dong":"부여읍"},{"name":"구드래조각공원주차장","type":"공영","category":"노외","address":"충청남도 부여군 부여읍 나루터로 57","lat":36.28721832,"lng":126.9081397,"totalSpaces":40,"isFree":true,"operatingDays":"평일+토요일+공휴일","weekdayOpen":"08:00","weekdayClose":"19:00","weekendOpen":"08:00","weekendClose":"19:00","holidayOpen":"08:00","holidayClose":"19:00","feeInfo":"무료","phone":"041-830-2284","updatedAt":"2025-12-12","sido":"충청남도","sigungu":"부여군","dong":"부여읍"},{"name":"성왕로터리노상주차장","type":"공영","category":"노상","address":"충청남도 부여군 부여읍 나루터로 7","lat":36.28364338,"lng":126.9112279,"totalSpaces":39,"isFree":true,"operatingDays":"평일+토요일+공휴일","weekdayOpen":"08:00","weekdayClose":"19:00","weekendOpen":"08:00","weekendClose":"19:00","holidayOpen":"08:00","holidayClose":"19:00","feeInfo":"무료","phone":"041-830-2284","updatedAt":"2025-12-12","sido":"충청남도","sigungu":"부여군","dong":"부여읍"},{"name":"힐튼장 앞","type":"공영","category":"노외","address":"충청남도 부여군 부여읍 관북리 89","lat":36.28381641,"lng":126.912931,"totalSpaces":36,"isFree":true,"operatingDays":"평일+토요일+공휴일","weekdayOpen":"08:00","weekdayClose":"19:00","weekendOpen":"08:00","weekendClose":"19:00","holidayOpen":"08:00","holidayClose":"19:00","feeInfo":"무료","phone":"041-830-2284","updatedAt":"2025-12-12","sido":"충청남도","sigungu":"부여군","dong":"부여읍"},{"name":"구아4리 쌈지주차장","type":"공영","category":"노외","address":"충청남도 부여군 부여읍 구아리 374","lat":36.28211528,"lng":126.9084439,"totalSpaces":34,"isFree":true,"operatingDays":"평일+토요일+공휴일","weekdayOpen":"08:00","weekdayClose":"19:00","weekendOpen":"08:00","weekendClose":"19:00","holidayOpen":"08:00","holidayClose":"19:00","feeInfo":"무료","phone":"041-830-2284","updatedAt":"2025-12-12","sido":"충청남도","sigungu":"부여군","dong":"부여읍"},{"name":"장암주차장","type":"공영","category":"노외","address":"충청남도 부여군 장암면 장암로 14","lat":36.2435512,"lng":126.8842776,"totalSpaces":33,"isFree":true,"operatingDays":"평일+토요일+공휴일","weekdayOpen":"08:00","weekdayClose":"19:00","weekendOpen":"08:00","weekendClose":"19:00","holidayOpen":"08:00","holidayClose":"19:00","feeInfo":"무료","phone":"041-830-2284","updatedAt":"2025-12-12","sido":"충청남도","sigungu":"부여군","dong":"장암면"},{"name":"임천시장주차장","type":"공영","category":"노외","address":"충청남도 부여군 임천면 성흥로 99-1","lat":36.189647,"lng":126.8925241,"totalSpaces":32,"isFree":true,"operatingDays":"평일+토요일+공휴일","weekdayOpen":"08:00","weekdayClose":"19:00","weekendOpen":"08:00","weekendClose":"19:00","holidayOpen":"08:00","holidayClose":"19:00","feeInfo":"무료","phone":"041-830-2284","updatedAt":"2025-12-12","sido":"충청남도","sigungu":"부여군","dong":"임천면"},{"name":"향우정식당 앞","type":"공영","category":"노외","address":"충청남도 부여군 부여읍 구아리 2-63","lat":36.28568881,"lng":126.9097449,"totalSpaces":32,"isFree":true,"operatingDays":"평일+토요일+공휴일","weekdayOpen":"08:00","weekdayClose":"19:00","weekendOpen":"08:00","weekendClose":"19:00","holidayOpen":"08:00","holidayClose":"19:00","feeInfo":"무료","phone":"041-830-2284","updatedAt":"2025-12-12","sido":"충청남도","sigungu":"부여군","dong":"부여읍"},{"name":"고분군주차장","type":"공영","category":"노외","address":"충청남도 부여군 부여읍 능산리 399-1","lat":36.2761441,"lng":126.9417258,"totalSpaces":32,"isFree":true,"operatingDays":"평일+토요일+공휴일","weekdayOpen":"08:00","weekdayClose":"19:00","weekendOpen":"08:00","weekendClose":"19:00","holidayOpen":"08:00","holidayClose":"19:00","feeInfo":"무료","phone":"041-830-2284","updatedAt":"2025-12-12","sido":"충청남도","sigungu":"부여군","dong":"부여읍"},{"name":"임천면 공영주차장","type":"공영","category":"노외","address":"충청남도 부여군 임천면 성흥로 83","lat":36.19103858,"lng":126.8919538,"totalSpaces":31,"isFree":true,"operatingDays":"평일+토요일+공휴일","weekdayOpen":"08:00","weekdayClose":"19:00","weekendOpen":"08:00","weekendClose":"19:00","holidayOpen":"08:00","holidayClose":"19:00","feeInfo":"무료","phone":"041-830-2284","updatedAt":"2025-12-12","sido":"충청남도","sigungu":"부여군","dong":"임천면"},{"name":"정림로 노상주차장2","type":"공영","category":"노상","address":"충청남도 부여군 부여읍 정림로 55-12","lat":36.27867008,"lng":126.9122236,"totalSpaces":30,"isFree":true,"operatingDays":"평일+토요일+공휴일","weekdayOpen":"08:00","weekdayClose":"19:00","weekendOpen":"08:00","weekendClose":"19:00","holidayOpen":"08:00","holidayClose":"19:00","feeInfo":"무료","phone":"041-830-2284","updatedAt":"2025-12-12","sido":"충청남도","sigungu":"부여군","dong":"부여읍"},{"name":"규암주차장","type":"공영","category":"노외","address":"충청남도 부여군 규암면 규암리 152-1","lat":36.27494158,"lng":126.89013,"totalSpaces":30,"isFree":true,"operatingDays":"평일+토요일+공휴일","weekdayOpen":"08:00","weekdayClose":"19:00","weekendOpen":"08:00","weekendClose":"19:00","holidayOpen":"08:00","holidayClose":"19:00","feeInfo":"무료","phone":"041-830-2284","updatedAt":"2025-12-12","sido":"충청남도","sigungu":"부여군","dong":"규암면"},{"name":"정림로 노상주차장1","type":"공영","category":"노상","address":"충청남도 부여군 부여읍 사비로 64","lat":36.27829665,"lng":126.910791,"totalSpaces":29,"isFree":true,"operatingDays":"평일+토요일+공휴일","weekdayOpen":"08:00","weekdayClose":"19:00","weekendOpen":"08:00","weekendClose":"19:00","holidayOpen":"08:00","holidayClose":"19:00","feeInfo":"무료","phone":"041-830-2284","updatedAt":"2025-12-12","sido":"충청남도","sigungu":"부여군","dong":"부여읍"},{"name":"옥산주차장","type":"공영","category":"노외","address":"충청남도 부여군 옥산면 대백제로 336-6","lat":36.1918212,"lng":126.7336988,"totalSpaces":28,"isFree":true,"operatingDays":"평일+토요일+공휴일","weekdayOpen":"08:00","weekdayClose":"19:00","weekendOpen":"08:00","weekendClose":"19:00","holidayOpen":"08:00","holidayClose":"19:00","feeInfo":"무료","phone":"041-830-2284","updatedAt":"2025-12-12","sido":"충청남도","sigungu":"부여군","dong":"옥산면"},{"name":"반월로, 나성로","type":"공영","category":"노상","address":"충청남도 부여군 부여읍 구아리 64","lat":36.2837353,"lng":126.9102495,"totalSpaces":25,"isFree":true,"operatingDays":"평일+토요일+공휴일","weekdayOpen":"08:00","weekdayClose":"19:00","weekendOpen":"08:00","weekendClose":"19:00","holidayOpen":"08:00","holidayClose":"19:00","feeInfo":"무료","phone":"041-830-2284","updatedAt":"2025-12-12","sido":"충청남도","sigungu":"부여군","dong":"부여읍"},{"name":"논티주차장","type":"공영","category":"노외","address":"충청남도 부여군 구룡면 논티리 104-3","lat":36.24384266,"lng":126.806945,"totalSpaces":25,"isFree":true,"operatingDays":"평일+토요일+공휴일","weekdayOpen":"08:00","weekdayClose":"19:00","weekendOpen":"08:00","weekendClose":"19:00","holidayOpen":"08:00","holidayClose":"19:00","feeInfo":"무료","phone":"041-830-2284","updatedAt":"2025-12-12","sido":"충청남도","sigungu":"부여군","dong":"구룡면"},{"name":"응평주차장","type":"공영","category":"노외","address":"충청남도 부여군 초촌면 초촌로 23","lat":36.26363463,"lng":127.0206919,"totalSpaces":24,"isFree":true,"operatingDays":"평일+토요일+공휴일","weekdayOpen":"08:00","weekdayClose":"19:00","weekendOpen":"08:00","weekendClose":"19:00","holidayOpen":"08:00","holidayClose":"19:00","feeInfo":"무료","phone":"041-830-2284","updatedAt":"2025-12-12","sido":"충청남도","sigungu":"부여군","dong":"초촌면"},{"name":"부여시장 공영주차장","type":"공영","category":"노외","address":"충청남도 부여군 부여읍 구아리 411-2","lat":36.28079719,"lng":126.9077483,"totalSpaces":24,"isFree":true,"operatingDays":"평일+토요일+공휴일","weekdayOpen":"08:00","weekdayClose":"19:00","weekendOpen":"08:00","weekendClose":"19:00","holidayOpen":"08:00","holidayClose":"19:00","feeInfo":"무료","phone":"041-830-2269","updatedAt":"2025-12-12","sido":"충청남도","sigungu":"부여군","dong":"부여읍"},{"name":"나성로 노상주차장","type":"공영","category":"노상","address":"충청남도 부여군 부여읍 나성로 88","lat":36.28268048,"lng":126.9076818,"totalSpaces":22,"isFree":true,"operatingDays":"평일+토요일+공휴일","weekdayOpen":"08:00","weekdayClose":"19:00","weekendOpen":"08:00","weekendClose":"19:00","holidayOpen":"08:00","holidayClose":"19:00","feeInfo":"무료","phone":"041-830-2284","updatedAt":"2025-12-12","sido":"충청남도","sigungu":"부여군","dong":"부여읍"},{"name":"사비로","type":"공영","category":"노상","address":"충청남도 부여군 부여읍 의열로 15-20","lat":36.28090108,"lng":126.9144719,"totalSpaces":21,"isFree":true,"operatingDays":"평일+토요일+공휴일","weekdayOpen":"08:00","weekdayClose":"19:00","weekendOpen":"08:00","weekendClose":"19:00","holidayOpen":"08:00","holidayClose":"19:00","feeInfo":"무료","phone":"041-830-2284","updatedAt":"2025-12-12","sido":"충청남도","sigungu":"부여군","dong":"부여읍"},{"name":"계백로, 사비로30번길","type":"공영","category":"노상","address":"충청남도 부여군 부여읍 사비로30번길 8","lat":36.27514707,"lng":126.9113866,"totalSpaces":21,"isFree":true,"operatingDays":"평일+토요일+공휴일","weekdayOpen":"08:00","weekdayClose":"19:00","weekendOpen":"08:00","weekendClose":"19:00","holidayOpen":"08:00","holidayClose":"19:00","feeInfo":"무료","phone":"041-830-2284","updatedAt":"2025-12-12","sido":"충청남도","sigungu":"부여군","dong":"부여읍"},{"name":"수북정주차장","type":"공영","category":"노외","address":"충청남도 부여군 규암면 규암리 145-13","lat":36.27578578,"lng":126.8900503,"totalSpaces":21,"isFree":true,"operatingDays":"평일+토요일+공휴일","weekdayOpen":"08:00","weekdayClose":"19:00","weekendOpen":"08:00","weekendClose":"19:00","holidayOpen":"08:00","holidayClose":"19:00","feeInfo":"무료","phone":"041-830-2284","updatedAt":"2025-12-12","sido":"충청남도","sigungu":"부여군","dong":"규암면"},{"name":"세도시장주차장","type":"공영","category":"노외","address":"충청남도 부여군 세도면 간대리 135-1","lat":36.16983047,"lng":126.946205,"totalSpaces":20,"isFree":true,"operatingDays":"평일+토요일+공휴일","weekdayOpen":"08:00","weekdayClose":"19:00","weekendOpen":"08:00","weekendClose":"19:00","holidayOpen":"08:00","holidayClose":"19:00","feeInfo":"무료","phone":"041-830-2284","updatedAt":"2025-12-12","sido":"충청남도","sigungu":"부여군","dong":"세도면"},{"name":"장승골 쌈지주차장","type":"공영","category":"노외","address":"충청남도 부여군 부여읍 구교리 212-5","lat":36.28148154,"lng":126.9053049,"totalSpaces":20,"isFree":true,"operatingDays":"평일+토요일+공휴일","weekdayOpen":"08:00","weekdayClose":"19:00","weekendOpen":"08:00","weekendClose":"19:00","holidayOpen":"08:00","holidayClose":"19:00","feeInfo":"무료","phone":"041-830-2284","updatedAt":"2025-12-12","sido":"충청남도","sigungu":"부여군","dong":"부여읍"},{"name":"구아주차장","type":"공영","category":"노외","address":"충청남도 부여군 부여읍 구아리 111","lat":36.28490098,"lng":126.9080164,"totalSpaces":20,"isFree":true,"operatingDays":"평일+토요일+공휴일","weekdayOpen":"08:00","weekdayClose":"19:00","weekendOpen":"08:00","weekendClose":"19:00","holidayOpen":"08:00","holidayClose":"19:00","feeInfo":"무료","phone":"041-830-2284","updatedAt":"2025-12-12","sido":"충청남도","sigungu":"부여군","dong":"부여읍"},{"name":"사비로54번길","type":"공영","category":"노상","address":"충청남도 부여군 부여읍 사비로 50","lat":36.27708258,"lng":126.9110578,"totalSpaces":19,"isFree":true,"operatingDays":"평일+토요일+공휴일","weekdayOpen":"08:00","weekdayClose":"19:00","weekendOpen":"08:00","weekendClose":"19:00","holidayOpen":"08:00","holidayClose":"19:00","feeInfo":"무료","phone":"041-830-2284","updatedAt":"2025-12-12","sido":"충청남도","sigungu":"부여군","dong":"부여읍"},{"name":"군사리하상주차장","type":"공영","category":"노외","address":"충청남도 부여군 임천면 성흥로 121","lat":36.18791172,"lng":126.8941287,"totalSpaces":16,"isFree":true,"operatingDays":"평일+토요일+공휴일","weekdayOpen":"08:00","weekdayClose":"19:00","weekendOpen":"08:00","weekendClose":"19:00","holidayOpen":"08:00","holidayClose":"19:00","feeInfo":"무료","phone":"041-830-2284","updatedAt":"2025-12-12","sido":"충청남도","sigungu":"부여군","dong":"임천면"},{"name":"구아3리 제1쌈지주차장","type":"공영","category":"노외","address":"충청남도 부여군 부여읍 구아리 161-20","lat":36.280091,"lng":126.9088505,"totalSpaces":15,"isFree":true,"operatingDays":"평일+토요일+공휴일","weekdayOpen":"08:00","weekdayClose":"19:00","weekendOpen":"08:00","weekendClose":"19:00","holidayOpen":"08:00","holidayClose":"19:00","feeInfo":"무료","phone":"041-830-2284","updatedAt":"2025-12-12","sido":"충청남도","sigungu":"부여군","dong":"부여읍"},{"name":"은산시장주차장","type":"공영","category":"노외","address":"충청남도 부여군 은산면 충의로676번길 8","lat":36.30883803,"lng":126.8535457,"totalSpaces":15,"isFree":true,"operatingDays":"평일+토요일+공휴일","weekdayOpen":"08:00","weekdayClose":"19:00","weekendOpen":"08:00","weekendClose":"19:00","holidayOpen":"08:00","holidayClose":"19:00","feeInfo":"무료","phone":"041-830-2284","updatedAt":"2025-12-12","sido":"충청남도","sigungu":"부여군","dong":"은산면"},{"name":"계백로 노상주차장","type":"공영","category":"노상","address":"충청남도 부여군 부여읍 석탑로 13","lat":36.27722674,"lng":126.9124725,"totalSpaces":14,"isFree":true,"operatingDays":"평일+토요일+공휴일","weekdayOpen":"08:00","weekdayClose":"19:00","weekendOpen":"08:00","weekendClose":"19:00","holidayOpen":"08:00","holidayClose":"19:00","feeInfo":"무료","phone":"041-830-2284","updatedAt":"2025-12-12","sido":"충청남도","sigungu":"부여군","dong":"부여읍"},{"name":"외산시장주차장","type":"공영","category":"노외","address":"충청남도 부여군 외산면 만수로 229","lat":36.30137767,"lng":126.7054507,"totalSpaces":14,"isFree":true,"operatingDays":"평일+토요일+공휴일","weekdayOpen":"08:00","weekdayClose":"19:00","weekendOpen":"08:00","weekendClose":"19:00","holidayOpen":"08:00","holidayClose":"19:00","feeInfo":"무료","phone":"041-830-2284","updatedAt":"2025-12-12","sido":"충청남도","sigungu":"부여군","dong":"외산면"},{"name":"천당주차장","type":"공영","category":"노외","address":"충청남도 부여군 충화면 천당리 191-2","lat":36.18237395,"lng":126.8223898,"totalSpaces":12,"isFree":true,"operatingDays":"평일+토요일+공휴일","weekdayOpen":"08:00","weekdayClose":"19:00","weekendOpen":"08:00","weekendClose":"19:00","holidayOpen":"08:00","holidayClose":"19:00","feeInfo":"무료","phone":"041-830-2284","updatedAt":"2025-12-12","sido":"충청남도","sigungu":"부여군","dong":"충화면"},{"name":"능안골주차장","type":"공영","category":"노외","address":"충청남도 부여군 부여읍 능산리 141-3","lat":36.27142636,"lng":126.9673978,"totalSpaces":10,"isFree":true,"operatingDays":"평일+토요일+공휴일","weekdayOpen":"08:00","weekdayClose":"19:00","weekendOpen":"08:00","weekendClose":"19:00","holidayOpen":"08:00","holidayClose":"19:00","feeInfo":"무료","phone":"041-830-2284","updatedAt":"2025-12-12","sido":"충청남도","sigungu":"부여군","dong":"부여읍"},{"name":"홍산시장주차장","type":"공영","category":"노외","address":"충청남도 부여군 홍산면 남촌리 148","lat":36.21437038,"lng":126.7570137,"totalSpaces":10,"isFree":true,"operatingDays":"평일+토요일+공휴일","weekdayOpen":"08:00","weekdayClose":"19:00","weekendOpen":"08:00","weekendClose":"19:00","holidayOpen":"08:00","holidayClose":"19:00","feeInfo":"무료","phone":"041-830-2284","updatedAt":"2025-12-12","sido":"충청남도","sigungu":"부여군","dong":"홍산면"},{"name":"의열로 노상주차장","type":"공영","category":"노상","address":"충청남도 부여군 부여읍 석탑로 52","lat":36.28074829,"lng":126.9129242,"totalSpaces":9,"isFree":true,"operatingDays":"평일+토요일+공휴일","weekdayOpen":"08:00","weekdayClose":"19:00","weekendOpen":"08:00","weekendClose":"19:00","holidayOpen":"08:00","holidayClose":"19:00","feeInfo":"무료","phone":"041-830-2284","updatedAt":"2025-12-12","sido":"충청남도","sigungu":"부여군","dong":"부여읍"},{"name":"동남리 공영주차장(620-2)","type":"공영","category":"노외","address":"충청남도 부여군 부여읍 동남리 620-2","lat":36.27627201,"lng":126.9147131,"totalSpaces":8,"isFree":true,"operatingDays":"평일+토요일+공휴일","weekdayOpen":"08:00","weekdayClose":"19:00","weekendOpen":"08:00","weekendClose":"19:00","holidayOpen":"08:00","holidayClose":"19:00","feeInfo":"무료","phone":"041-830-2284","updatedAt":"2025-12-12","sido":"충청남도","sigungu":"부여군","dong":"부여읍"},{"name":"구아1리 쌈지주차장","type":"공영","category":"노외","address":"충청남도 부여군 부여읍 중앙로5번길 24","lat":36.28252148,"lng":126.911455,"totalSpaces":6,"isFree":true,"operatingDays":"평일+토요일+공휴일","weekdayOpen":"08:00","weekdayClose":"19:00","weekendOpen":"08:00","weekendClose":"19:00","holidayOpen":"08:00","holidayClose":"19:00","feeInfo":"무료","phone":"041-830-2284","updatedAt":"2025-12-12","sido":"충청남도","sigungu":"부여군","dong":"부여읍"},{"name":"동남리 공영주차장(503-3)","type":"공영","category":"노외","address":"충청남도 부여군 부여읍 동남리 503-3","lat":36.27670502,"lng":126.9083621,"totalSpaces":3,"isFree":true,"operatingDays":"평일+토요일+공휴일","weekdayOpen":"08:00","weekdayClose":"19:00","weekendOpen":"08:00","weekendClose":"19:00","holidayOpen":"08:00","holidayClose":"19:00","feeInfo":"무료","phone":"041-830-2284","updatedAt":"2025-12-12","sido":"충청남도","sigungu":"부여군","dong":"부여읍"},{"name":"사비로72번길","type":"공영","category":"노상","address":"충청남도 부여군 부여읍 사비로72번길 18","lat":36.27888467,"lng":126.9122438,"totalSpaces":3,"isFree":true,"operatingDays":"평일+토요일+공휴일","weekdayOpen":"08:00","weekdayClose":"19:00","weekendOpen":"08:00","weekendClose":"19:00","holidayOpen":"08:00","holidayClose":"19:00","feeInfo":"무료","phone":"041-830-2284","updatedAt":"2025-12-12","sido":"충청남도","sigungu":"부여군","dong":"부여읍"},{"name":"부여 공영주차타워","type":"공영","category":"노외","address":"충청남도 부여군 부여읍 사비로72번길 5-46","lat":36.27947966,"lng":126.9115471,"totalSpaces":205,"isFree":false,"operatingDays":"평일+토요일+공휴일","weekdayOpen":"09:00","weekdayClose":"18:00","weekendOpen":"09:00","weekendClose":"18:00","holidayOpen":"09:00","holidayClose":"18:00","feeInfo":"기본 30분 500원 / 추가 10분당 300원","phone":"041-830-2283","updatedAt":"2025-12-12","sido":"충청남도","sigungu":"부여군","dong":"부여읍"},{"name":"휴양림주차장","type":"공영","category":"노외","address":"충청남도 부여군 외산면 휴양로 107","lat":36.33854208,"lng":126.7119325,"totalSpaces":65,"isFree":false,"operatingDays":"평일+토요일+공휴일","weekdayOpen":"08:00","weekdayClose":"19:00","weekendOpen":"08:00","weekendClose":"19:00","holidayOpen":"08:00","holidayClose":"19:00","feeInfo":"기본 0분 3,000원","phone":"041-830-2284","updatedAt":"2025-12-12","sido":"충청남도","sigungu":"부여군","dong":"외산면"},{"name":"중앙시장부설주차장","type":"공영","category":"부설","address":"충청남도 부여군 부여읍 구아리 179-2","lat":36.28212986,"lng":126.911853,"totalSpaces":42,"isFree":false,"operatingDays":"평일+토요일+공휴일","weekdayOpen":"09:00","weekdayClose":"18:00","weekendOpen":"09:00","weekendClose":"18:00","holidayOpen":"09:00","holidayClose":"18:00","feeInfo":"기본 30분 500원 / 추가 10분당 300원","phone":"041-830-2269","updatedAt":"2025-12-12","sido":"충청남도","sigungu":"부여군","dong":"부여읍"},{"name":"사비로유료주차장","type":"공영","category":"노상","address":"충청남도 부여군 부여읍 나루터로 7","lat":36.28364338,"lng":126.9112279,"totalSpaces":32,"isFree":false,"operatingDays":"평일+토요일+공휴일","weekdayOpen":"09:00","weekdayClose":"18:00","weekendOpen":"09:00","weekendClose":"18:00","holidayOpen":"09:00","holidayClose":"18:00","feeInfo":"기본 30분 500원 / 추가 10분당 300원","phone":"041-830-2284","updatedAt":"2025-12-12","sido":"충청남도","sigungu":"부여군","dong":"부여읍"},{"name":"구아3리 제2쌈지주차장","type":"공영","category":"노외","address":"충청남도 부여군 부여읍 구아리 343","lat":36.28184417,"lng":126.9097711,"totalSpaces":18,"isFree":false,"operatingDays":"평일+토요일+공휴일","weekdayOpen":"09:00","weekdayClose":"18:00","weekendOpen":"09:00","weekendClose":"18:00","holidayOpen":"09:00","holidayClose":"18:00","feeInfo":"기본 0분 500원 / 추가 10분당 300원","phone":"041-830-2284","updatedAt":"2025-12-12","sido":"충청남도","sigungu":"부여군","dong":"부여읍"}]}