{"sido":"충청남도","sigungu":"예산군","totalCount":45,"validCount":45,"items":[{"name":"광시면 공영주차장","type":"공영","category":"노외","address":"충청남도 예산군 광시면 광시리 77-3","lat":36.55004227,"lng":126.7745153,"totalSpaces":170,"isFree":true,"operatingDays":"평일+토요일+공휴일","weekdayOpen":"00:00","weekdayClose":"23:59","weekendOpen":"00:00","weekendClose":"23:59","holidayOpen":"00:00","holidayClose":"23:59","feeInfo":"무료","phone":"041-339-7699","updatedAt":"2024-08-07","sido":"충청남도","sigungu":"예산군","dong":"광시면"},{"name":"도시개발사업 구역 내 공영주차장","type":"공영","category":"노외","address":"충청남도 예산군 예산읍 예산리 776","lat":36.6805098,"lng":126.8465065,"totalSpaces":100,"isFree":true,"operatingDays":"평일+토요일+공휴일","weekdayOpen":"00:00","weekdayClose":"23:59","weekendOpen":"00:00","weekendClose":"23:59","holidayOpen":"00:00","holidayClose":"23:59","feeInfo":"무료","phone":"041-339-7699","updatedAt":"2024-08-07","sido":"충청남도","sigungu":"예산군","dong":"예산읍"},{"name":"고덕면 대천1리 1지구 공영주차장","type":"공영","category":"노외","address":"충청남도 예산군 고덕면 고덕중앙로 66-6","lat":36.74537207,"lng":126.7044968,"totalSpaces":67,"isFree":true,"operatingDays":"평일+토요일+공휴일","weekdayOpen":"00:00","weekdayClose":"23:59","weekendOpen":"00:00","weekendClose":"23:59","holidayOpen":"00:00","holidayClose":"23:59","feeInfo":"무료","phone":"041-339-7699","updatedAt":"2024-08-07","sido":"충청남도","sigungu":"예산군","dong":"고덕면"},{"name":"신성아파트 인근 공영주차장","type":"공영","category":"노외","address":"충청남도 예산군 예산읍 사직동길 43-8","lat":36.68330573,"lng":126.8457364,"totalSpaces":64,"isFree":true,"operatingDays":"평일+토요일+공휴일","weekdayOpen":"00:00","weekdayClose":"23:59","weekendOpen":"00:00","weekendClose":"23:59","holidayOpen":"00:00","holidayClose":"23:59","feeInfo":"무료","phone":"041-339-7699","updatedAt":"2024-08-07","sido":"충청남도","sigungu":"예산군","dong":"예산읍"},{"name":"수철리 공영주차장","type":"공영","category":"노외","address":"충청남도 예산군 예산읍 수철길 307","lat":36.7091528,"lng":126.8740901,"totalSpaces":63,"isFree":true,"operatingDays":"평일+토요일+공휴일","weekdayOpen":"00:00","weekdayClose":"23:59","weekendOpen":"00:00","weekendClose":"23:59","holidayOpen":"00:00","holidayClose":"23:59","feeInfo":"무료","phone":"041-339-7699","updatedAt":"2024-08-07","sido":"충청남도","sigungu":"예산군","dong":"예산읍"},{"name":"신례원 공영주차장","type":"공영","category":"노외","address":"충청남도 예산군 예산읍 신례원리 247-8","lat":36.72752415,"lng":126.8463393,"totalSpaces":55,"isFree":true,"operatingDays":"평일+토요일+공휴일","weekdayOpen":"00:00","weekdayClose":"23:59","weekendOpen":"00:00","weekendClose":"23:59","holidayOpen":"00:00","holidayClose":"23:59","feeInfo":"무료","phone":"041-339-7699","updatedAt":"2024-08-07","sido":"충청남도","sigungu":"예산군","dong":"예산읍"},{"name":"신청사앞 공영주차장","type":"공영","category":"노외","address":"충청남도 예산군 예산읍 예산리 791","lat":36.67925785,"lng":126.8444365,"totalSpaces":50,"isFree":true,"operatingDays":"평일+토요일+공휴일","weekdayOpen":"00:00","weekdayClose":"23:59","weekendOpen":"00:00","weekendClose":"23:59","holidayOpen":"00:00","holidayClose":"23:59","feeInfo":"무료","phone":"041-339-7699","updatedAt":"2024-08-07","sido":"충청남도","sigungu":"예산군","dong":"예산읍"},{"name":"우방아파트앞 공영주차장","type":"공영","category":"노외","address":"충청남도 예산군 예산읍 산성리 656","lat":36.69391257,"lng":126.8349813,"totalSpaces":49,"isFree":true,"operatingDays":"평일+토요일+공휴일","weekdayOpen":"00:00","weekdayClose":"23:59","weekendOpen":"00:00","weekendClose":"23:59","holidayOpen":"00:00","holidayClose":"23:59","feeInfo":"무료","phone":"041-339-7699","updatedAt":"2024-08-07","sido":"충청남도","sigungu":"예산군","dong":"예산읍"},{"name":"퇴계로오토바이 옆 공영주차장","type":"공영","category":"노외","address":"충청남도 예산군 예산읍 주교리 280-3","lat":36.68187358,"lng":126.8281766,"totalSpaces":48,"isFree":true,"operatingDays":"평일+토요일+공휴일","weekdayOpen":"00:00","weekdayClose":"23:59","weekendOpen":"00:00","weekendClose":"23:59","holidayOpen":"00:00","holidayClose":"23:59","feeInfo":"무료","phone":"041-339-7699","updatedAt":"2024-08-07","sido":"충청남도","sigungu":"예산군","dong":"예산읍"},{"name":"덕산면 공영주차장","type":"공영","category":"노외","address":"충청남도 예산군 덕산면 덕산온천로 422-3","lat":36.70356401,"lng":126.6672953,"totalSpaces":46,"isFree":true,"operatingDays":"평일+토요일+공휴일","weekdayOpen":"00:00","weekdayClose":"23:59","weekendOpen":"00:00","weekendClose":"23:59","holidayOpen":"00:00","holidayClose":"23:59","feeInfo":"무료","phone":"041-339-7699","updatedAt":"2024-08-07","sido":"충청남도","sigungu":"예산군","dong":"덕산면"},{"name":"삽교읍공영주차장","type":"공영","category":"노외","address":"충청남도 예산군 삽교읍 두리 575-55","lat":36.68812433,"lng":126.7387144,"totalSpaces":45,"isFree":true,"operatingDays":"평일+토요일+공휴일","weekdayOpen":"00:00","weekdayClose":"23:59","weekendOpen":"00:00","weekendClose":"23:59","holidayOpen":"00:00","holidayClose":"23:59","feeInfo":"무료","phone":"041-339-7699","updatedAt":"2024-08-07","sido":"충청남도","sigungu":"예산군","dong":"삽교읍"},{"name":"예산교육지원청 입구 공영주차장","type":"공영","category":"노외","address":"충청남도 예산군 예산읍 역전로126번길 14","lat":36.68973333,"lng":126.8316521,"totalSpaces":44,"isFree":true,"operatingDays":"평일+토요일+공휴일","weekdayOpen":"00:00","weekdayClose":"23:59","weekendOpen":"00:00","weekendClose":"23:59","holidayOpen":"00:00","holidayClose":"23:59","feeInfo":"무료","phone":"041-339-7699","updatedAt":"2024-08-07","sido":"충청남도","sigungu":"예산군","dong":"예산읍"},{"name":"산성리 게이트볼장 앞 공영주차장","type":"공영","category":"노외","address":"충청남도 예산군 예산읍 산성리 235-3","lat":36.69124731,"lng":126.8292616,"totalSpaces":44,"isFree":true,"operatingDays":"평일+토요일+공휴일","weekdayOpen":"00:00","weekdayClose":"23:59","weekendOpen":"00:00","weekendClose":"23:59","holidayOpen":"00:00","holidayClose":"23:59","feeInfo":"무료","phone":"041-339-7699","updatedAt":"2024-08-07","sido":"충청남도","sigungu":"예산군","dong":"예산읍"},{"name":"예산읍공영주차장","type":"공영","category":"노외","address":"충청남도 예산군 예산읍 임성로1번길 9","lat":36.67818948,"lng":126.8488299,"totalSpaces":43,"isFree":true,"operatingDays":"평일+토요일+공휴일","weekdayOpen":"00:00","weekdayClose":"23:59","weekendOpen":"00:00","weekendClose":"23:59","holidayOpen":"00:00","holidayClose":"23:59","feeInfo":"무료","phone":"041-339-7699","updatedAt":"2024-08-07","sido":"충청남도","sigungu":"예산군","dong":"예산읍"},{"name":"구)중앙극장 공영주차장","type":"공영","category":"노외","address":"충청남도 예산군 예산읍 예산로 225","lat":36.68014372,"lng":126.8498129,"totalSpaces":35,"isFree":true,"operatingDays":"평일+토요일+공휴일","weekdayOpen":"00:00","weekdayClose":"23:59","weekendOpen":"00:00","weekendClose":"23:59","holidayOpen":"00:00","holidayClose":"23:59","feeInfo":"무료","phone":"041-339-7699","updatedAt":"2024-08-07","sido":"충청남도","sigungu":"예산군","dong":"예산읍"},{"name":"내포신도시 공영주차장","type":"공영","category":"노외","address":"충청남도 예산군 삽교읍 목리 1183","lat":36.66086686,"lng":126.6821857,"totalSpaces":32,"isFree":true,"operatingDays":"평일+토요일+공휴일","weekdayOpen":"00:00","weekdayClose":"23:59","weekendOpen":"00:00","weekendClose":"23:59","holidayOpen":"00:00","holidayClose":"23:59","feeInfo":"무료","phone":"041-339-7699","updatedAt":"2024-08-07","sido":"충청남도","sigungu":"예산군","dong":"삽교읍"},{"name":"덕산 또순네 식당 앞 공영주차장","type":"공영","category":"노외","address":"충청남도 예산군 덕산면 읍내리 283-2","lat":36.70557717,"lng":126.6707242,"totalSpaces":32,"isFree":true,"operatingDays":"평일+토요일+공휴일","weekdayOpen":"00:00","weekdayClose":"23:59","weekendOpen":"00:00","weekendClose":"23:59","holidayOpen":"00:00","holidayClose":"23:59","feeInfo":"무료","phone":"041-339-7699","updatedAt":"2024-08-07","sido":"충청남도","sigungu":"예산군","dong":"덕산면"},{"name":"주교리 공영주차장","type":"공영","category":"노외","address":"충청남도 예산군 예산읍 주교리 243-2","lat":36.68365648,"lng":126.8296086,"totalSpaces":31,"isFree":true,"operatingDays":"평일+토요일+공휴일","weekdayOpen":"00:00","weekdayClose":"23:59","weekendOpen":"00:00","weekendClose":"23:59","holidayOpen":"00:00","holidayClose":"23:59","feeInfo":"무료","phone":"041-339-7699","updatedAt":"2024-08-07","sido":"충청남도","sigungu":"예산군","dong":"예산읍"},{"name":"예산학생수영장 앞 공영주차장","type":"공영","category":"노외","address":"충청남도 예산군 예산읍 산성리 865","lat":36.69036487,"lng":126.8335947,"totalSpaces":30,"isFree":true,"operatingDays":"평일+토요일+공휴일","weekdayOpen":"00:00","weekdayClose":"23:59","weekendOpen":"00:00","weekendClose":"23:59","holidayOpen":"00:00","holidayClose":"23:59","feeInfo":"무료","phone":"041-339-7699","updatedAt":"2024-08-07","sido":"충청남도","sigungu":"예산군","dong":"예산읍"},{"name":"예산초등학교 뒤 공영주차장","type":"공영","category":"노외","address":"충청남도 예산군 예산읍 예산리 74-1","lat":36.684166911,"lng":126.8503833458,"totalSpaces":27,"isFree":true,"operatingDays":"평일+토요일+공휴일","weekdayOpen":"00:00","weekdayClose":"23:59","weekendOpen":"00:00","weekendClose":"23:59","holidayOpen":"00:00","holidayClose":"23:59","feeInfo":"무료","phone":"041-339-7699","updatedAt":"2024-08-07","sido":"충청남도","sigungu":"예산군","dong":"예산읍"},{"name":"버스터미널 앞 공영주차장","type":"공영","category":"노외","address":"충청남도 예산군 예산읍 산성리 640-1","lat":36.69442023,"lng":126.8317587,"totalSpaces":27,"isFree":true,"operatingDays":"평일+토요일+공휴일","weekdayOpen":"00:00","weekdayClose":"23:59","weekendOpen":"00:00","weekendClose":"23:59","holidayOpen":"00:00","holidayClose":"23:59","feeInfo":"무료","phone":"041-339-7699","updatedAt":"2024-08-07","sido":"충청남도","sigungu":"예산군","dong":"예산읍"},{"name":"예산리 공영주차장","type":"공영","category":"노외","address":"충청남도 예산군 예산읍 신흥길35번길 8-2","lat":36.67808841,"lng":126.845908,"totalSpaces":25,"isFree":true,"operatingDays":"평일+토요일+공휴일","weekdayOpen":"00:00","weekdayClose":"23:59","weekendOpen":"00:00","weekendClose":"23:59","holidayOpen":"00:00","holidayClose":"23:59","feeInfo":"무료","phone":"041-339-7699","updatedAt":"2024-08-07","sido":"충청남도","sigungu":"예산군","dong":"예산읍"},{"name":"금오초교후문 공영주차장","type":"공영","category":"노외","address":"충청남도 예산군 예산읍 산성리 794","lat":36.69110302,"lng":126.8333541,"totalSpaces":23,"isFree":true,"operatingDays":"평일+토요일+공휴일","weekdayOpen":"00:00","weekdayClose":"23:59","weekendOpen":"00:00","weekendClose":"23:59","holidayOpen":"00:00","holidayClose":"23:59","feeInfo":"무료","phone":"041-339-7699","updatedAt":"2024-08-07","sido":"충청남도","sigungu":"예산군","dong":"예산읍"},{"name":"대회리 공영주차장","type":"공영","category":"노외","address":"충청남도 예산군 예산읍 관양산길 31-4","lat":36.67531863,"lng":126.8486664,"totalSpaces":23,"isFree":true,"operatingDays":"평일+토요일+공휴일","weekdayOpen":"00:00","weekdayClose":"23:59","weekendOpen":"00:00","weekendClose":"23:59","holidayOpen":"00:00","holidayClose":"23:59","feeInfo":"무료","phone":"041-339-7699","updatedAt":"2024-08-07","sido":"충청남도","sigungu":"예산군","dong":"예산읍"},{"name":"산성리 고래사냥 옆 공영주차장","type":"공영","category":"노외","address":"충청남도 예산군 예산읍 산성리 755-1","lat":36.69223522,"lng":126.8344929,"totalSpaces":21,"isFree":true,"operatingDays":"평일+토요일+공휴일","weekdayOpen":"00:00","weekdayClose":"23:59","weekendOpen":"00:00","weekendClose":"23:59","holidayOpen":"00:00","holidayClose":"23:59","feeInfo":"무료","phone":"041-339-7699","updatedAt":"2024-08-07","sido":"충청남도","sigungu":"예산군","dong":"예산읍"},{"name":"덕산천주교회 앞 공영주차장","type":"공영","category":"노외","address":"충청남도 예산군 덕산면 덕산온천로 436","lat":36.70387013,"lng":126.6684939,"totalSpaces":21,"isFree":true,"operatingDays":"평일+토요일+공휴일","weekdayOpen":"00:00","weekdayClose":"23:59","weekendOpen":"00:00","weekendClose":"23:59","holidayOpen":"00:00","holidayClose":"23:59","feeInfo":"무료","phone":"041-339-7699","updatedAt":"2024-08-07","sido":"충청남도","sigungu":"예산군","dong":"덕산면"},{"name":"태성빌딩 뒤 공영주차장","type":"공영","category":"노외","address":"충청남도 예산군 예산읍 예산리 131-2","lat":36.68179435,"lng":126.8502295,"totalSpaces":20,"isFree":true,"operatingDays":"평일+토요일+공휴일","weekdayOpen":"00:00","weekdayClose":"23:59","weekendOpen":"00:00","weekendClose":"23:59","holidayOpen":"00:00","holidayClose":"23:59","feeInfo":"무료","phone":"041-339-7699","updatedAt":"2024-08-07","sido":"충청남도","sigungu":"예산군","dong":"예산읍"},{"name":"예산공립어린이집인근 공영주차장","type":"공영","category":"노외","address":"충청남도 예산군 예산읍 교남길 23","lat":36.67750934,"lng":126.8509981,"totalSpaces":20,"isFree":true,"operatingDays":"평일+토요일+공휴일","weekdayOpen":"00:00","weekdayClose":"23:59","weekendOpen":"00:00","weekendClose":"23:59","holidayOpen":"00:00","holidayClose":"23:59","feeInfo":"무료","phone":"041-339-7699","updatedAt":"2024-08-07","sido":"충청남도","sigungu":"예산군","dong":"예산읍"},{"name":"고덕면사무소 옆 공영주차장","type":"공영","category":"노외","address":"충청남도 예산군 고덕면 대천리 704","lat":36.74507198,"lng":126.702916,"totalSpaces":18,"isFree":true,"operatingDays":"평일+토요일+공휴일","weekdayOpen":"00:00","weekdayClose":"23:59","weekendOpen":"00:00","weekendClose":"23:59","holidayOpen":"00:00","holidayClose":"23:59","feeInfo":"무료","phone":"041-339-7699","updatedAt":"2024-08-07","sido":"충청남도","sigungu":"예산군","dong":"고덕면"},{"name":"산성리 성당뒤 공영주차장","type":"공영","category":"노외","address":"충청남도 예산군 예산읍 산성리 334-6","lat":36.68912602,"lng":126.831691,"totalSpaces":16,"isFree":true,"operatingDays":"평일+토요일+공휴일","weekdayOpen":"00:00","weekdayClose":"23:59","weekendOpen":"00:00","weekendClose":"23:59","holidayOpen":"00:00","holidayClose":"23:59","feeInfo":"무료","phone":"041-339-7699","updatedAt":"2024-08-07","sido":"충청남도","sigungu":"예산군","dong":"예산읍"},{"name":"예산4리 공영주차장","type":"공영","category":"노외","address":"충청남도 예산군 예산읍 예산리 304-3","lat":36.6775306,"lng":126.8507774,"totalSpaces":16,"isFree":true,"operatingDays":"평일+토요일+공휴일","weekdayOpen":"00:00","weekdayClose":"23:59","weekendOpen":"00:00","weekendClose":"23:59","holidayOpen":"00:00","holidayClose":"23:59","feeInfo":"무료","phone":"041-339-7699","updatedAt":"2024-08-07","sido":"충청남도","sigungu":"예산군","dong":"예산읍"},{"name":"예산읍 예산리 공영주차장(구 중앙극장 뒤)","type":"공영","category":"노외","address":"충청남도 예산군 예산읍 예산리 158","lat":36.68047905,"lng":126.8505548,"totalSpaces":15,"isFree":true,"operatingDays":"평일+토요일+공휴일","weekdayOpen":"00:00","weekdayClose":"23:59","weekendOpen":"00:00","weekendClose":"23:59","holidayOpen":"00:00","holidayClose":"23:59","feeInfo":"무료","phone":"041-339-7699","updatedAt":"2024-08-07","sido":"충청남도","sigungu":"예산군","dong":"예산읍"},{"name":"주교지하차도 옆 공영주차장","type":"공영","category":"노외","address":"충청남도 예산군 예산읍 주교리 278-3","lat":36.68284206,"lng":126.8282673,"totalSpaces":15,"isFree":true,"operatingDays":"평일+토요일+공휴일","weekdayOpen":"00:00","weekdayClose":"23:59","weekendOpen":"00:00","weekendClose":"23:59","holidayOpen":"00:00","holidayClose":"23:59","feeInfo":"무료","phone":"041-339-7699","updatedAt":"2024-08-07","sido":"충청남도","sigungu":"예산군","dong":"예산읍"},{"name":"양평해장국 옆 공영주차장","type":"공영","category":"노외","address":"충청남도 예산군 예산읍 아리랑로 14-8","lat":36.68591492,"lng":126.830757,"totalSpaces":15,"isFree":true,"operatingDays":"평일+토요일+공휴일","weekdayOpen":"00:00","weekdayClose":"23:59","weekendOpen":"00:00","weekendClose":"23:59","holidayOpen":"00:00","holidayClose":"23:59","feeInfo":"무료","phone":"041-339-7699","updatedAt":"2024-08-07","sido":"충청남도","sigungu":"예산군","dong":"예산읍"},{"name":"군청앞진도화원앞 공영주차장","type":"공영","category":"노외","address":"충청남도 예산군 예산읍 예산리 581-3","lat":36.6815063,"lng":126.8484346,"totalSpaces":15,"isFree":true,"operatingDays":"평일+토요일+공휴일","weekdayOpen":"00:00","weekdayClose":"23:59","weekendOpen":"00:00","weekendClose":"23:59","holidayOpen":"00:00","holidayClose":"23:59","feeInfo":"무료","phone":"041-339-7699","updatedAt":"2024-08-07","sido":"충청남도","sigungu":"예산군","dong":"예산읍"},{"name":"주교리 공영주차장","type":"공영","category":"노외","address":"충청남도 예산군 예산읍 주교리 169-7","lat":36.68587686,"lng":126.8358094,"totalSpaces":14,"isFree":true,"operatingDays":"평일+토요일+공휴일","weekdayOpen":"00:00","weekdayClose":"23:59","weekendOpen":"00:00","weekendClose":"23:59","holidayOpen":"00:00","holidayClose":"23:59","feeInfo":"무료","phone":"041-339-7699","updatedAt":"2024-08-07","sido":"충청남도","sigungu":"예산군","dong":"예산읍"},{"name":"신동아아파트앞 공영주차장","type":"공영","category":"노외","address":"충청남도 예산군 예산읍 예산리 629-4","lat":36.6828216,"lng":126.8446614,"totalSpaces":11,"isFree":true,"operatingDays":"평일+토요일+공휴일","weekdayOpen":"00:00","weekdayClose":"23:59","weekendOpen":"00:00","weekendClose":"23:59","holidayOpen":"00:00","holidayClose":"23:59","feeInfo":"무료","phone":"041-339-7699","updatedAt":"2024-08-07","sido":"충청남도","sigungu":"예산군","dong":"예산읍"},{"name":"예산공판장 옆 공영주차장","type":"공영","category":"노외","address":"충청남도 예산군 예산읍임성로 38","lat":36.68163077,"lng":126.8496567,"totalSpaces":10,"isFree":true,"operatingDays":"평일+토요일+공휴일","weekdayOpen":"00:00","weekdayClose":"23:59","weekendOpen":"00:00","weekendClose":"23:59","holidayOpen":"00:00","holidayClose":"23:59","feeInfo":"무료","phone":"041-339-7699","updatedAt":"2024-08-07","sido":"충청남도","sigungu":"예산군","dong":"예산읍"},{"name":"예산 치안센터뒤 공영주차장","type":"공영","category":"노외","address":"충청남도 예산군 예산읍 예산로 194번길 21","lat":36.67939037,"lng":126.8485117,"totalSpaces":10,"isFree":true,"operatingDays":"평일+토요일+공휴일","weekdayOpen":"00:00","weekdayClose":"23:59","weekendOpen":"00:00","weekendClose":"23:59","holidayOpen":"00:00","holidayClose":"23:59","feeInfo":"무료","phone":"041-339-7699","updatedAt":"2024-08-07","sido":"충청남도","sigungu":"예산군","dong":"예산읍"},{"name":"문화동 인근 공영주차장","type":"공영","category":"노외","address":"충청남도 예산군 예산읍 주교리 151-1","lat":36.68340876,"lng":126.8359272,"totalSpaces":10,"isFree":true,"operatingDays":"평일+토요일+공휴일","weekdayOpen":"00:00","weekdayClose":"23:59","weekendOpen":"00:00","weekendClose":"23:59","holidayOpen":"00:00","holidayClose":"23:59","feeInfo":"무료","phone":"041-339-7699","updatedAt":"2024-08-07","sido":"충청남도","sigungu":"예산군","dong":"예산읍"},{"name":"백제식당뒤 공영주차장","type":"공영","category":"노외","address":"충청남도 예산군 예산읍 예산리 278-1","lat":36.67906968,"lng":126.8512358,"totalSpaces":10,"isFree":true,"operatingDays":"평일+토요일+공휴일","weekdayOpen":"00:00","weekdayClose":"23:59","weekendOpen":"00:00","weekendClose":"23:59","holidayOpen":"00:00","holidayClose":"23:59","feeInfo":"무료","phone":"041-339-7699","updatedAt":"2024-08-07","sido":"충청남도","sigungu":"예산군","dong":"예산읍"},{"name":"고덕면 대천1리 2지구 공영주차장","type":"공영","category":"노외","address":"충청남도 예산군 고덕면 대천2길 1","lat":36.74482406,"lng":126.7036115,"totalSpaces":9,"isFree":true,"operatingDays":"평일+토요일+공휴일","weekdayOpen":"00:00","weekdayClose":"23:59","weekendOpen":"00:00","weekendClose":"23:59","holidayOpen":"00:00","holidayClose":"23:59","feeInfo":"무료","phone":"041-339-7699","updatedAt":"2024-08-07","sido":"충청남도","sigungu":"예산군","dong":"고덕면"},{"name":"신례원 창소리 공영주차장","type":"공영","category":"노외","address":"충청남도 예산군 예산읍 창소리 69-2","lat":36.73030613,"lng":126.839565,"totalSpaces":7,"isFree":true,"operatingDays":"평일+토요일+공휴일","weekdayOpen":"00:00","weekdayClose":"23:59","weekendOpen":"00:00","weekendClose":"23:59","holidayOpen":"00:00","holidayClose":"23:59","feeInfo":"무료","phone":"041-339-7699","updatedAt":"2024-08-07","sido":"충청남도","sigungu":"예산군","dong":"예산읍"},{"name":"향천리 공영주차장","type":"공영","category":"노외","address":"충청남도 예산군 예산읍 향천리 138-6","lat":36.6827078,"lng":126.8519909,"totalSpaces":5,"isFree":true,"operatingDays":"평일+토요일+공휴일","weekdayOpen":"00:00","weekdayClose":"23:59","weekendOpen":"00:00","weekendClose":"23:59","holidayOpen":"00:00","holidayClose":"23:59","feeInfo":"무료","phone":"041-339-7699","updatedAt":"2024-08-07","sido":"충청남도","sigungu":"예산군","dong":"예산읍"},{"name":"덕산면 읍내2리 공영주차장","type":"공영","category":"노외","address":"충청남도 예산군 덕산면 읍내리 283-16","lat":36.705595,"lng":126.6715416,"totalSpaces":4,"isFree":true,"operatingDays":"평일+토요일+공휴일","weekdayOpen":"00:00","weekdayClose":"23:59","weekendOpen":"00:00","weekendClose":"23:59","holidayOpen":"00:00","holidayClose":"23:59","feeInfo":"무료","phone":"041-339-7699","updatedAt":"2024-08-07","sido":"충청남도","sigungu":"예산군","dong":"덕산면"}]}