{"sido":"충청남도","sigungu":"천안시","totalCount":105,"validCount":105,"items":[{"name":"광덕 제1공영주차장","type":"공영","category":"노외","address":"충청남도 천안시 동남구 광덕면 광풍로 264","lat":36.67465099,"lng":127.0536174,"totalSpaces":424,"isFree":true,"operatingDays":"평일+토요일+공휴일","weekdayOpen":"00:00","weekdayClose":"23:59","weekendOpen":"00:00","weekendClose":"23:59","holidayOpen":"00:00","holidayClose":"23:59","feeInfo":"무료","phone":"041-529-5120","updatedAt":"2025-11-28","sido":"충청남도","sigungu":"천안시","dong":""},{"name":"청수상업지구내 주차빌딩주차장","type":"공영","category":"노외","address":"충청남도 천안시 동남구 청수11로 12","lat":36.78249305,"lng":127.1536331,"totalSpaces":364,"isFree":true,"operatingDays":"평일+토요일+공휴일","weekdayOpen":"00:00","weekdayClose":"23:59","weekendOpen":"00:00","weekendClose":"23:59","holidayOpen":"00:00","holidayClose":"23:59","feeInfo":"무료","phone":"041-520-6000","updatedAt":"2025-11-28","sido":"충청남도","sigungu":"천안시","dong":""},{"name":"천안시청주차장","type":"공영","category":"부설","address":"충청남도 천안시 서북구 번영로 156","lat":36.81612841,"lng":127.1130483,"totalSpaces":348,"isFree":true,"operatingDays":"평일+토요일+공휴일","weekdayOpen":"00:00","weekdayClose":"23:59","weekendOpen":"00:00","weekendClose":"23:59","holidayOpen":"00:00","holidayClose":"23:59","feeInfo":"무료","phone":"041-521-5305","updatedAt":"2025-11-28","sido":"충청남도","sigungu":"천안시","dong":""},{"name":"서북구청 주차장","type":"공영","category":"부설","address":"충청남도 천안시 서북구 성거읍 봉주로 75","lat":36.87871381,"lng":127.1559972,"totalSpaces":249,"isFree":true,"operatingDays":"평일+토요일+공휴일","weekdayOpen":"00:00","weekdayClose":"23:59","weekendOpen":"00:00","weekendClose":"23:59","holidayOpen":"00:00","holidayClose":"23:59","feeInfo":"무료","phone":"041-521-6043","updatedAt":"2025-11-28","sido":"충청남도","sigungu":"천안시","dong":""},{"name":"성환문화회관주차장","type":"공영","category":"부설","address":"충청남도 천안시 서북구 성환읍 성진로 15","lat":36.91253596,"lng":127.1366796,"totalSpaces":170,"isFree":true,"operatingDays":"평일+토요일+공휴일","weekdayOpen":"00:00","weekdayClose":"23:59","weekendOpen":"00:00","weekendClose":"23:59","holidayOpen":"00:00","holidayClose":"23:59","feeInfo":"무료","phone":"041-521-3745","updatedAt":"2025-11-28","sido":"충청남도","sigungu":"천안시","dong":""},{"name":"광덕 제2공영주차장","type":"공영","category":"노외","address":"충청남도 천안시 동남구 광덕면 해수길 50","lat":36.67234277,"lng":127.0455523,"totalSpaces":151,"isFree":true,"operatingDays":"평일+토요일+공휴일","weekdayOpen":"00:00","weekdayClose":"23:59","weekendOpen":"00:00","weekendClose":"23:59","holidayOpen":"00:00","holidayClose":"23:59","feeInfo":"무료","phone":"041-529-5120","updatedAt":"2025-11-28","sido":"충청남도","sigungu":"천안시","dong":""},{"name":"안서 제1공영주차장","type":"공영","category":"노외","address":"충청남도 천안시 동남구 안서동 526-39","lat":36.837569,"lng":127.173361,"totalSpaces":121,"isFree":true,"operatingDays":"평일+토요일+공휴일","weekdayOpen":"00:00","weekdayClose":"23:59","weekendOpen":"00:00","weekendClose":"23:59","holidayOpen":"00:00","holidayClose":"23:59","feeInfo":"무료","phone":"041-529-5120","updatedAt":"2025-11-28","sido":"충청남도","sigungu":"천안시","dong":""},{"name":"병천 제1공영주차장","type":"공영","category":"노외","address":"충청남도 천안시 동남구 병천면 아우내순대길 22","lat":36.75965335,"lng":127.2981998,"totalSpaces":114,"isFree":true,"operatingDays":"평일+토요일+공휴일","weekdayOpen":"00:00","weekdayClose":"23:59","weekendOpen":"00:00","weekendClose":"23:59","holidayOpen":"00:00","holidayClose":"23:59","feeInfo":"무료","phone":"041-529-5120","updatedAt":"2025-11-28","sido":"충청남도","sigungu":"천안시","dong":""},{"name":"신용로 제1노상주차장","type":"공영","category":"노상","address":"충청남도 천안시 동남구 신용로 20","lat":36.80114649,"lng":127.1387965,"totalSpaces":95,"isFree":true,"operatingDays":"평일+토요일+공휴일","weekdayOpen":"00:00","weekdayClose":"23:59","weekendOpen":"00:00","weekendClose":"23:59","holidayOpen":"00:00","holidayClose":"23:59","feeInfo":"무료","phone":"041-529-5120","updatedAt":"2025-11-28","sido":"충청남도","sigungu":"천안시","dong":""},{"name":"농업기술센터주차장","type":"공영","category":"부설","address":"충청남도 천안시 동남구 목천읍 목천안터1길 15","lat":36.77550806,"lng":127.2078978,"totalSpaces":84,"isFree":true,"operatingDays":"평일+토요일+공휴일","weekdayOpen":"09:00","weekdayClose":"18:00","weekendOpen":"09:00","weekendClose":"18:00","holidayOpen":"09:00","holidayClose":"18:00","feeInfo":"무료","phone":"041-521-2901","updatedAt":"2025-11-28","sido":"충청남도","sigungu":"천안시","dong":""},{"name":"쌍용 제2공영주차장","type":"공영","category":"노외","address":"충청남도 천안시 서북구 쌍용동 655","lat":36.7979636962,"lng":127.1225367728,"totalSpaces":70,"isFree":true,"operatingDays":"평일+토요일+공휴일","weekdayOpen":"00:00","weekdayClose":"23:59","weekendOpen":"00:00","weekendClose":"23:59","holidayOpen":"00:00","holidayClose":"23:59","feeInfo":"무료","phone":"041-529-5120","updatedAt":"2025-11-28","sido":"충청남도","sigungu":"천안시","dong":""},{"name":"성정 제2공영주차장","type":"공영","category":"노외","address":"충청남도 천안시 서북구 서부대로 648-23","lat":36.82466276,"lng":127.1352845,"totalSpaces":69,"isFree":true,"operatingDays":"평일+토요일+공휴일","weekdayOpen":"00:00","weekdayClose":"23:59","weekendOpen":"00:00","weekendClose":"23:59","holidayOpen":"00:00","holidayClose":"23:59","feeInfo":"무료","phone":"041-529-5120","updatedAt":"2025-11-28","sido":"충청남도","sigungu":"천안시","dong":""},{"name":"유관순사우주차장","type":"공영","category":"부설","address":"충청남도 천안시 동남구 병천면 유관순길 38","lat":36.76009007,"lng":127.3083682,"totalSpaces":67,"isFree":true,"operatingDays":"평일+토요일+공휴일","weekdayOpen":"09:00","weekdayClose":"18:00","weekendOpen":"09:00","weekendClose":"18:00","holidayOpen":"09:00","holidayClose":"18:00","feeInfo":"무료","phone":"041-521-2823","updatedAt":"2025-11-28","sido":"충청남도","sigungu":"천안시","dong":""},{"name":"차돌로 제1노상주차장","type":"공영","category":"노상","address":"충청남도 천안시 동남구 다가동 471","lat":36.801800631,"lng":127.1382366236,"totalSpaces":64,"isFree":true,"operatingDays":"평일+토요일+공휴일","weekdayOpen":"00:00","weekdayClose":"23:59","weekendOpen":"00:00","weekendClose":"23:59","holidayOpen":"00:00","holidayClose":"23:59","feeInfo":"무료","phone":"041-529-5120","updatedAt":"2025-11-28","sido":"충청남도","sigungu":"천안시","dong":""},{"name":"봉명 제1공영주차장","type":"공영","category":"노외","address":"충청남도 천안시 동남구 봉명동 10-2","lat":36.803699,"lng":127.141079,"totalSpaces":62,"isFree":true,"operatingDays":"평일+토요일+공휴일","weekdayOpen":"00:00","weekdayClose":"23:59","weekendOpen":"00:00","weekendClose":"23:59","holidayOpen":"00:00","holidayClose":"23:59","feeInfo":"무료","phone":"041-529-5120","updatedAt":"2025-11-28","sido":"충청남도","sigungu":"천안시","dong":""},{"name":"성성 제1공영주차장","type":"공영","category":"노외","address":"충청남도 천안시 서북구 성성동 511-9","lat":36.83859055,"lng":127.1166418,"totalSpaces":62,"isFree":true,"operatingDays":"평일+토요일+공휴일","weekdayOpen":"00:00","weekdayClose":"23:59","weekendOpen":"00:00","weekendClose":"23:59","holidayOpen":"00:00","holidayClose":"23:59","feeInfo":"무료","phone":"041-529-5120","updatedAt":"2025-11-28","sido":"충청남도","sigungu":"천안시","dong":""},{"name":"직산읍사무소주차장","type":"공영","category":"부설","address":"충청남도 천안시 서북구 직산읍 삼은4길 2","lat":36.8790065,"lng":127.1504675,"totalSpaces":62,"isFree":true,"operatingDays":"평일+토요일+공휴일","weekdayOpen":"00:00","weekdayClose":"23:59","weekendOpen":"00:00","weekendClose":"23:59","holidayOpen":"00:00","holidayClose":"23:59","feeInfo":"무료","phone":"041-521-6818","updatedAt":"2025-11-28","sido":"충청남도","sigungu":"천안시","dong":""},{"name":"동남구청주차장","type":"공영","category":"부설","address":"충청남도 천안시 동남구 버들로 40","lat":36.80719083,"lng":127.1514651,"totalSpaces":58,"isFree":true,"operatingDays":"평일+토요일+공휴일","weekdayOpen":"00:00","weekdayClose":"23:59","weekendOpen":"00:00","weekendClose":"23:59","holidayOpen":"00:00","holidayClose":"23:59","feeInfo":"무료","phone":"041-521-4043","updatedAt":"2025-11-28","sido":"충청남도","sigungu":"천안시","dong":""},{"name":"사직 제1공영주차장","type":"공영","category":"노외","address":"충청남도 천안시 동남구 사직동 287-5","lat":36.79830415,"lng":127.148763,"totalSpaces":57,"isFree":true,"operatingDays":"평일+토요일+공휴일","weekdayOpen":"00:00","weekdayClose":"23:59","weekendOpen":"00:00","weekendClose":"23:59","holidayOpen":"00:00","holidayClose":"23:59","feeInfo":"무료","phone":"041-529-5120","updatedAt":"2025-11-28","sido":"충청남도","sigungu":"천안시","dong":""},{"name":"불당 제3공영주차장","type":"공영","category":"노외","address":"충청남도 천안시 서북구 불당동 910","lat":36.80528955,"lng":127.1080386,"totalSpaces":57,"isFree":true,"operatingDays":"평일+토요일+공휴일","weekdayOpen":"00:00","weekdayClose":"23:59","weekendOpen":"00:00","weekendClose":"23:59","holidayOpen":"00:00","holidayClose":"23:59","feeInfo":"무료","phone":"041-529-5120","updatedAt":"2025-11-28","sido":"충청남도","sigungu":"천안시","dong":""},{"name":"성정1동주민센터주차장","type":"공영","category":"부설","address":"충청남도 천안시 서북구 성정8길 5","lat":36.8179437,"lng":127.141326,"totalSpaces":56,"isFree":true,"operatingDays":"평일+토요일+공휴일","weekdayOpen":"00:00","weekdayClose":"23:59","weekendOpen":"00:00","weekendClose":"23:59","holidayOpen":"00:00","holidayClose":"23:59","feeInfo":"무료","phone":"041-521-6864","updatedAt":"2025-11-28","sido":"충청남도","sigungu":"천안시","dong":""},{"name":"성환읍사무소주차장","type":"공영","category":"부설","address":"충청남도 천안시 서북구 성환읍 성환13길 7","lat":36.9181614,"lng":127.1343912,"totalSpaces":56,"isFree":true,"operatingDays":"평일+토요일+공휴일","weekdayOpen":"00:00","weekdayClose":"23:59","weekendOpen":"00:00","weekendClose":"23:59","holidayOpen":"00:00","holidayClose":"23:59","feeInfo":"무료","phone":"041-521-5758","updatedAt":"2025-11-28","sido":"충청남도","sigungu":"천안시","dong":""},{"name":"쌍용역 제1공영주차장","type":"공영","category":"노외","address":"충청남도 천안시 서북구 쌍용동 409-2, 410-2","lat":36.794407,"lng":127.122591,"totalSpaces":54,"isFree":true,"operatingDays":"평일+토요일+공휴일","weekdayOpen":"00:00","weekdayClose":"23:59","weekendOpen":"00:00","weekendClose":"23:59","holidayOpen":"00:00","holidayClose":"23:59","feeInfo":"무료","phone":"041-529-5120","updatedAt":"2025-11-28","sido":"충청남도","sigungu":"천안시","dong":""},{"name":"성정1동공영주차장","type":"공영","category":"부설","address":"충청남도 천안시 서북구 선영7길 18-6","lat":36.81569429,"lng":127.1444851,"totalSpaces":52,"isFree":true,"operatingDays":"평일+토요일+공휴일","weekdayOpen":"00:00","weekdayClose":"23:59","weekendOpen":"00:00","weekendClose":"23:59","holidayOpen":"00:00","holidayClose":"23:59","feeInfo":"무료","phone":"041-521-6864","updatedAt":"2025-11-28","sido":"충청남도","sigungu":"천안시","dong":""},{"name":"두정문화회관주차장","type":"공영","category":"부설","address":"충청남도 천안시 서북구 봉정로 347","lat":36.83296339,"lng":127.1451493,"totalSpaces":52,"isFree":true,"operatingDays":"평일+토요일+공휴일","weekdayOpen":"00:00","weekdayClose":"23:59","weekendOpen":"00:00","weekendClose":"23:59","holidayOpen":"00:00","holidayClose":"23:59","feeInfo":"무료","phone":"041-521-3744","updatedAt":"2025-11-28","sido":"충청남도","sigungu":"천안시","dong":""},{"name":"쌍용 제6공영주차장","type":"공영","category":"노외","address":"충청남도 천안시 서북구 쌍용동 1566","lat":36.79230641,"lng":127.118594,"totalSpaces":52,"isFree":true,"operatingDays":"평일+토요일+공휴일","weekdayOpen":"00:00","weekdayClose":"23:59","weekendOpen":"00:00","weekendClose":"23:59","holidayOpen":"00:00","holidayClose":"23:59","feeInfo":"무료","phone":"041-529-5120","updatedAt":"2025-11-28","sido":"충청남도","sigungu":"천안시","dong":""},{"name":"쌍용도서관주차장","type":"공영","category":"부설","address":"충청남도 천안시 서북구 월봉4로 153","lat":36.80040792,"lng":127.1146208,"totalSpaces":50,"isFree":true,"operatingDays":"평일+토요일+공휴일","weekdayOpen":"08:00","weekdayClose":"22:00","weekendOpen":"08:00","weekendClose":"22:00","holidayOpen":"08:00","holidayClose":"22:00","feeInfo":"무료","phone":"041-521-3731","updatedAt":"2025-11-28","sido":"충청남도","sigungu":"천안시","dong":""},{"name":"성황로 제2노상주차장","type":"공영","category":"노상","address":"충청남도 천안시 동남구 원성동 610","lat":36.8119878656,"lng":127.1614814289,"totalSpaces":50,"isFree":true,"operatingDays":"평일+토요일+공휴일","weekdayOpen":"00:00","weekdayClose":"23:59","weekendOpen":"00:00","weekendClose":"23:59","holidayOpen":"00:00","holidayClose":"23:59","feeInfo":"무료","phone":"041-529-5120","updatedAt":"2025-11-28","sido":"충청남도","sigungu":"천안시","dong":""},{"name":"신방 제1공영주차장","type":"공영","category":"노외","address":"충청남도 천안시 동남구 신방동 1901","lat":36.773007,"lng":127.132113,"totalSpaces":49,"isFree":true,"operatingDays":"평일+토요일+공휴일","weekdayOpen":"00:00","weekdayClose":"23:59","weekendOpen":"00:00","weekendClose":"23:59","holidayOpen":"00:00","holidayClose":"23:59","feeInfo":"무료","phone":"041-529-5120","updatedAt":"2025-11-28","sido":"충청남도","sigungu":"천안시","dong":""},{"name":"성거읍사무소주차장","type":"공영","category":"부설","address":"충청남도 천안시 서북구 성거읍 봉주로 469","lat":36.87798796,"lng":127.1991297,"totalSpaces":49,"isFree":true,"operatingDays":"평일+토요일+공휴일","weekdayOpen":"09:00","weekdayClose":"18:00","weekendOpen":"09:00","weekendClose":"18:00","holidayOpen":"09:00","holidayClose":"18:00","feeInfo":"무료","phone":"041-521-6781","updatedAt":"2025-11-28","sido":"충청남도","sigungu":"천안시","dong":""},{"name":"성거 제1공영주차장","type":"공영","category":"노외","address":"충청남도 천안시 서북구 성거읍 천흥리 430-5","lat":36.872552,"lng":127.201385,"totalSpaces":47,"isFree":true,"operatingDays":"평일+토요일+공휴일","weekdayOpen":"00:00","weekdayClose":"23:59","weekendOpen":"00:00","weekendClose":"23:59","holidayOpen":"00:00","holidayClose":"23:59","feeInfo":"무료","phone":"041-529-5120","updatedAt":"2025-11-28","sido":"충청남도","sigungu":"천안시","dong":""},{"name":"두정도서관주차장","type":"공영","category":"부설","address":"충청남도 천안시 서북구 부성3길 9","lat":36.83459674,"lng":127.1346155,"totalSpaces":46,"isFree":true,"operatingDays":"평일+토요일+공휴일","weekdayOpen":"08:00","weekdayClose":"22:00","weekendOpen":"08:00","weekendClose":"22:00","holidayOpen":"08:00","holidayClose":"22:00","feeInfo":"무료","phone":"041-521-3733","updatedAt":"2025-11-28","sido":"충청남도","sigungu":"천안시","dong":""},{"name":"버들로 제1노상주차장","type":"공영","category":"노상","address":"충청남도 천안시 동남구 원성동 602","lat":36.80918163,"lng":127.1581915,"totalSpaces":45,"isFree":true,"operatingDays":"평일+토요일+공휴일","weekdayOpen":"00:00","weekdayClose":"23:59","weekendOpen":"00:00","weekendClose":"23:59","holidayOpen":"00:00","holidayClose":"23:59","feeInfo":"무료","phone":"041-529-5120","updatedAt":"2025-11-28","sido":"충청남도","sigungu":"천안시","dong":""},{"name":"시민문화여성회관주차장","type":"공영","category":"부설","address":"충청남도 천안시 서북구 성정중4길 29","lat":36.8273354,"lng":127.1362858,"totalSpaces":44,"isFree":true,"operatingDays":"평일+토요일+공휴일","weekdayOpen":"00:00","weekdayClose":"23:59","weekendOpen":"00:00","weekendClose":"23:59","holidayOpen":"00:00","holidayClose":"23:59","feeInfo":"무료","phone":"041-521-3741","updatedAt":"2025-11-28","sido":"충청남도","sigungu":"천안시","dong":""},{"name":"쌍용 제4공영주차장","type":"공영","category":"노외","address":"충청남도 천안시 서북구 쌍용동 2074","lat":36.7875699,"lng":127.1141843,"totalSpaces":44,"isFree":true,"operatingDays":"평일+토요일+공휴일","weekdayOpen":"00:00","weekdayClose":"23:59","weekendOpen":"00:00","weekendClose":"23:59","holidayOpen":"00:00","holidayClose":"23:59","feeInfo":"무료","phone":"041-529-5120","updatedAt":"2025-11-28","sido":"충청남도","sigungu":"천안시","dong":""},{"name":"쌍용대로 제1노상주차장","type":"공영","category":"노상","address":"충청남도 천안시 서북구 성정동 748","lat":36.81787109,"lng":127.1356868,"totalSpaces":43,"isFree":true,"operatingDays":"평일+토요일+공휴일","weekdayOpen":"00:00","weekdayClose":"23:59","weekendOpen":"00:00","weekendClose":"23:59","holidayOpen":"00:00","holidayClose":"23:59","feeInfo":"무료","phone":"041-529-5120","updatedAt":"2025-11-28","sido":"충청남도","sigungu":"천안시","dong":""},{"name":"아우내도서관주차장","type":"공영","category":"부설","address":"충청남도 천안시 동남구 병천면 병천2로 57","lat":36.76719291,"lng":127.3025835,"totalSpaces":41,"isFree":true,"operatingDays":"평일+토요일+공휴일","weekdayOpen":"08:00","weekdayClose":"22:00","weekendOpen":"08:00","weekendClose":"22:00","holidayOpen":"08:00","holidayClose":"22:00","feeInfo":"무료","phone":"041-521-3723","updatedAt":"2025-11-28","sido":"충청남도","sigungu":"천안시","dong":""},{"name":"유관순생가주차장","type":"공영","category":"부설","address":"충청남도 천안시 동남구 병천면 유관순생가길 18-1","lat":36.7571481,"lng":127.3167796,"totalSpaces":36,"isFree":true,"operatingDays":"평일+토요일+공휴일","weekdayOpen":"09:00","weekdayClose":"18:00","weekendOpen":"09:00","weekendClose":"18:00","holidayOpen":"09:00","holidayClose":"18:00","feeInfo":"무료","phone":"041-521-2823","updatedAt":"2025-11-28","sido":"충청남도","sigungu":"천안시","dong":""},{"name":"이동녕선생기념관주차장","type":"공영","category":"부설","address":"충청남도 천안시 동남구 목천읍 동리4길 35","lat":36.79072254,"lng":127.2385675,"totalSpaces":34,"isFree":true,"operatingDays":"평일+토요일+공휴일","weekdayOpen":"09:00","weekdayClose":"18:00","weekendOpen":"09:00","weekendClose":"18:00","holidayOpen":"09:00","holidayClose":"18:00","feeInfo":"무료","phone":"041-521-2823","updatedAt":"2025-11-28","sido":"충청남도","sigungu":"천안시","dong":""},{"name":"입장면사무소주차장","type":"공영","category":"부설","address":"충청남도 천안시 서북구 입장면 입장로 129","lat":36.91295639,"lng":127.2212251,"totalSpaces":32,"isFree":true,"operatingDays":"평일+토요일+공휴일","weekdayOpen":"00:00","weekdayClose":"23:59","weekendOpen":"00:00","weekendClose":"23:59","holidayOpen":"00:00","holidayClose":"23:59","feeInfo":"무료","phone":"041-521-6845","updatedAt":"2025-11-28","sido":"충청남도","sigungu":"천안시","dong":""},{"name":"병천면사무소주차장","type":"공영","category":"부설","address":"충청남도 천안시 동남구 병천면 병천2로 57","lat":36.76719291,"lng":127.3025835,"totalSpaces":32,"isFree":true,"operatingDays":"평일+토요일+공휴일","weekdayOpen":"00:00","weekdayClose":"23:59","weekendOpen":"00:00","weekendClose":"23:59","holidayOpen":"00:00","holidayClose":"23:59","feeInfo":"무료","phone":"041-521-6884","updatedAt":"2025-11-28","sido":"충청남도","sigungu":"천안시","dong":""},{"name":"목천읍사무소주차장","type":"공영","category":"부설","address":"충청남도 천안시 동남구 목천읍 서리1길 41-7","lat":36.78517959,"lng":127.2346095,"totalSpaces":30,"isFree":true,"operatingDays":"평일+토요일+공휴일","weekdayOpen":"09:00","weekdayClose":"18:00","weekendOpen":"09:00","weekendClose":"18:00","holidayOpen":"09:00","holidayClose":"22:00","feeInfo":"무료","phone":"041-521-4671","updatedAt":"2025-11-28","sido":"충청남도","sigungu":"천안시","dong":""},{"name":"신방도서관주차장","type":"공영","category":"부설","address":"충청남도 천안시 동남구 통정4로 7","lat":36.77441534,"lng":127.1307313,"totalSpaces":29,"isFree":true,"operatingDays":"평일+토요일+공휴일","weekdayOpen":"08:00","weekdayClose":"22:00","weekendOpen":"08:00","weekendClose":"22:00","holidayOpen":"08:00","holidayClose":"22:00","feeInfo":"무료","phone":"041-521-3724","updatedAt":"2025-11-28","sido":"충청남도","sigungu":"천안시","dong":""},{"name":"신방동주민센터주차장","type":"공영","category":"부설","address":"충청남도 천안시 동남구 천안천변길 129-41(신방동)","lat":36.78587053,"lng":127.1224907,"totalSpaces":29,"isFree":true,"operatingDays":"평일+토요일+공휴일","weekdayOpen":"09:00","weekdayClose":"22:00","weekendOpen":"09:00","weekendClose":"22:00","holidayOpen":"09:00","holidayClose":"22:00","feeInfo":"무료","phone":"041-521-4941","updatedAt":"2025-11-28","sido":"충청남도","sigungu":"천안시","dong":""},{"name":"불당 제4공영주차장","type":"공영","category":"노외","address":"충청남도 천안시 서북구 불당동 970","lat":36.8037354,"lng":127.108518,"totalSpaces":28,"isFree":true,"operatingDays":"평일+토요일+공휴일","weekdayOpen":"00:00","weekdayClose":"23:59","weekendOpen":"00:00","weekendClose":"23:59","holidayOpen":"00:00","holidayClose":"23:59","feeInfo":"무료","phone":"041-529-5120","updatedAt":"2025-11-28","sido":"충청남도","sigungu":"천안시","dong":""},{"name":"대흥로 제2노상주차장","type":"공영","category":"노상","address":"충청남도 천안시 동남구 사직동 321-4","lat":36.80294273,"lng":127.146164,"totalSpaces":28,"isFree":true,"operatingDays":"평일+토요일+공휴일","weekdayOpen":"00:00","weekdayClose":"23:59","weekendOpen":"00:00","weekendClose":"23:59","holidayOpen":"00:00","holidayClose":"23:59","feeInfo":"무료","phone":"041-529-5120","updatedAt":"2025-11-28","sido":"충청남도","sigungu":"천안시","dong":""},{"name":"성정로 제1노상주차장","type":"공영","category":"노상","address":"충청남도 천안시 서북구 성정로 75","lat":36.81441951,"lng":127.139401,"totalSpaces":27,"isFree":true,"operatingDays":"평일+토요일+공휴일","weekdayOpen":"00:00","weekdayClose":"23:59","weekendOpen":"00:00","weekendClose":"23:59","holidayOpen":"00:00","holidayClose":"23:59","feeInfo":"무료","phone":"041-529-5120","updatedAt":"2025-11-28","sido":"충청남도","sigungu":"천안시","dong":""},{"name":"광덕면사무소주차장","type":"공영","category":"부설","address":"충청남도 천안시 동남구 광덕면 신흥리3길 33","lat":36.69853981,"lng":127.1116009,"totalSpaces":27,"isFree":true,"operatingDays":"평일+토요일+공휴일","weekdayOpen":"09:00","weekdayClose":"18:00","weekendOpen":"09:00","weekendClose":"18:00","holidayOpen":"09:00","holidayClose":"18:00","feeInfo":"무료","phone":"041-521-4706","updatedAt":"2025-11-28","sido":"충청남도","sigungu":"천안시","dong":""},{"name":"성정 제3공영주차장","type":"공영","category":"노외","address":"충청남도 천안시 서북구 성정동 602-35","lat":36.81473768,"lng":127.142416,"totalSpaces":27,"isFree":true,"operatingDays":"평일+토요일+공휴일","weekdayOpen":"00:00","weekdayClose":"23:59","weekendOpen":"00:00","weekendClose":"23:59","holidayOpen":"00:00","holidayClose":"23:59","feeInfo":"무료","phone":"041-529-5120","updatedAt":"2025-11-28","sido":"충청남도","sigungu":"천안시","dong":""},{"name":"목천 제2공영주차장","type":"공영","category":"노외","address":"충청남도 천안시 동남구 목천면 서흥리 124-1","lat":36.806065,"lng":127.238488,"totalSpaces":25,"isFree":true,"operatingDays":"평일+토요일+공휴일","weekdayOpen":"00:00","weekdayClose":"23:59","weekendOpen":"00:00","weekendClose":"23:59","holidayOpen":"00:00","holidayClose":"23:59","feeInfo":"무료","phone":"041-529-5120","updatedAt":"2025-11-28","sido":"충청남도","sigungu":"천안시","dong":""},{"name":"성거 제2공영주차장","type":"공영","category":"노외","address":"충청남도 천안시 서북구 성거읍 성거길 95-1","lat":36.87410144,"lng":127.2013641,"totalSpaces":25,"isFree":true,"operatingDays":"평일+토요일+공휴일","weekdayOpen":"00:00","weekdayClose":"23:59","weekendOpen":"00:00","weekendClose":"23:59","holidayOpen":"00:00","holidayClose":"23:59","feeInfo":"무료","phone":"041-529-5120","updatedAt":"2025-11-28","sido":"충청남도","sigungu":"천안시","dong":""},{"name":"성환 제1공영주차장","type":"공영","category":"노외","address":"충청남도 천안시 서북구 성환읍 성환리 357-10","lat":36.91647011,"lng":127.131189,"totalSpaces":24,"isFree":true,"operatingDays":"평일+토요일+공휴일","weekdayOpen":"00:00","weekdayClose":"23:59","weekendOpen":"00:00","weekendClose":"23:59","holidayOpen":"00:00","holidayClose":"23:59","feeInfo":"무료","phone":"041-529-5120","updatedAt":"2025-11-28","sido":"충청남도","sigungu":"천안시","dong":""},{"name":"쌍용3동주차장","type":"공영","category":"부설","address":"충청남도 천안시 서북구 월봉로 138","lat":36.8029362,"lng":127.1191837,"totalSpaces":24,"isFree":true,"operatingDays":"평일+토요일+공휴일","weekdayOpen":"00:00","weekdayClose":"23:59","weekendOpen":"00:00","weekendClose":"23:59","holidayOpen":"00:00","holidayClose":"23:59","feeInfo":"무료","phone":"041-521-6945","updatedAt":"2025-11-28","sido":"충청남도","sigungu":"천안시","dong":""},{"name":"중앙도서관주차장","type":"공영","category":"부설","address":"충청남도 천안시 동남구 중앙로 118","lat":36.8091134,"lng":127.1535923,"totalSpaces":24,"isFree":true,"operatingDays":"평일+토요일+공휴일","weekdayOpen":"08:00","weekdayClose":"22:00","weekendOpen":"08:00","weekendClose":"22:00","holidayOpen":"08:00","holidayClose":"22:00","feeInfo":"무료","phone":"041-521-3721","updatedAt":"2025-11-28","sido":"충청남도","sigungu":"천안시","dong":""},{"name":"수신면사무소주차장","type":"공영","category":"부설","address":"충청남도 천안시 동남구 수신면 수신로 431","lat":36.7311552,"lng":127.2809647,"totalSpaces":24,"isFree":true,"operatingDays":"평일+토요일+공휴일","weekdayOpen":"00:00","weekdayClose":"23:59","weekendOpen":"00:00","weekendClose":"23:59","holidayOpen":"00:00","holidayClose":"23:59","feeInfo":"무료","phone":"041-521-4761","updatedAt":"2025-11-28","sido":"충청남도","sigungu":"천안시","dong":""},{"name":"북면 제1공영주차장","type":"공영","category":"노외","address":"충청남도 천안시 동남구 북면 박문수길 108","lat":36.77775914,"lng":127.2685935,"totalSpaces":23,"isFree":true,"operatingDays":"평일+토요일+공휴일","weekdayOpen":"00:00","weekdayClose":"23:59","weekendOpen":"00:00","weekendClose":"23:59","holidayOpen":"00:00","holidayClose":"23:59","feeInfo":"무료","phone":"041-529-5120","updatedAt":"2025-11-28","sido":"충청남도","sigungu":"천안시","dong":""},{"name":"동면사무소주차장","type":"공영","category":"부설","address":"충청남도 천안시 동남구 동면 동산1길 15","lat":36.7761603,"lng":127.3443628,"totalSpaces":23,"isFree":true,"operatingDays":"평일+토요일+공휴일","weekdayOpen":"09:00","weekdayClose":"18:00","weekendOpen":"09:00","weekendClose":"18:00","holidayOpen":"09:00","holidayClose":"22:00","feeInfo":"무료","phone":"041-521-4801","updatedAt":"2025-11-28","sido":"충청남도","sigungu":"천안시","dong":""},{"name":"성황로 제3노상주차장","type":"공영","category":"노상","address":"충청남도 천안시 동남구 원성25길 21","lat":36.81418927,"lng":127.162674,"totalSpaces":22,"isFree":true,"operatingDays":"평일+토요일+공휴일","weekdayOpen":"00:00","weekdayClose":"23:59","weekendOpen":"00:00","weekendClose":"23:59","holidayOpen":"00:00","holidayClose":"23:59","feeInfo":"무료","phone":"041-529-5120","updatedAt":"2025-11-28","sido":"충청남도","sigungu":"천안시","dong":""},{"name":"봉명 제2공영주차장","type":"공영","category":"노외","address":"충청남도 천안시 동남구 봉명동 20-27","lat":36.802751,"lng":127.138902,"totalSpaces":21,"isFree":true,"operatingDays":"평일+토요일+공휴일","weekdayOpen":"00:00","weekdayClose":"23:59","weekendOpen":"00:00","weekendClose":"23:59","holidayOpen":"00:00","holidayClose":"23:59","feeInfo":"무료","phone":"041-529-5120","updatedAt":"2025-11-28","sido":"충청남도","sigungu":"천안시","dong":""},{"name":"쌍용2동 주차장","type":"공영","category":"부설","address":"충청남도 천안시 서북구 쌍용14길 70","lat":36.7962244,"lng":127.1235022,"totalSpaces":21,"isFree":true,"operatingDays":"평일+토요일+공휴일","weekdayOpen":"00:00","weekdayClose":"23:59","weekendOpen":"00:00","weekendClose":"23:59","holidayOpen":"00:00","holidayClose":"23:59","feeInfo":"무료","phone":"041-521-6925","updatedAt":"2025-11-28","sido":"충청남도","sigungu":"천안시","dong":""},{"name":"신부문화회관주차장","type":"공영","category":"부설","address":"충청남도 천안시 서북구 신부2길 12","lat":36.8176597,"lng":127.1594536,"totalSpaces":20,"isFree":true,"operatingDays":"평일+토요일+공휴일","weekdayOpen":"00:00","weekdayClose":"23:59","weekendOpen":"00:00","weekendClose":"23:59","holidayOpen":"00:00","holidayClose":"23:59","feeInfo":"무료","phone":"041-521-3743","updatedAt":"2025-11-28","sido":"충청남도","sigungu":"천안시","dong":""},{"name":"쌍용 제5공영주차장","type":"공영","category":"노외","address":"충청남도 천안시 서북구 쌍용동 2114","lat":36.807032,"lng":127.117955,"totalSpaces":19,"isFree":true,"operatingDays":"평일+토요일+공휴일","weekdayOpen":"00:00","weekdayClose":"23:59","weekendOpen":"00:00","weekendClose":"23:59","holidayOpen":"00:00","holidayClose":"23:59","feeInfo":"무료","phone":"041-529-5120","updatedAt":"2025-11-28","sido":"충청남도","sigungu":"천안시","dong":""},{"name":"청룡동주민센터주차장","type":"공영","category":"부설","address":"충청남도 천안시 동남구 청수14로 99","lat":36.78607183,"lng":127.1567413,"totalSpaces":19,"isFree":true,"operatingDays":"평일+토요일+공휴일","weekdayOpen":"09:00","weekdayClose":"18:00","weekendOpen":"09:00","weekendClose":"18:00","holidayOpen":"09:00","holidayClose":"18:00","feeInfo":"무료","phone":"041-521-4564","updatedAt":"2025-11-28","sido":"충청남도","sigungu":"천안시","dong":""},{"name":"쌍용 제7공영주차장","type":"공영","category":"노외","address":"충청남도 천안시 서북구 쌍용동 1564","lat":36.79261341,"lng":127.117988,"totalSpaces":19,"isFree":true,"operatingDays":"평일+토요일+공휴일","weekdayOpen":"00:00","weekdayClose":"23:59","weekendOpen":"00:00","weekendClose":"23:59","holidayOpen":"00:00","holidayClose":"23:59","feeInfo":"무료","phone":"041-529-5120","updatedAt":"2025-11-28","sido":"충청남도","sigungu":"천안시","dong":""},{"name":"구성 제1공영주차장","type":"공영","category":"노외","address":"충청남도 천안시 동남구 대흥로 29","lat":36.79647634,"lng":127.1573648,"totalSpaces":18,"isFree":true,"operatingDays":"평일+토요일+공휴일","weekdayOpen":"00:00","weekdayClose":"23:59","weekendOpen":"00:00","weekendClose":"23:59","holidayOpen":"00:00","holidayClose":"23:59","feeInfo":"무료","phone":"041-529-5120","updatedAt":"2025-11-28","sido":"충청남도","sigungu":"천안시","dong":""},{"name":"중앙로 제1노상주차장","type":"공영","category":"노상","address":"충청남도 천안시 동남구 영성동 129","lat":36.8022472758,"lng":127.1528277,"totalSpaces":18,"isFree":true,"operatingDays":"평일+토요일+공휴일","weekdayOpen":"00:00","weekdayClose":"23:59","weekendOpen":"00:00","weekendClose":"23:59","holidayOpen":"00:00","holidayClose":"23:59","feeInfo":"무료","phone":"041-529-5120","updatedAt":"2025-11-28","sido":"충청남도","sigungu":"천안시","dong":""},{"name":"청당 제2공영주차장","type":"공영","category":"노외","address":"충청남도 천안시 동남구 청당동 567","lat":36.785089,"lng":127.1574072,"totalSpaces":17,"isFree":true,"operatingDays":"평일+토요일+공휴일","weekdayOpen":"00:00","weekdayClose":"23:59","weekendOpen":"00:00","weekendClose":"23:59","holidayOpen":"00:00","holidayClose":"23:59","feeInfo":"무료","phone":"041-529-5120","updatedAt":"2025-11-28","sido":"충청남도","sigungu":"천안시","dong":""},{"name":"성거도서관주차장","type":"공영","category":"부설","address":"충청남도 천안시 서북구 성거읍 천흥3길 3","lat":36.87162843,"lng":127.2010113,"totalSpaces":17,"isFree":true,"operatingDays":"평일+토요일+공휴일","weekdayOpen":"08:00","weekdayClose":"22:00","weekendOpen":"08:00","weekendClose":"22:00","holidayOpen":"08:00","holidayClose":"22:00","feeInfo":"무료","phone":"041-521-3734","updatedAt":"2025-11-28","sido":"충청남도","sigungu":"천안시","dong":""},{"name":"성정2동주민센터주차장","type":"공영","category":"부설","address":"충청남도 천안시 서북구 서부1길 57","lat":36.82385581,"lng":127.1374898,"totalSpaces":16,"isFree":true,"operatingDays":"평일+토요일+공휴일","weekdayOpen":"00:00","weekdayClose":"23:59","weekendOpen":"00:00","weekendClose":"23:59","holidayOpen":"00:00","holidayClose":"23:59","feeInfo":"무료","phone":"041-521-6884","updatedAt":"2025-11-28","sido":"충청남도","sigungu":"천안시","dong":""},{"name":"북면사무소주차장","type":"공영","category":"부설","address":"충청남도 천안시 동남구 북면 위례성로 724","lat":36.82747276,"lng":127.2732435,"totalSpaces":15,"isFree":true,"operatingDays":"평일+토요일+공휴일","weekdayOpen":"09:00","weekdayClose":"18:00","weekendOpen":"09:00","weekendClose":"18:00","holidayOpen":"09:00","holidayClose":"18:00","feeInfo":"무료","phone":"041-521-4724","updatedAt":"2025-11-28","sido":"충청남도","sigungu":"천안시","dong":""},{"name":"쌍용 제3공영주차장","type":"공영","category":"노외","address":"충청남도 천안시 서북구 쌍용동 1299","lat":36.8003095,"lng":127.1256807,"totalSpaces":13,"isFree":true,"operatingDays":"평일+토요일+공휴일","weekdayOpen":"00:00","weekdayClose":"23:59","weekendOpen":"00:00","weekendClose":"23:59","holidayOpen":"00:00","holidayClose":"23:59","feeInfo":"무료","phone":"041-529-5120","updatedAt":"2025-11-28","sido":"충청남도","sigungu":"천안시","dong":""},{"name":"신부 제3공영주차장","type":"공영","category":"노외","address":"충청남도 천안시 동남구 신부동 331-43","lat":36.820381,"lng":127.153829,"totalSpaces":13,"isFree":true,"operatingDays":"평일+토요일+공휴일","weekdayOpen":"00:00","weekdayClose":"23:59","weekendOpen":"00:00","weekendClose":"23:59","holidayOpen":"00:00","holidayClose":"23:59","feeInfo":"무료","phone":"041-529-5120","updatedAt":"2025-11-28","sido":"충청남도","sigungu":"천안시","dong":""},{"name":"북면 제2공영주차장","type":"공영","category":"노외","address":"충청남도 천안시 동남구 북면 박문수길 135-12","lat":36.77890447,"lng":127.2716407,"totalSpaces":13,"isFree":true,"operatingDays":"평일+토요일+공휴일","weekdayOpen":"00:00","weekdayClose":"23:59","weekendOpen":"00:00","weekendClose":"23:59","holidayOpen":"00:00","holidayClose":"23:59","feeInfo":"무료","phone":"041-529-5120","updatedAt":"2025-11-28","sido":"충청남도","sigungu":"천안시","dong":""},{"name":"부성1동주민센터주차장","type":"공영","category":"부설","address":"충청남도 천안시 서북구 부대중앙길 51","lat":36.8426114928,"lng":127.1522288,"totalSpaces":13,"isFree":true,"operatingDays":"평일+토요일+공휴일","weekdayOpen":"09:00","weekdayClose":"22:00","weekendOpen":"09:00","weekendClose":"22:00","holidayOpen":"09:00","holidayClose":"22:00","feeInfo":"무료","phone":"041-521-6981","updatedAt":"2025-11-28","sido":"충청남도","sigungu":"천안시","dong":""},{"name":"원성1동주민센터주차장","type":"공영","category":"부설","address":"충청남도 천안시 동남구 성황로 125","lat":36.81187124,"lng":127.163016,"totalSpaces":13,"isFree":true,"operatingDays":"평일+토요일+공휴일","weekdayOpen":"09:00","weekdayClose":"18:00","weekendOpen":"09:00","weekendClose":"18:00","holidayOpen":"09:00","holidayClose":"18:00","feeInfo":"무료","phone":"041-521-4863","updatedAt":"2025-11-28","sido":"충청남도","sigungu":"천안시","dong":""},{"name":"신부 제2공영주차장","type":"공영","category":"노외","address":"충청남도 천안시 동남구 신부동 77-26","lat":36.8139870352,"lng":127.160149,"totalSpaces":12,"isFree":true,"operatingDays":"평일+토요일+공휴일","weekdayOpen":"00:00","weekdayClose":"23:59","weekendOpen":"00:00","weekendClose":"23:59","holidayOpen":"00:00","holidayClose":"23:59","feeInfo":"무료","phone":"041-529-5120","updatedAt":"2025-11-28","sido":"충청남도","sigungu":"천안시","dong":""},{"name":"봉명동주민센터 주차장","type":"공영","category":"부설","address":"충청남도 천안시 동남구 봉정로 37","lat":36.8055391,"lng":127.1394121,"totalSpaces":12,"isFree":true,"operatingDays":"평일+토요일+공휴일","weekdayOpen":"09:00","weekdayClose":"22:00","weekendOpen":"09:00","weekendClose":"22:00","holidayOpen":"09:00","holidayClose":"22:00","feeInfo":"무료","phone":"041-521-4901","updatedAt":"2025-11-28","sido":"충청남도","sigungu":"천안시","dong":""},{"name":"성남면사무소주차장","type":"공영","category":"부설","address":"충청남도 천안시 동남구 성남면 신사대화로 149","lat":36.74222767,"lng":127.2369289,"totalSpaces":12,"isFree":true,"operatingDays":"평일+토요일+공휴일","weekdayOpen":"09:00","weekdayClose":"18:00","weekendOpen":"09:00","weekendClose":"18:00","holidayOpen":"09:00","holidayClose":"18:00","feeInfo":"무료","phone":"041-521-4741","updatedAt":"2025-11-28","sido":"충청남도","sigungu":"천안시","dong":""},{"name":"성정 제1공영주차장","type":"공영","category":"노외","address":"충청남도 천안시 서북구 성정동 175-1","lat":36.812871,"lng":127.145689,"totalSpaces":12,"isFree":true,"operatingDays":"평일+토요일+공휴일","weekdayOpen":"00:00","weekdayClose":"23:59","weekendOpen":"00:00","weekendClose":"23:59","holidayOpen":"00:00","holidayClose":"23:59","feeInfo":"무료","phone":"041-529-5120","updatedAt":"2025-11-28","sido":"충청남도","sigungu":"천안시","dong":""},{"name":"신안동주민센터주차장","type":"공영","category":"부설","address":"충청남도 천안시 동남구 먹거리11길 45","lat":36.81840257,"lng":127.1576052,"totalSpaces":11,"isFree":true,"operatingDays":"평일+토요일+공휴일","weekdayOpen":"00:00","weekdayClose":"23:59","weekendOpen":"00:00","weekendClose":"23:59","holidayOpen":"00:00","holidayClose":"23:59","feeInfo":"무료","phone":"041-521-4981","updatedAt":"2025-11-28","sido":"충청남도","sigungu":"천안시","dong":""},{"name":"성정1동주민자치센터주차장","type":"공영","category":"부설","address":"충청남도 천안시 서북구 성정7길 34","lat":36.8175221,"lng":127.1403271,"totalSpaces":10,"isFree":true,"operatingDays":"평일+토요일+공휴일","weekdayOpen":"09:00","weekdayClose":"18:00","weekendOpen":"09:00","weekendClose":"18:00","holidayOpen":"09:00","holidayClose":"18:00","feeInfo":"무료","phone":"041-521-6864","updatedAt":"2025-11-28","sido":"충청남도","sigungu":"천안시","dong":""},{"name":"쌍용1동 주차장","type":"공영","category":"부설","address":"충청남도 천안시 서북구 미라10길 21","lat":36.8040163,"lng":127.1305234,"totalSpaces":9,"isFree":true,"operatingDays":"평일+토요일+공휴일","weekdayOpen":"00:00","weekdayClose":"23:59","weekendOpen":"00:00","weekendClose":"23:59","holidayOpen":"00:00","holidayClose":"23:59","feeInfo":"무료","phone":"041-521-6901","updatedAt":"2025-11-28","sido":"충청남도","sigungu":"천안시","dong":""},{"name":"일봉동주민센터주차장","type":"공영","category":"부설","address":"충청남도 천안시 동남구 신용로 48","lat":36.80122533,"lng":127.1420521,"totalSpaces":8,"isFree":true,"operatingDays":"평일+토요일+공휴일","weekdayOpen":"09:00","weekdayClose":"22:00","weekendOpen":"09:00","weekendClose":"22:00","holidayOpen":"09:00","holidayClose":"22:00","feeInfo":"무료","phone":"041-521-4923","updatedAt":"2025-11-28","sido":"충청남도","sigungu":"천안시","dong":""},{"name":"부성2동주민센터주차장","type":"공영","category":"부설","address":"충청남도 천안시 서북구 부성7길 39-5","lat":36.83733587,"lng":127.1379223,"totalSpaces":6,"isFree":true,"operatingDays":"평일+토요일+공휴일","weekdayOpen":"09:00","weekdayClose":"18:00","weekendOpen":"09:00","weekendClose":"18:00","holidayOpen":"09:00","holidayClose":"18:00","feeInfo":"무료","phone":"041-521-6691","updatedAt":"2025-11-28","sido":"충청남도","sigungu":"천안시","dong":""},{"name":"조병옥박사생가주차장","type":"공영","category":"부설","address":"충청남도 천안시 동남구 병천면 유관순길 249","lat":36.75170776,"lng":127.3146145,"totalSpaces":6,"isFree":true,"operatingDays":"평일+토요일+공휴일","weekdayOpen":"09:00","weekdayClose":"18:00","weekendOpen":"09:00","weekendClose":"18:00","holidayOpen":"09:00","holidayClose":"18:00","feeInfo":"무료","phone":"041-521-2823","updatedAt":"2025-11-28","sido":"충청남도","sigungu":"천안시","dong":""},{"name":"중앙동주민센터주차장","type":"공영","category":"부설","address":"충청남도 천안시 동남구 원성천1길 17(영성동)","lat":36.80006272,"lng":127.1524177,"totalSpaces":5,"isFree":true,"operatingDays":"평일+토요일+공휴일","weekdayOpen":"00:00","weekdayClose":"23:59","weekendOpen":"00:00","weekendClose":"23:59","holidayOpen":"00:00","holidayClose":"23:59","feeInfo":"무료","phone":"041-521-4825","updatedAt":"2025-11-28","sido":"충청남도","sigungu":"천안시","dong":""},{"name":"신부제5공영주차장","type":"공영","category":"노외","address":"충청남도 천안시 동남구 먹거리1길 10","lat":36.8178099825,"lng":127.1535096,"totalSpaces":232,"isFree":false,"operatingDays":"평일+토요일+공휴일","weekdayOpen":"00:00","weekdayClose":"23:59","weekendOpen":"00:00","weekendClose":"23:59","holidayOpen":"00:00","holidayClose":"23:59","feeInfo":"기본 30분 0원 / 추가 10분당 200원","phone":"041-529-5120","updatedAt":"2025-11-28","sido":"충청남도","sigungu":"천안시","dong":""},{"name":"목천 캠핑카전용주차장","type":"공영","category":"노외","address":"충청남도 천안시 동남구 목천읍 운전리 503","lat":36.76214263,"lng":127.2273522,"totalSpaces":201,"isFree":false,"operatingDays":"평일+토요일+공휴일","weekdayOpen":"00:00","weekdayClose":"23:59","weekendOpen":"00:00","weekendClose":"23:59","holidayOpen":"00:00","holidayClose":"23:59","feeInfo":"기본 30분 0원 / 추가 10분당 100원","phone":"041-529-5120","updatedAt":"2025-11-28","sido":"충청남도","sigungu":"천안시","dong":""},{"name":"불당 제1공영주차장","type":"공영","category":"노외","address":"충청남도 천안시 서북구 검은들1길 15","lat":36.81122082,"lng":127.1095158,"totalSpaces":144,"isFree":false,"operatingDays":"평일+토요일+공휴일","weekdayOpen":"00:00","weekdayClose":"23:59","weekendOpen":"00:00","weekendClose":"23:59","holidayOpen":"00:00","holidayClose":"23:59","feeInfo":"기본 30분 0원 / 추가 10분당 200원","phone":"041-529-5120","updatedAt":"2025-11-28","sido":"충청남도","sigungu":"천안시","dong":""},{"name":"불당 제5공영주차장","type":"공영","category":"노외","address":"충청남도 천안시 서북구 불당25로 154","lat":36.81491719,"lng":127.1079523,"totalSpaces":130,"isFree":false,"operatingDays":"평일+토요일+공휴일","weekdayOpen":"00:00","weekdayClose":"23:59","weekendOpen":"00:00","weekendClose":"23:59","holidayOpen":"00:00","holidayClose":"23:59","feeInfo":"기본 30분 0원 / 추가 10분당 500원","phone":"041-529-5120","updatedAt":"2025-11-28","sido":"충청남도","sigungu":"천안시","dong":""},{"name":"문성동주민센터주차장","type":"공영","category":"부설","address":"충청남도 천안시 동남구 문화로 15","lat":36.8109412,"lng":127.1502833,"totalSpaces":115,"isFree":false,"operatingDays":"평일+토요일+공휴일","weekdayOpen":"09:00","weekdayClose":"23:59","weekendOpen":"09:00","weekendClose":"23:59","holidayOpen":"09:00","holidayClose":"20:00","feeInfo":"기본 30분 500원 / 추가 10분당 200원","phone":"041-521-4282","updatedAt":"2025-11-28","sido":"충청남도","sigungu":"천안시","dong":""},{"name":"쌍용 제1공영주차장","type":"공영","category":"노외","address":"충청남도 천안시 서북구 미라3길 16","lat":36.8010241,"lng":127.1308965,"totalSpaces":111,"isFree":false,"operatingDays":"평일+토요일+공휴일","weekdayOpen":"00:00","weekdayClose":"23:59","weekendOpen":"00:00","weekendClose":"23:59","holidayOpen":"00:00","holidayClose":"23:59","feeInfo":"기본 30분 0원 / 추가 10분당 200원","phone":"041-529-5120","updatedAt":"2025-11-28","sido":"충청남도","sigungu":"천안시","dong":""},{"name":"노태공원공영주차장","type":"공영","category":"노외","address":"충청남도 천안시 서북구 노태산로131","lat":36.838151262,"lng":127.1281753557,"totalSpaces":98,"isFree":false,"operatingDays":"평일+토요일+공휴일","weekdayOpen":"00:00","weekdayClose":"23:59","weekendOpen":"00:00","weekendClose":"23:59","holidayOpen":"00:00","holidayClose":"23:59","feeInfo":"기본 120분 0원 / 추가 10분당 200원","phone":"041-529-5001","updatedAt":"2025-11-28","sido":"충청남도","sigungu":"천안시","dong":""},{"name":"명동 공영주차장","type":"공영","category":"노외","address":"충청남도 천안시 동남구 명동길 36","lat":36.80637728,"lng":127.1487237,"totalSpaces":77,"isFree":false,"operatingDays":"평일+토요일+공휴일","weekdayOpen":"00:00","weekdayClose":"23:59","weekendOpen":"00:00","weekendClose":"23:59","holidayOpen":"00:00","holidayClose":"23:59","feeInfo":"기본 30분 0원 / 추가 10분당 200원","phone":"041-529-5120","updatedAt":"2025-11-28","sido":"충청남도","sigungu":"천안시","dong":""},{"name":"남산중앙시장제2주차장","type":"공영","category":"노외","address":"충청남도 천안시 동남구 큰재빼기길 29","lat":36.80431803,"lng":127.1495845,"totalSpaces":67,"isFree":false,"operatingDays":"평일+토요일+공휴일","weekdayOpen":"00:00","weekdayClose":"23:59","weekendOpen":"00:00","weekendClose":"23:59","holidayOpen":"00:00","holidayClose":"23:59","feeInfo":"기본 30분 500원 / 추가 10분당 200원","phone":"041-553-1136","updatedAt":"2025-11-28","sido":"충청남도","sigungu":"천안시","dong":""},{"name":"중앙시장앞주차장","type":"공영","category":"노외","address":"충청남도 천안시 동남구 영성동 20-2","lat":36.80396842,"lng":127.1508934,"totalSpaces":60,"isFree":false,"operatingDays":"평일+토요일+공휴일","weekdayOpen":"00:00","weekdayClose":"23:59","weekendOpen":"00:00","weekendClose":"23:59","holidayOpen":"00:00","holidayClose":"23:59","feeInfo":"기본 30분 500원 / 추가 10분당 200원","phone":"041-553-1136","updatedAt":"2025-11-28","sido":"충청남도","sigungu":"천안시","dong":""},{"name":"남산중앙시장주차장","type":"공영","category":"노외","address":"충청남도 천안시 동남구 사직2길 19","lat":36.80031284,"lng":127.1484548,"totalSpaces":57,"isFree":false,"operatingDays":"평일+토요일+공휴일","weekdayOpen":"00:00","weekdayClose":"23:59","weekendOpen":"00:00","weekendClose":"23:59","holidayOpen":"00:00","holidayClose":"23:59","feeInfo":"기본 30분 500원 / 추가 10분당 200원","phone":"041-553-1136","updatedAt":"2025-11-28","sido":"충청남도","sigungu":"천안시","dong":""},{"name":"대흥로 제1노상주차장","type":"공영","category":"노상","address":"충청남도 천안시 동남구 대흥동 156-3","lat":36.80717031,"lng":127.1475025,"totalSpaces":56,"isFree":false,"operatingDays":"평일+토요일+공휴일","weekdayOpen":"00:00","weekdayClose":"23:59","weekendOpen":"00:00","weekendClose":"23:59","holidayOpen":"00:00","holidayClose":"23:59","feeInfo":"기본 30분 0원 / 추가 10분당 200원","phone":"041-529-5120","updatedAt":"2025-11-28","sido":"충청남도","sigungu":"천안시","dong":""},{"name":"불당 제2공영주차장","type":"공영","category":"노외","address":"충청남도 천안시 서북구 검은들3길 3","lat":36.81054256,"lng":127.1110928,"totalSpaces":49,"isFree":false,"operatingDays":"평일+토요일+공휴일","weekdayOpen":"00:00","weekdayClose":"23:59","weekendOpen":"00:00","weekendClose":"23:59","holidayOpen":"00:00","holidayClose":"23:59","feeInfo":"기본 30분 0원 / 추가 10분당 200원","phone":"041-529-5120","updatedAt":"2025-11-28","sido":"충청남도","sigungu":"천안시","dong":""},{"name":"두정역 제1공영주차장","type":"공영","category":"노외","address":"충청남도 천안시 서북구 두정로 310","lat":36.83176092,"lng":127.1510379,"totalSpaces":42,"isFree":false,"operatingDays":"평일+토요일+공휴일","weekdayOpen":"00:00","weekdayClose":"23:59","weekendOpen":"00:00","weekendClose":"23:59","holidayOpen":"00:00","holidayClose":"23:59","feeInfo":"기본 30분 0원 / 추가 10분당 100원","phone":"041-529-5120","updatedAt":"2025-11-28","sido":"충청남도","sigungu":"천안시","dong":""},{"name":"신부 제1공영주차장","type":"공영","category":"노외","address":"충청남도 천안시 동남구 터미널8길 7","lat":36.8222344,"lng":127.1579813,"totalSpaces":38,"isFree":false,"operatingDays":"평일+토요일+공휴일","weekdayOpen":"00:00","weekdayClose":"23:59","weekendOpen":"00:00","weekendClose":"23:59","holidayOpen":"00:00","holidayClose":"23:59","feeInfo":"기본 30분 0원 / 추가 10분당 100원","phone":"041-529-5120","updatedAt":"2025-11-28","sido":"충청남도","sigungu":"천안시","dong":""},{"name":"5단지시장주차장","type":"공영","category":"노외","address":"충청남도 천안시 서북구 양지21길 31","lat":36.8126333,"lng":127.1392105,"totalSpaces":29,"isFree":false,"operatingDays":"평일+토요일+공휴일","weekdayOpen":"00:00","weekdayClose":"23:59","weekendOpen":"00:00","weekendClose":"23:59","holidayOpen":"00:00","holidayClose":"23:59","feeInfo":"기본 30분 500원 / 추가 10분당 200원","phone":"","updatedAt":"2025-11-28","sido":"충청남도","sigungu":"천안시","dong":""},{"name":"대흥 제1공영주차장","type":"공영","category":"노외","address":"충청남도 천안시 동남구 대흥로 205","lat":36.80651394,"lng":127.1468451,"totalSpaces":20,"isFree":false,"operatingDays":"평일+토요일+공휴일","weekdayOpen":"00:00","weekdayClose":"23:59","weekendOpen":"00:00","weekendClose":"23:59","holidayOpen":"00:00","holidayClose":"23:59","feeInfo":"기본 30분 0원 / 추가 10분당 200원","phone":"041-529-5120","updatedAt":"2025-11-28","sido":"충청남도","sigungu":"천안시","dong":""},{"name":"두정 제1공영주차장","type":"공영","category":"노외","address":"충청남도 천안시 서북구 두정상가7길 12","lat":36.8311333,"lng":127.1391441,"totalSpaces":18,"isFree":false,"operatingDays":"평일+토요일+공휴일","weekdayOpen":"00:00","weekdayClose":"23:59","weekendOpen":"00:00","weekendClose":"23:59","holidayOpen":"00:00","holidayClose":"23:59","feeInfo":"기본 30분 0원 / 추가 10분당 200원","phone":"041-529-5120","updatedAt":"2025-11-28","sido":"충청남도","sigungu":"천안시","dong":""},{"name":"신부 제4공영주차장","type":"공영","category":"노외","address":"충청남도 천안시 동남구 먹거리 9길 16","lat":36.81752115,"lng":127.1556505,"totalSpaces":13,"isFree":false,"operatingDays":"평일+토요일+공휴일","weekdayOpen":"00:00","weekdayClose":"23:59","weekendOpen":"00:00","weekendClose":"23:59","holidayOpen":"00:00","holidayClose":"23:59","feeInfo":"기본 30분 0원 / 추가 10분당 100원","phone":"041-529-5120","updatedAt":"2025-11-28","sido":"충청남도","sigungu":"천안시","dong":""}]}