{"sido":"울산광역시","sigungu":"남구","totalCount":109,"validCount":109,"items":[{"name":"삼호연안다목적광장","type":"공영","category":"노외","address":"울산광역시 남구 무거동 105-1","lat":35.55237075,"lng":129.2755367,"totalSpaces":175,"isFree":true,"operatingDays":"평일+토요일+공휴일","weekdayOpen":"00:00","weekdayClose":"23:59","weekendOpen":"00:00","weekendClose":"23:59","holidayOpen":"00:00","holidayClose":"23:59","feeInfo":"무료","phone":"052-226-0945","updatedAt":"2025-12-01","sido":"울산광역시","sigungu":"남구","dong":"무거동"},{"name":"삼호연안다목적광장","type":"공영","category":"노외","address":"울산광역시 남구 무거동 105-1","lat":35.55236273,"lng":129.2755367,"totalSpaces":170,"isFree":true,"operatingDays":"평일+토요일+공휴일","weekdayOpen":"00:00","weekdayClose":"23:59","weekendOpen":"00:00","weekendClose":"23:59","holidayOpen":"00:00","holidayClose":"23:59","feeInfo":"무료","phone":"052-226-0945","updatedAt":"2025-11-27","sido":"울산광역시","sigungu":"남구","dong":"무거동"},{"name":"새미골","type":"공영","category":"노외","address":"울산광역시 남구 장생포동 204-1","lat":35.50284307,"lng":129.3742923,"totalSpaces":117,"isFree":true,"operatingDays":"평일+토요일+공휴일","weekdayOpen":"00:00","weekdayClose":"23:59","weekendOpen":"00:00","weekendClose":"23:59","holidayOpen":"00:00","holidayClose":"23:59","feeInfo":"무료","phone":"052-226-0945","updatedAt":"2025-12-01","sido":"울산광역시","sigungu":"남구","dong":"장생포동"},{"name":"새미골","type":"공영","category":"노외","address":"울산광역시 남구 장생포동 204-1","lat":35.50284876,"lng":129.3742653,"totalSpaces":117,"isFree":true,"operatingDays":"평일+토요일+공휴일","weekdayOpen":"00:00","weekdayClose":"23:59","weekendOpen":"00:00","weekendClose":"23:59","holidayOpen":"00:00","holidayClose":"23:59","feeInfo":"무료","phone":"052-226-0945","updatedAt":"2025-11-27","sido":"울산광역시","sigungu":"남구","dong":"장생포동"},{"name":"궁도장","type":"공영","category":"부설","address":"울산광역시 남구 문수로 44","lat":35.53526694,"lng":129.2595317,"totalSpaces":103,"isFree":true,"operatingDays":"평일+토요일+공휴일","weekdayOpen":"00:00","weekdayClose":"23:59","weekendOpen":"00:00","weekendClose":"23:59","holidayOpen":"00:00","holidayClose":"23:59","feeInfo":"무료","phone":"052-220-2002","updatedAt":"2025-04-28","sido":"울산광역시","sigungu":"남구","dong":"옥동"},{"name":"궁도장","type":"공영","category":"부설","address":"울산광역시 남구 문수로 44","lat":35.53526694,"lng":129.2595317,"totalSpaces":103,"isFree":true,"operatingDays":"평일+토요일+공휴일","weekdayOpen":"00:00","weekdayClose":"23:59","weekendOpen":"00:00","weekendClose":"23:59","holidayOpen":"00:00","holidayClose":"23:59","feeInfo":"무료","phone":"052-220-2009","updatedAt":"2025-12-01","sido":"울산광역시","sigungu":"남구","dong":"옥동"},{"name":"노동자종합복지회관 주차장","type":"공영","category":"부설","address":"울산광역시 남구 삼산중로 144","lat":35.54612031,"lng":129.336458,"totalSpaces":99,"isFree":true,"operatingDays":"평일+토요일+공휴일","weekdayOpen":"05:00","weekdayClose":"23:00","weekendOpen":"05:00","weekendClose":"23:00","holidayOpen":"05:00","holidayClose":"23:00","feeInfo":"무료","phone":"052-291-6100","updatedAt":"2025-04-28","sido":"울산광역시","sigungu":"남구","dong":"삼산동"},{"name":"야음장생포동","type":"공영","category":"노외","address":"울산광역시 남구 야음동366-4","lat":35.51945609,"lng":129.3377049,"totalSpaces":98,"isFree":true,"operatingDays":"평일+토요일+공휴일","weekdayOpen":"00:00","weekdayClose":"23:59","weekendOpen":"00:00","weekendClose":"23:59","holidayOpen":"00:00","holidayClose":"23:59","feeInfo":"무료","phone":"052-226-0945","updatedAt":"2025-12-01","sido":"울산광역시","sigungu":"남구","dong":""},{"name":"삼호동 개방형 공영주차장","type":"공영","category":"노외","address":"울산광역시 남구 무거동 1326","lat":35.54706703,"lng":129.2792269,"totalSpaces":96,"isFree":true,"operatingDays":"평일+토요일+공휴일","weekdayOpen":"00:00","weekdayClose":"23:59","weekendOpen":"00:00","weekendClose":"23:59","holidayOpen":"00:00","holidayClose":"23:59","feeInfo":"무료","phone":"052-226-0946","updatedAt":"2025-12-01","sido":"울산광역시","sigungu":"남구","dong":"무거동"},{"name":"번영교밑","type":"공영","category":"노외","address":"울산광역시 남구 삼산동 34-1","lat":35.54374497,"lng":129.3564364,"totalSpaces":71,"isFree":true,"operatingDays":"평일+토요일+공휴일","weekdayOpen":"00:00","weekdayClose":"23:59","weekendOpen":"00:00","weekendClose":"23:59","holidayOpen":"00:00","holidayClose":"23:59","feeInfo":"무료","phone":"052-226-0945","updatedAt":"2025-12-01","sido":"울산광역시","sigungu":"남구","dong":"삼산동"},{"name":"번영교밑","type":"공영","category":"노외","address":"울산광역시 남구 삼산동 34-1","lat":35.54374491,"lng":129.3564258,"totalSpaces":64,"isFree":true,"operatingDays":"평일+토요일+공휴일","weekdayOpen":"00:00","weekdayClose":"23:59","weekendOpen":"00:00","weekendClose":"23:59","holidayOpen":"00:00","holidayClose":"23:59","feeInfo":"무료","phone":"052-226-0945","updatedAt":"2025-11-27","sido":"울산광역시","sigungu":"남구","dong":"삼산동"},{"name":"옥현로","type":"공영","category":"노상","address":"울산광역시 남구 무거동 635","lat":35.5402428,"lng":129.2600818,"totalSpaces":53,"isFree":true,"operatingDays":"평일+토요일+공휴일","weekdayOpen":"00:00","weekdayClose":"23:59","weekendOpen":"00:00","weekendClose":"23:59","holidayOpen":"00:00","holidayClose":"23:59","feeInfo":"무료","phone":"052-226-0945","updatedAt":"2025-11-27","sido":"울산광역시","sigungu":"남구","dong":"무거동"},{"name":"야음상가시장","type":"공영","category":"노상","address":"울산광역시 남구 야음동 853","lat":35.52127526,"lng":129.3364182,"totalSpaces":35,"isFree":true,"operatingDays":"평일+토요일+공휴일","weekdayOpen":"00:00","weekdayClose":"23:59","weekendOpen":"00:00","weekendClose":"23:59","holidayOpen":"00:00","holidayClose":"23:59","feeInfo":"무료","phone":"052-226-0945","updatedAt":"2025-11-27","sido":"울산광역시","sigungu":"남구","dong":"야음동"},{"name":"어은로","type":"공영","category":"노상","address":"울산광역시 남구 어은로 13-1","lat":35.55056362,"lng":129.2734278,"totalSpaces":32,"isFree":true,"operatingDays":"평일+토요일+공휴일","weekdayOpen":"00:00","weekdayClose":"23:59","weekendOpen":"00:00","weekendClose":"23:59","holidayOpen":"00:00","holidayClose":"23:59","feeInfo":"무료","phone":"052-226-0945","updatedAt":"2025-11-27","sido":"울산광역시","sigungu":"남구","dong":"무거동"},{"name":"팔등로","type":"공영","category":"노상","address":"울산광역시 남구 팔등로35","lat":35.5448823,"lng":129.3105333,"totalSpaces":31,"isFree":true,"operatingDays":"평일+토요일+공휴일","weekdayOpen":"00:00","weekdayClose":"23:59","weekendOpen":"00:00","weekendClose":"23:59","holidayOpen":"00:00","holidayClose":"23:59","feeInfo":"무료","phone":"052-226-0945","updatedAt":"2025-11-27","sido":"울산광역시","sigungu":"남구","dong":"신정동"},{"name":"신정5동","type":"공영","category":"노외","address":"울산광역시 남구 월평로159번길 13","lat":35.54576831,"lng":129.3218759,"totalSpaces":30,"isFree":true,"operatingDays":"평일+토요일+공휴일","weekdayOpen":"00:00","weekdayClose":"23:59","weekendOpen":"00:00","weekendClose":"23:59","holidayOpen":"00:00","holidayClose":"23:59","feeInfo":"무료","phone":"052-226-0945","updatedAt":"2025-12-01","sido":"울산광역시","sigungu":"남구","dong":"신정동"},{"name":"선암 철도하부 공영주차장","type":"공영","category":"노외","address":"울산광역시 남구 선암동 182-22","lat":35.5133255,"lng":129.3382444,"totalSpaces":29,"isFree":true,"operatingDays":"평일+토요일+공휴일","weekdayOpen":"00:00","weekdayClose":"23:59","weekendOpen":"00:00","weekendClose":"23:59","holidayOpen":"00:00","holidayClose":"23:59","feeInfo":"무료","phone":"052-226-0947","updatedAt":"2025-12-01","sido":"울산광역시","sigungu":"남구","dong":"선암동"},{"name":"궁거랑공영주차장","type":"공영","category":"노외","address":"울산광역시 남구 무거동 1431-2","lat":35.55080064,"lng":129.2668442,"totalSpaces":25,"isFree":true,"operatingDays":"평일+토요일+공휴일","weekdayOpen":"00:00","weekdayClose":"23:59","weekendOpen":"00:00","weekendClose":"23:59","holidayOpen":"00:00","holidayClose":"23:59","feeInfo":"무료","phone":"052-226-0952","updatedAt":"2025-12-01","sido":"울산광역시","sigungu":"남구","dong":"무거동"},{"name":"울산여고 앞","type":"공영","category":"노외","address":"울산광역시 남구 신정동 1216-5","lat":35.53395449,"lng":129.3086362,"totalSpaces":23,"isFree":true,"operatingDays":"평일+토요일+공휴일","weekdayOpen":"00:00","weekdayClose":"23:59","weekendOpen":"00:00","weekendClose":"23:59","holidayOpen":"00:00","holidayClose":"23:59","feeInfo":"무료","phone":"052-226-0949","updatedAt":"2025-12-01","sido":"울산광역시","sigungu":"남구","dong":"신정동"},{"name":"삼호공유지","type":"공영","category":"노외","address":"울산광역시 남구 무거동 179-3","lat":35.55169019,"lng":129.2688208,"totalSpaces":9,"isFree":true,"operatingDays":"평일+토요일+공휴일","weekdayOpen":"00:00","weekdayClose":"23:59","weekendOpen":"00:00","weekendClose":"23:59","holidayOpen":"00:00","holidayClose":"23:59","feeInfo":"무료","phone":"052-226-0951","updatedAt":"2025-12-01","sido":"울산광역시","sigungu":"남구","dong":"무거동"},{"name":"삼호공유지","type":"공영","category":"노외","address":"울산광역시 남구 무거동 179-3","lat":35.55167544,"lng":129.2688195,"totalSpaces":9,"isFree":true,"operatingDays":"평일+토요일+공휴일","weekdayOpen":"00:00","weekdayClose":"23:59","weekendOpen":"00:00","weekendClose":"23:59","holidayOpen":"00:00","holidayClose":"23:59","feeInfo":"무료","phone":"052-226-0945","updatedAt":"2025-11-27","sido":"울산광역시","sigungu":"남구","dong":"무거동"},{"name":"남문주차장","type":"공영","category":"부설","address":"울산광역시 남구 대공원로 94","lat":35.530972,"lng":129.2939697,"totalSpaces":989,"isFree":false,"operatingDays":"평일+토요일+공휴일","weekdayOpen":"00:00","weekdayClose":"23:59","weekendOpen":"00:00","weekendClose":"23:59","holidayOpen":"00:00","holidayClose":"23:59","feeInfo":"기본 30분 500원 / 추가 10분당 200원","phone":"052-226-0319","updatedAt":"2025-04-28","sido":"울산광역시","sigungu":"남구","dong":"옥동"},{"name":"남문주차장","type":"공영","category":"부설","address":"울산광역시 남구 대공원로 94","lat":35.53098415,"lng":129.2939195,"totalSpaces":983,"isFree":false,"operatingDays":"평일+토요일+공휴일","weekdayOpen":"00:00","weekdayClose":"23:59","weekendOpen":"00:00","weekendClose":"23:59","holidayOpen":"00:00","holidayClose":"23:59","feeInfo":"기본 30분 500원 / 추가 10분당 200원","phone":"052-226-0395","updatedAt":"2025-12-01","sido":"울산광역시","sigungu":"남구","dong":"옥동"},{"name":"문수실내수영장","type":"공영","category":"부설","address":"울산광역시 남구 문수로 44","lat":35.53526694,"lng":129.2595317,"totalSpaces":819,"isFree":false,"operatingDays":"평일+토요일+공휴일","weekdayOpen":"00:00","weekdayClose":"23:59","weekendOpen":"00:00","weekendClose":"23:59","holidayOpen":"00:00","holidayClose":"23:59","feeInfo":"기본 30분 500원 / 추가 10분당 200원","phone":"052-220-2002","updatedAt":"2025-12-01","sido":"울산광역시","sigungu":"남구","dong":"옥동"},{"name":"문수실내수영장","type":"공영","category":"부설","address":"울산광역시 남구 문수로 44","lat":35.53526694,"lng":129.2595317,"totalSpaces":775,"isFree":false,"operatingDays":"평일+토요일+공휴일","weekdayOpen":"00:00","weekdayClose":"23:59","weekendOpen":"00:00","weekendClose":"23:59","holidayOpen":"00:00","holidayClose":"23:59","feeInfo":"기본 30분 500원 / 추가 10분당 200원","phone":"052-220-2002","updatedAt":"2025-04-28","sido":"울산광역시","sigungu":"남구","dong":"옥동"},{"name":"문화공원주차장","type":"공영","category":"부설","address":"울산광역시 남구 돋질로 211","lat":35.54300474,"lng":129.3284765,"totalSpaces":532,"isFree":false,"operatingDays":"평일+토요일+공휴일","weekdayOpen":"00:00","weekdayClose":"23:59","weekendOpen":"00:00","weekendClose":"23:59","holidayOpen":"00:00","holidayClose":"23:59","feeInfo":"기본 30분 500원 / 추가 10분당 200원","phone":"052-267-8743","updatedAt":"2025-04-28","sido":"울산광역시","sigungu":"남구","dong":"달동"},{"name":"동문주차장","type":"공영","category":"부설","address":"울산광역시 남구 대공원로 94","lat":35.53098415,"lng":129.2939195,"totalSpaces":519,"isFree":false,"operatingDays":"평일+토요일+공휴일","weekdayOpen":"00:00","weekdayClose":"23:59","weekendOpen":"00:00","weekendClose":"23:59","holidayOpen":"00:00","holidayClose":"23:59","feeInfo":"기본 30분 500원 / 추가 10분당 200원","phone":"052-226-0334","updatedAt":"2025-12-01","sido":"울산광역시","sigungu":"남구","dong":"옥동"},{"name":"동문주차장","type":"공영","category":"부설","address":"울산광역시 남구 대공원로 94","lat":35.530972,"lng":129.2939697,"totalSpaces":518,"isFree":false,"operatingDays":"평일+토요일+공휴일","weekdayOpen":"00:00","weekdayClose":"23:59","weekendOpen":"00:00","weekendClose":"23:59","holidayOpen":"00:00","holidayClose":"23:59","feeInfo":"기본 30분 500원 / 추가 10분당 200원","phone":"052-226-0319","updatedAt":"2025-04-28","sido":"울산광역시","sigungu":"남구","dong":"옥동"},{"name":"전망대(테니스장등)","type":"공영","category":"부설","address":"울산광역시 남구 문수로 44","lat":35.53526694,"lng":129.2595317,"totalSpaces":470,"isFree":false,"operatingDays":"평일+토요일+공휴일","weekdayOpen":"00:00","weekdayClose":"23:59","weekendOpen":"00:00","weekendClose":"23:59","holidayOpen":"00:00","holidayClose":"23:59","feeInfo":"기본 30분 500원 / 추가 10분당 200원","phone":"052-220-2007","updatedAt":"2025-12-01","sido":"울산광역시","sigungu":"남구","dong":"옥동"},{"name":"문화공원주차장","type":"공영","category":"부설","address":"울산광역시 남구 돋질로 211","lat":35.54300605,"lng":129.3284784,"totalSpaces":400,"isFree":false,"operatingDays":"평일+토요일+공휴일","weekdayOpen":"00:00","weekdayClose":"23:59","weekendOpen":"00:00","weekendClose":"23:59","holidayOpen":"00:00","holidayClose":"23:59","feeInfo":"기본 30분 500원 / 추가 10분당 200원","phone":"052-267-8743","updatedAt":"2025-12-01","sido":"울산광역시","sigungu":"남구","dong":"달동"},{"name":"전망대(테니스장등)","type":"공영","category":"부설","address":"울산광역시 남구 문수로 44","lat":35.53526694,"lng":129.2595317,"totalSpaces":388,"isFree":false,"operatingDays":"평일+토요일+공휴일","weekdayOpen":"00:00","weekdayClose":"23:59","weekendOpen":"00:00","weekendClose":"23:59","holidayOpen":"00:00","holidayClose":"23:59","feeInfo":"기본 30분 500원 / 추가 10분당 200원","phone":"052-220-2002","updatedAt":"2025-04-28","sido":"울산광역시","sigungu":"남구","dong":"옥동"},{"name":"삼산노상","type":"공영","category":"노상","address":"울산광역시 남구 왕생로 39","lat":35.53691288,"lng":129.3316031,"totalSpaces":370,"isFree":false,"operatingDays":"평일+토요일+공휴일","weekdayOpen":"00:00","weekdayClose":"23:59","weekendOpen":"00:00","weekendClose":"23:59","holidayOpen":"00:00","holidayClose":"23:59","feeInfo":"기본 30분 500원 / 추가 10분당 200원","phone":"052-226-0945","updatedAt":"2025-12-01","sido":"울산광역시","sigungu":"남구","dong":"달동"},{"name":"정문주차장","type":"공영","category":"부설","address":"울산광역시 남구 대공원로 94","lat":35.53098415,"lng":129.2939195,"totalSpaces":335,"isFree":false,"operatingDays":"평일+토요일+공휴일","weekdayOpen":"00:00","weekdayClose":"23:59","weekendOpen":"00:00","weekendClose":"23:59","holidayOpen":"00:00","holidayClose":"23:59","feeInfo":"기본 30분 500원 / 추가 10분당 200원","phone":"052-226-0343","updatedAt":"2025-12-01","sido":"울산광역시","sigungu":"남구","dong":"옥동"},{"name":"정문주차장","type":"공영","category":"부설","address":"울산광역시 남구 대공원로 94","lat":35.530972,"lng":129.2939697,"totalSpaces":333,"isFree":false,"operatingDays":"평일+토요일+공휴일","weekdayOpen":"00:00","weekdayClose":"23:59","weekendOpen":"00:00","weekendClose":"23:59","holidayOpen":"00:00","holidayClose":"23:59","feeInfo":"기본 30분 500원 / 추가 10분당 200원","phone":"052-226-0319","updatedAt":"2025-04-28","sido":"울산광역시","sigungu":"남구","dong":"옥동"},{"name":"옥동구법원부지","type":"공영","category":"노외","address":"울산광역시 남구 법대로14번길 34","lat":35.53715609,"lng":129.2873485,"totalSpaces":330,"isFree":false,"operatingDays":"평일+토요일+공휴일","weekdayOpen":"00:00","weekdayClose":"23:59","weekendOpen":"00:00","weekendClose":"23:59","holidayOpen":"00:00","holidayClose":"23:59","feeInfo":"기본 30분 500원 / 추가 10분당 200원","phone":"052-226-0945","updatedAt":"2025-12-01","sido":"울산광역시","sigungu":"남구","dong":"옥동"},{"name":"삼산노상","type":"공영","category":"노상","address":"울산광역시 남구 왕생로 39","lat":35.5369182,"lng":129.3316161,"totalSpaces":275,"isFree":false,"operatingDays":"평일+토요일+공휴일","weekdayOpen":"09:00","weekdayClose":"22:00","weekendOpen":"09:00","weekendClose":"22:00","holidayOpen":"00:00","holidayClose":"23:59","feeInfo":"기본 30분 500원 / 추가 10분당 200원","phone":"052-226-0945","updatedAt":"2025-11-27","sido":"울산광역시","sigungu":"남구","dong":"달동"},{"name":"야구장","type":"공영","category":"부설","address":"울산광역시 남구 문수로 44","lat":35.53526694,"lng":129.2595317,"totalSpaces":257,"isFree":false,"operatingDays":"평일+토요일+공휴일","weekdayOpen":"00:00","weekdayClose":"23:59","weekendOpen":"00:00","weekendClose":"23:59","holidayOpen":"00:00","holidayClose":"23:59","feeInfo":"기본 30분 500원 / 추가 10분당 200원","phone":"052-220-2002","updatedAt":"2025-04-28","sido":"울산광역시","sigungu":"남구","dong":"옥동"},{"name":"야구장","type":"공영","category":"부설","address":"울산광역시 남구 문수로 44","lat":35.53526694,"lng":129.2595317,"totalSpaces":257,"isFree":false,"operatingDays":"평일+토요일+공휴일","weekdayOpen":"00:00","weekdayClose":"23:59","weekendOpen":"00:00","weekendClose":"23:59","holidayOpen":"00:00","holidayClose":"23:59","feeInfo":"기본 30분 500원 / 추가 10분당 200원","phone":"052-220-2010","updatedAt":"2025-12-01","sido":"울산광역시","sigungu":"남구","dong":"옥동"},{"name":"태화강둔치","type":"공영","category":"노외","address":"울산광역시 남구 신정동 1513","lat":35.55057663,"lng":129.3077368,"totalSpaces":253,"isFree":false,"operatingDays":"평일+토요일+공휴일","weekdayOpen":"08:00","weekdayClose":"23:00","weekendOpen":"00:00","weekendClose":"23:59","holidayOpen":"08:00","holidayClose":"23:00","feeInfo":"기본 30분 500원 / 추가 10분당 200원","phone":"052-226-0945","updatedAt":"2025-11-27","sido":"울산광역시","sigungu":"남구","dong":"신정동"},{"name":"옥동구법원부지","type":"공영","category":"노외","address":"울산광역시 남구 법대로14번길 34","lat":35.53715684,"lng":129.2873469,"totalSpaces":250,"isFree":false,"operatingDays":"평일+토요일+공휴일","weekdayOpen":"10:30","weekdayClose":"18:00","weekendOpen":"00:00","weekendClose":"23:59","holidayOpen":"00:00","holidayClose":"23:59","feeInfo":"기본 30분 500원 / 추가 10분당 200원","phone":"052-226-0945","updatedAt":"2025-11-27","sido":"울산광역시","sigungu":"남구","dong":"옥동"},{"name":"태화강둔치","type":"공영","category":"노외","address":"울산광역시 남구 신정동 1513","lat":35.55057663,"lng":129.3077368,"totalSpaces":248,"isFree":false,"operatingDays":"평일+토요일+공휴일","weekdayOpen":"00:00","weekdayClose":"23:59","weekendOpen":"00:00","weekendClose":"23:59","holidayOpen":"00:00","holidayClose":"23:59","feeInfo":"기본 30분 500원 / 추가 10분당 200원","phone":"052-226-0945","updatedAt":"2025-12-01","sido":"울산광역시","sigungu":"남구","dong":"신정동"},{"name":"평창현대앞","type":"공영","category":"노외","address":"울산광역시 남구 삼산동 1572","lat":35.54152561,"lng":129.3370554,"totalSpaces":240,"isFree":false,"operatingDays":"평일+토요일+공휴일","weekdayOpen":"00:00","weekdayClose":"23:59","weekendOpen":"00:00","weekendClose":"23:59","holidayOpen":"00:00","holidayClose":"23:59","feeInfo":"기본 30분 500원 / 추가 10분당 200원","phone":"052-226-0945","updatedAt":"2025-12-01","sido":"울산광역시","sigungu":"남구","dong":"삼산동"},{"name":"박물관부설","type":"공영","category":"부설","address":"울산광역시 남구 매암동 139-29","lat":35.50352018,"lng":129.3833184,"totalSpaces":230,"isFree":false,"operatingDays":"평일+토요일+공휴일","weekdayOpen":"00:00","weekdayClose":"23:59","weekendOpen":"00:00","weekendClose":"23:59","holidayOpen":"00:00","holidayClose":"23:59","feeInfo":"기본 30분 500원 / 추가 10분당 200원","phone":"052-226-0945","updatedAt":"2025-12-01","sido":"울산광역시","sigungu":"남구","dong":"매암동"},{"name":"박물관부설","type":"공영","category":"부설","address":"울산광역시 남구 매암동 139-29","lat":35.50352018,"lng":129.3833184,"totalSpaces":218,"isFree":false,"operatingDays":"평일+토요일+공휴일","weekdayOpen":"10:30","weekdayClose":"18:00","weekendOpen":"09:00","weekendClose":"18:00","holidayOpen":"09:00","holidayClose":"18:00","feeInfo":"기본 30분 500원 / 추가 10분당 200원","phone":"052-226-0945","updatedAt":"2025-11-27","sido":"울산광역시","sigungu":"남구","dong":"매암동"},{"name":"축구경기장VIP","type":"공영","category":"부설","address":"울산광역시 남구 문수로 44","lat":35.53526694,"lng":129.2595317,"totalSpaces":210,"isFree":false,"operatingDays":"평일+토요일+공휴일","weekdayOpen":"00:00","weekdayClose":"23:59","weekendOpen":"00:00","weekendClose":"23:59","holidayOpen":"00:00","holidayClose":"23:59","feeInfo":"기본 30분 500원 / 추가 10분당 200원","phone":"052-220-2004","updatedAt":"2025-12-01","sido":"울산광역시","sigungu":"남구","dong":"옥동"},{"name":"남구청부설","type":"공영","category":"부설","address":"울산광역시 남구 돋질로233","lat":35.54373848,"lng":129.3295209,"totalSpaces":208,"isFree":false,"operatingDays":"평일+토요일+공휴일","weekdayOpen":"09:00","weekdayClose":"18:00","weekendOpen":"09:00","weekendClose":"18:00","holidayOpen":"09:00","holidayClose":"18:00","feeInfo":"기본 30분 500원 / 추가 10분당 200원","phone":"052-226-0945","updatedAt":"2025-11-27","sido":"울산광역시","sigungu":"남구","dong":"달동"},{"name":"축구경기장VIP","type":"공영","category":"부설","address":"울산광역시 남구 문수로 44","lat":35.53526694,"lng":129.2595317,"totalSpaces":208,"isFree":false,"operatingDays":"평일+토요일+공휴일","weekdayOpen":"00:00","weekdayClose":"23:59","weekendOpen":"00:00","weekendClose":"23:59","holidayOpen":"00:00","holidayClose":"23:59","feeInfo":"기본 30분 500원 / 추가 10분당 200원","phone":"052-220-2002","updatedAt":"2025-04-28","sido":"울산광역시","sigungu":"남구","dong":"옥동"},{"name":"남구청부설","type":"공영","category":"부설","address":"울산광역시 남구 돋질로233","lat":35.54373999,"lng":129.3295216,"totalSpaces":206,"isFree":false,"operatingDays":"평일+토요일+공휴일","weekdayOpen":"00:00","weekdayClose":"23:59","weekendOpen":"00:00","weekendClose":"23:59","holidayOpen":"00:00","holidayClose":"23:59","feeInfo":"기본 30분 500원 / 추가 10분당 200원","phone":"052-226-0945","updatedAt":"2025-12-01","sido":"울산광역시","sigungu":"남구","dong":"달동"},{"name":"옥동","type":"공영","category":"노외","address":"울산광역시 남구 옥동 156-3","lat":35.53379381,"lng":129.2949069,"totalSpaces":203,"isFree":false,"operatingDays":"평일+토요일+공휴일","weekdayOpen":"09:00","weekdayClose":"22:00","weekendOpen":"09:00","weekendClose":"22:00","holidayOpen":"09:00","holidayClose":"22:00","feeInfo":"기본 30분 500원 / 추가 10분당 200원","phone":"052-226-0944","updatedAt":"2025-11-27","sido":"울산광역시","sigungu":"남구","dong":"옥동"},{"name":"축구경기장1층","type":"공영","category":"부설","address":"울산광역시 남구 문수로 44","lat":35.53526694,"lng":129.2595317,"totalSpaces":169,"isFree":false,"operatingDays":"평일+토요일+공휴일","weekdayOpen":"00:00","weekdayClose":"23:59","weekendOpen":"00:00","weekendClose":"23:59","holidayOpen":"00:00","holidayClose":"23:59","feeInfo":"기본 30분 500원 / 추가 10분당 200원","phone":"052-220-2005","updatedAt":"2025-12-01","sido":"울산광역시","sigungu":"남구","dong":"옥동"},{"name":"축구경기장1층","type":"공영","category":"부설","address":"울산광역시 남구 문수로 44","lat":35.53526694,"lng":129.2595317,"totalSpaces":169,"isFree":false,"operatingDays":"평일+토요일+공휴일","weekdayOpen":"00:00","weekdayClose":"23:59","weekendOpen":"00:00","weekendClose":"23:59","holidayOpen":"00:00","holidayClose":"23:59","feeInfo":"기본 30분 500원 / 추가 10분당 200원","phone":"052-220-2002","updatedAt":"2025-04-28","sido":"울산광역시","sigungu":"남구","dong":"옥동"},{"name":"삼산2","type":"공영","category":"노외","address":"울산광역시 남구 삼산로352번길9","lat":35.5382457,"lng":129.3456294,"totalSpaces":167,"isFree":false,"operatingDays":"평일+토요일+공휴일","weekdayOpen":"00:00","weekdayClose":"23:59","weekendOpen":"00:00","weekendClose":"23:59","holidayOpen":"00:00","holidayClose":"23:59","feeInfo":"기본 30분 500원 / 추가 10분당 200원","phone":"052-226-0945","updatedAt":"2025-12-01","sido":"울산광역시","sigungu":"남구","dong":"삼산동"},{"name":"태화강역 제1주차장","type":"공영","category":"노외","address":"울산광역시 남구 산업로 654","lat":35.53835483,"lng":129.353667,"totalSpaces":164,"isFree":false,"operatingDays":"평일+토요일+공휴일","weekdayOpen":"00:00","weekdayClose":"23:59","weekendOpen":"00:00","weekendClose":"23:59","holidayOpen":"00:00","holidayClose":"23:59","feeInfo":"기본 30분 500원 / 추가 10분당 200원","phone":"052-226-0319","updatedAt":"2025-04-28","sido":"울산광역시","sigungu":"남구","dong":"삼산동"},{"name":"보람병원앞","type":"공영","category":"노외","address":"울산광역시 남구 삼산동 1554-1","lat":35.54268484,"lng":129.3416308,"totalSpaces":158,"isFree":false,"operatingDays":"평일+토요일+공휴일","weekdayOpen":"00:00","weekdayClose":"23:59","weekendOpen":"08:30","weekendClose":"16:00","holidayOpen":"00:00","holidayClose":"23:59","feeInfo":"기본 30분 500원 / 추가 10분당 200원","phone":"052-226-0945","updatedAt":"2025-11-27","sido":"울산광역시","sigungu":"남구","dong":"삼산동"},{"name":"보람병원앞","type":"공영","category":"노외","address":"울산광역시 남구 삼산동 1554-1","lat":35.54267273,"lng":129.3416262,"totalSpaces":155,"isFree":false,"operatingDays":"평일+토요일+공휴일","weekdayOpen":"00:00","weekdayClose":"23:59","weekendOpen":"00:00","weekendClose":"23:59","holidayOpen":"00:00","holidayClose":"23:59","feeInfo":"기본 30분 500원 / 추가 10분당 200원","phone":"052-226-0945","updatedAt":"2025-12-01","sido":"울산광역시","sigungu":"남구","dong":"삼산동"},{"name":"무거동","type":"공영","category":"노외","address":"울산광역시 남구 무거동 1533-6","lat":35.55124507,"lng":129.2596407,"totalSpaces":145,"isFree":false,"operatingDays":"평일+토요일+공휴일","weekdayOpen":"00:00","weekdayClose":"23:59","weekendOpen":"00:00","weekendClose":"23:59","holidayOpen":"00:00","holidayClose":"23:59","feeInfo":"기본 30분 500원 / 추가 10분당 200원","phone":"052-226-0945","updatedAt":"2025-12-01","sido":"울산광역시","sigungu":"남구","dong":"무거동"},{"name":"무거동","type":"공영","category":"노외","address":"울산광역시 남구 무거동 1533-6","lat":35.55127654,"lng":129.2596308,"totalSpaces":143,"isFree":false,"operatingDays":"평일+토요일+공휴일","weekdayOpen":"08:00","weekdayClose":"23:00","weekendOpen":"00:00","weekendClose":"23:59","holidayOpen":"00:00","holidayClose":"23:59","feeInfo":"기본 30분 500원 / 추가 10분당 200원","phone":"052-226-0945","updatedAt":"2025-11-27","sido":"울산광역시","sigungu":"남구","dong":"무거동"},{"name":"신정동지하","type":"공영","category":"노외","address":"울산광역시 남구 봉월로 175","lat":35.5432180544,"lng":129.3107583281,"totalSpaces":139,"isFree":false,"operatingDays":"평일+토요일+공휴일","weekdayOpen":"00:00","weekdayClose":"23:59","weekendOpen":"00:00","weekendClose":"23:59","holidayOpen":"00:00","holidayClose":"23:59","feeInfo":"기본 30분 500원 / 추가 10분당 200원","phone":"052-226-0945","updatedAt":"2025-12-01","sido":"울산광역시","sigungu":"남구","dong":"신정동"},{"name":"축구경기장2층","type":"공영","category":"부설","address":"울산광역시 남구 문수로 44","lat":35.53526694,"lng":129.2595317,"totalSpaces":139,"isFree":false,"operatingDays":"평일+토요일+공휴일","weekdayOpen":"00:00","weekdayClose":"23:59","weekendOpen":"00:00","weekendClose":"23:59","holidayOpen":"00:00","holidayClose":"23:59","feeInfo":"기본 30분 500원 / 추가 10분당 200원","phone":"052-220-2006","updatedAt":"2025-12-01","sido":"울산광역시","sigungu":"남구","dong":"옥동"},{"name":"축구경기장2층","type":"공영","category":"부설","address":"울산광역시 남구 문수로 44","lat":35.53526694,"lng":129.2595317,"totalSpaces":138,"isFree":false,"operatingDays":"평일+토요일+공휴일","weekdayOpen":"00:00","weekdayClose":"23:59","weekendOpen":"00:00","weekendClose":"23:59","holidayOpen":"00:00","holidayClose":"23:59","feeInfo":"기본 30분 500원 / 추가 10분당 200원","phone":"052-220-2002","updatedAt":"2025-04-28","sido":"울산광역시","sigungu":"남구","dong":"옥동"},{"name":"신정동지하","type":"공영","category":"노외","address":"울산광역시 남구 신정동 517","lat":35.54321805,"lng":129.3107583,"totalSpaces":138,"isFree":false,"operatingDays":"평일+토요일+공휴일","weekdayOpen":"09:00","weekdayClose":"22:00","weekendOpen":"00:00","weekendClose":"23:59","holidayOpen":"00:00","holidayClose":"23:59","feeInfo":"기본 30분 500원 / 추가 10분당 200원","phone":"052-226-0945","updatedAt":"2025-11-27","sido":"울산광역시","sigungu":"남구","dong":"신정동"},{"name":"삼호개방형","type":"공영","category":"노외","address":"울산광역시 남구 무거동 1337","lat":35.547826,"lng":129.2773906,"totalSpaces":121,"isFree":false,"operatingDays":"평일+토요일+공휴일","weekdayOpen":"18:00","weekdayClose":"23:59","weekendOpen":"18:00","weekendClose":"23:59","holidayOpen":"18:00","holidayClose":"23:59","feeInfo":"기본 0분 0원 / 추가 0분당 0원","phone":"052-226-0945","updatedAt":"2025-11-27","sido":"울산광역시","sigungu":"남구","dong":"무거동"},{"name":"삼산1","type":"공영","category":"노외","address":"울산광역시 남구 삼산동 1622-2","lat":35.53695851,"lng":129.3424493,"totalSpaces":120,"isFree":false,"operatingDays":"평일+토요일+공휴일","weekdayOpen":"00:00","weekdayClose":"23:59","weekendOpen":"00:00","weekendClose":"23:59","holidayOpen":"00:00","holidayClose":"23:59","feeInfo":"기본 30분 500원 / 추가 10분당 200원","phone":"052-226-0945","updatedAt":"2025-12-01","sido":"울산광역시","sigungu":"남구","dong":"삼산동"},{"name":"삼산1","type":"공영","category":"노외","address":"울산광역시 남구 삼산로352번길9","lat":35.5382457,"lng":129.3456294,"totalSpaces":119,"isFree":false,"operatingDays":"평일+토요일+공휴일","weekdayOpen":"09:30","weekdayClose":"17:00","weekendOpen":"00:00","weekendClose":"23:59","holidayOpen":"00:00","holidayClose":"23:59","feeInfo":"기본 30분 500원 / 추가 10분당 200원","phone":"052-226-0945","updatedAt":"2025-11-27","sido":"울산광역시","sigungu":"남구","dong":"삼산동"},{"name":"문수체육관","type":"공영","category":"부설","address":"울산광역시 남구 웅촌로 1342","lat":35.53408925,"lng":129.2530738,"totalSpaces":115,"isFree":false,"operatingDays":"평일+토요일+공휴일","weekdayOpen":"00:00","weekdayClose":"23:59","weekendOpen":"00:00","weekendClose":"23:59","holidayOpen":"00:00","holidayClose":"23:59","feeInfo":"기본 30분 500원 / 추가 10분당 200원","phone":"052-220-2002","updatedAt":"2025-04-28","sido":"울산광역시","sigungu":"남구","dong":"무거동"},{"name":"신정1동","type":"공영","category":"노외","address":"울산광역시 남구 월평로25","lat":35.54134401,"lng":129.3083465,"totalSpaces":113,"isFree":false,"operatingDays":"평일+토요일+공휴일","weekdayOpen":"00:00","weekdayClose":"23:59","weekendOpen":"00:00","weekendClose":"23:59","holidayOpen":"00:00","holidayClose":"23:59","feeInfo":"기본 30분 500원 / 추가 10분당 200원","phone":"052-226-0945","updatedAt":"2025-12-01","sido":"울산광역시","sigungu":"남구","dong":"신정동"},{"name":"왕생이","type":"공영","category":"노외","address":"울산광역시 남구 달동 1345-6","lat":35.5400934,"lng":129.3296285,"totalSpaces":107,"isFree":false,"operatingDays":"평일+토요일+공휴일","weekdayOpen":"00:00","weekdayClose":"23:59","weekendOpen":"00:00","weekendClose":"23:59","holidayOpen":"00:00","holidayClose":"23:59","feeInfo":"기본 30분 500원 / 추가 10분당 200원","phone":"052-226-0945","updatedAt":"2025-12-01","sido":"울산광역시","sigungu":"남구","dong":"달동"},{"name":"수암","type":"공영","category":"노외","address":"울산광역시 남구 야음동 700-1","lat":35.52644566,"lng":129.3201734,"totalSpaces":107,"isFree":false,"operatingDays":"평일+토요일+공휴일","weekdayOpen":"00:00","weekdayClose":"23:59","weekendOpen":"00:00","weekendClose":"23:59","holidayOpen":"00:00","holidayClose":"23:59","feeInfo":"기본 30분 500원 / 추가 10분당 200원","phone":"052-226-0950","updatedAt":"2025-12-01","sido":"울산광역시","sigungu":"남구","dong":"야음동"},{"name":"수암공영주차장","type":"공영","category":"노외","address":"울산광역시 남구 수암로 116번길 15","lat":35.52644566,"lng":129.3201734,"totalSpaces":106,"isFree":false,"operatingDays":"평일+토요일+공휴일","weekdayOpen":"09:00","weekdayClose":"23:59","weekendOpen":"09:00","weekendClose":"23:59","holidayOpen":"00:00","holidayClose":"23:59","feeInfo":"기본 30분 500원 / 추가 10분당 200원","phone":"052-226-0945","updatedAt":"2025-11-27","sido":"울산광역시","sigungu":"남구","dong":"야음동"},{"name":"왕생이","type":"공영","category":"노외","address":"울산광역시 남구 달동 1345-6","lat":35.5400934,"lng":129.3296233,"totalSpaces":106,"isFree":false,"operatingDays":"평일+토요일+공휴일","weekdayOpen":"08:00","weekdayClose":"23:00","weekendOpen":"08:00","weekendClose":"23:00","holidayOpen":"00:00","holidayClose":"23:59","feeInfo":"기본 30분 500원 / 추가 10분당 200원","phone":"052-226-0945","updatedAt":"2025-11-27","sido":"울산광역시","sigungu":"남구","dong":"달동"},{"name":"야음동","type":"공영","category":"노외","address":"울산광역시 남구 신선로 190","lat":35.52243156,"lng":129.3332156,"totalSpaces":103,"isFree":false,"operatingDays":"평일+토요일+공휴일","weekdayOpen":"00:00","weekdayClose":"23:59","weekendOpen":"00:00","weekendClose":"23:59","holidayOpen":"00:00","holidayClose":"23:59","feeInfo":"기본 30분 500원 / 추가 10분당 200원","phone":"052-226-0945","updatedAt":"2025-12-01","sido":"울산광역시","sigungu":"남구","dong":"야음동"},{"name":"신정1동","type":"공영","category":"노외","address":"울산광역시 남구 월평로25","lat":35.54134746,"lng":129.3083496,"totalSpaces":103,"isFree":false,"operatingDays":"평일+토요일+공휴일","weekdayOpen":"09:00","weekdayClose":"23:59","weekendOpen":"09:00","weekendClose":"23:59","holidayOpen":"00:00","holidayClose":"23:59","feeInfo":"기본 30분 500원 / 추가 10분당 200원","phone":"052-226-0945","updatedAt":"2025-11-27","sido":"울산광역시","sigungu":"남구","dong":"신정동"},{"name":"삼산공영주차장","type":"공영","category":"부설","address":"울산광역시 남구 달삼로 77","lat":35.53685141,"lng":129.3375585,"totalSpaces":102,"isFree":false,"operatingDays":"평일+토요일+공휴일","weekdayOpen":"00:00","weekdayClose":"23:59","weekendOpen":"00:00","weekendClose":"23:59","holidayOpen":"00:00","holidayClose":"23:59","feeInfo":"기본 30분 500원 / 추가 30분당 500원","phone":"052-227-2817","updatedAt":"2025-04-28","sido":"울산광역시","sigungu":"남구","dong":"삼산동"},{"name":"삼산공영주차장","type":"공영","category":"부설","address":"울산광역시 남구 달삼로 77","lat":35.53685141,"lng":129.3375585,"totalSpaces":102,"isFree":false,"operatingDays":"평일+토요일+공휴일","weekdayOpen":"00:00","weekdayClose":"23:59","weekendOpen":"00:00","weekendClose":"23:59","holidayOpen":"00:00","holidayClose":"23:59","feeInfo":"기본 60분 1,000원 / 추가 30분당 500원","phone":"052-227-2817","updatedAt":"2025-12-01","sido":"울산광역시","sigungu":"남구","dong":"삼산동"},{"name":"삼산2","type":"공영","category":"노외","address":"울산광역시 남구 삼산동 1627-3","lat":35.53824616,"lng":129.345629,"totalSpaces":99,"isFree":false,"operatingDays":"평일+토요일+공휴일","weekdayOpen":"09:30","weekdayClose":"17:00","weekendOpen":"00:00","weekendClose":"23:59","holidayOpen":"00:00","holidayClose":"23:59","feeInfo":"기본 30분 500원 / 추가 10분당 200원","phone":"052-226-0945","updatedAt":"2025-11-27","sido":"울산광역시","sigungu":"남구","dong":"삼산동"},{"name":"울산병원앞","type":"공영","category":"노외","address":"울산광역시 남구 신정동 34-80","lat":35.54653833,"lng":129.3235608,"totalSpaces":98,"isFree":false,"operatingDays":"평일+토요일+공휴일","weekdayOpen":"00:00","weekdayClose":"23:59","weekendOpen":"00:00","weekendClose":"23:59","holidayOpen":"00:00","holidayClose":"23:59","feeInfo":"기본 30분 500원 / 추가 10분당 200원","phone":"052-226-0945","updatedAt":"2025-12-01","sido":"울산광역시","sigungu":"남구","dong":"신정동"},{"name":"무거섬들","type":"공영","category":"노외","address":"울산광역시 남구 옥현로69","lat":35.54270668,"lng":129.2611949,"totalSpaces":95,"isFree":false,"operatingDays":"평일+토요일+공휴일","weekdayOpen":"08:00","weekdayClose":"23:00","weekendOpen":"00:00","weekendClose":"23:59","holidayOpen":"00:00","holidayClose":"23:59","feeInfo":"기본 30분 500원 / 추가 10분당 200원","phone":"052-226-0945","updatedAt":"2025-11-27","sido":"울산광역시","sigungu":"남구","dong":"무거동"},{"name":"울산병원앞","type":"공영","category":"노외","address":"울산광역시 남구 신정동 34-80","lat":35.54655327,"lng":129.3235429,"totalSpaces":91,"isFree":false,"operatingDays":"평일+토요일+공휴일","weekdayOpen":"08:00","weekdayClose":"23:00","weekendOpen":"00:00","weekendClose":"23:59","holidayOpen":"00:00","holidayClose":"23:59","feeInfo":"기본 30분 500원 / 추가 10분당 200원","phone":"052-226-0945","updatedAt":"2025-11-27","sido":"울산광역시","sigungu":"남구","dong":"신정동"},{"name":"야음장생포동","type":"공영","category":"노외","address":"울산광역시 남구 야음동366-4","lat":35.51947399,"lng":129.3377713,"totalSpaces":84,"isFree":false,"operatingDays":"평일+토요일+공휴일","weekdayOpen":"18:00","weekdayClose":"23:59","weekendOpen":"18:00","weekendClose":"23:59","holidayOpen":"18:00","holidayClose":"23:59","feeInfo":"기본 0분 0원 / 추가 0분당 0원","phone":"052-226-0945","updatedAt":"2025-11-27","sido":"울산광역시","sigungu":"남구","dong":""},{"name":"공구월드상가옆","type":"공영","category":"노외","address":"울산광역시 남구 갈밭로16","lat":35.53586568,"lng":129.3422824,"totalSpaces":80,"isFree":false,"operatingDays":"평일+토요일+공휴일","weekdayOpen":"00:00","weekdayClose":"23:59","weekendOpen":"00:00","weekendClose":"23:59","holidayOpen":"00:00","holidayClose":"23:59","feeInfo":"기본 30분 500원 / 추가 10분당 200원","phone":"052-226-0945","updatedAt":"2025-12-01","sido":"울산광역시","sigungu":"남구","dong":"삼산동"},{"name":"문수스쿼시경기장","type":"공영","category":"부설","address":"울산광역시 남구 문수로 44","lat":35.53526694,"lng":129.2595317,"totalSpaces":77,"isFree":false,"operatingDays":"평일+토요일+공휴일","weekdayOpen":"00:00","weekdayClose":"23:59","weekendOpen":"00:00","weekendClose":"23:59","holidayOpen":"00:00","holidayClose":"23:59","feeInfo":"기본 30분 500원 / 추가 10분당 200원","phone":"052-220-2002","updatedAt":"2025-04-28","sido":"울산광역시","sigungu":"남구","dong":"옥동"},{"name":"삼호동","type":"공영","category":"노외","address":"울산광역시 남구 무거동 1252-6","lat":35.5471028,"lng":129.2828525,"totalSpaces":77,"isFree":false,"operatingDays":"평일+토요일+공휴일","weekdayOpen":"00:00","weekdayClose":"23:59","weekendOpen":"00:00","weekendClose":"23:59","holidayOpen":"00:00","holidayClose":"23:59","feeInfo":"기본 30분 500원 / 추가 10분당 200원","phone":"052-226-0948","updatedAt":"2025-12-01","sido":"울산광역시","sigungu":"남구","dong":"무거동"},{"name":"야음동","type":"공영","category":"노외","address":"울산광역시 남구 신선로 190","lat":35.52243019,"lng":129.333212,"totalSpaces":75,"isFree":false,"operatingDays":"평일+토요일+공휴일","weekdayOpen":"08:00","weekdayClose":"23:00","weekendOpen":"00:00","weekendClose":"23:59","holidayOpen":"00:00","holidayClose":"23:59","feeInfo":"기본 30분 500원 / 추가 10분당 200원","phone":"052-226-0945","updatedAt":"2025-11-27","sido":"울산광역시","sigungu":"남구","dong":"야음동"},{"name":"공구월드상가옆","type":"공영","category":"노외","address":"울산광역시 남구 갈밭로16","lat":35.53587484,"lng":129.3422793,"totalSpaces":74,"isFree":false,"operatingDays":"평일+토요일+공휴일","weekdayOpen":"08:00","weekdayClose":"23:00","weekendOpen":"00:00","weekendClose":"23:59","holidayOpen":"00:00","holidayClose":"23:59","feeInfo":"기본 30분 500원 / 추가 10분당 200원","phone":"052-226-0945","updatedAt":"2025-11-27","sido":"울산광역시","sigungu":"남구","dong":"삼산동"},{"name":"여천천2","type":"공영","category":"노상","address":"울산광역시 남구 신정동 1826","lat":35.53077556,"lng":129.3105599,"totalSpaces":72,"isFree":false,"operatingDays":"평일+토요일+공휴일","weekdayOpen":"11:00","weekdayClose":"21:00","weekendOpen":"00:00","weekendClose":"23:59","holidayOpen":"00:00","holidayClose":"23:59","feeInfo":"기본 30분 500원 / 추가 10분당 200원","phone":"052-226-0945","updatedAt":"2025-11-27","sido":"울산광역시","sigungu":"남구","dong":"신정동"},{"name":"삼호동 공영주차장","type":"공영","category":"노외","address":"울산광역시 남구 정광로 8","lat":35.5471484,"lng":129.2828525,"totalSpaces":71,"isFree":false,"operatingDays":"평일+토요일+공휴일","weekdayOpen":"09:00","weekdayClose":"22:00","weekendOpen":"00:00","weekendClose":"23:59","holidayOpen":"00:00","holidayClose":"23:59","feeInfo":"기본 30분 500원 / 추가 10분당 200원","phone":"052-226-0945","updatedAt":"2025-11-27","sido":"울산광역시","sigungu":"남구","dong":"무거동"},{"name":"종하거리","type":"공영","category":"노외","address":"울산광역시 남구 삼산로9번길 16","lat":35.5355867,"lng":129.3095958,"totalSpaces":67,"isFree":false,"operatingDays":"평일+토요일+공휴일","weekdayOpen":"00:00","weekdayClose":"23:59","weekendOpen":"00:00","weekendClose":"23:59","holidayOpen":"00:00","holidayClose":"23:59","feeInfo":"기본 30분 500원 / 추가 10분당 200원","phone":"052-226-0953","updatedAt":"2025-12-01","sido":"울산광역시","sigungu":"남구","dong":"신정동"},{"name":"여천천2","type":"공영","category":"노상","address":"울산광역시 남구 신정동 1826","lat":35.53077008,"lng":129.3105599,"totalSpaces":66,"isFree":false,"operatingDays":"평일+토요일+공휴일","weekdayOpen":"00:00","weekdayClose":"23:59","weekendOpen":"00:00","weekendClose":"23:59","holidayOpen":"00:00","holidayClose":"23:59","feeInfo":"기본 30분 500원 / 추가 10분당 200원","phone":"052-226-0945","updatedAt":"2025-12-01","sido":"울산광역시","sigungu":"남구","dong":"신정동"},{"name":"종하거리공영주차장","type":"공영","category":"노외","address":"울산광역시 남구 삼산로9번길 16","lat":35.5355867,"lng":129.3095958,"totalSpaces":66,"isFree":false,"operatingDays":"평일+토요일+공휴일","weekdayOpen":"08:00","weekdayClose":"23:00","weekendOpen":"00:00","weekendClose":"23:59","holidayOpen":"00:00","holidayClose":"23:59","feeInfo":"기본 30분 500원 / 추가 10분당 200원","phone":"052-226-0945","updatedAt":"2025-11-27","sido":"울산광역시","sigungu":"남구","dong":"신정동"},{"name":"공구상가앞","type":"공영","category":"노상","address":"울산광역시 남구 갈밭로 24","lat":35.53578533,"lng":129.3426384,"totalSpaces":60,"isFree":false,"operatingDays":"평일+토요일+공휴일","weekdayOpen":"00:00","weekdayClose":"23:59","weekendOpen":"00:00","weekendClose":"23:59","holidayOpen":"00:00","holidayClose":"23:59","feeInfo":"기본 30분 500원 / 추가 10분당 200원","phone":"052-226-0945","updatedAt":"2025-12-01","sido":"울산광역시","sigungu":"남구","dong":"삼산동"},{"name":"문수스쿼시경기장","type":"공영","category":"부설","address":"울산광역시 남구 문수로 44","lat":35.53526694,"lng":129.2595317,"totalSpaces":59,"isFree":false,"operatingDays":"평일+토요일+공휴일","weekdayOpen":"00:00","weekdayClose":"23:59","weekendOpen":"00:00","weekendClose":"23:59","holidayOpen":"00:00","holidayClose":"23:59","feeInfo":"기본 30분 500원 / 추가 10분당 200원","phone":"052-220-2008","updatedAt":"2025-12-01","sido":"울산광역시","sigungu":"남구","dong":"옥동"},{"name":"옥현로","type":"공영","category":"노상","address":"울산광역시 남구 무거동 635","lat":35.5402428,"lng":129.2600818,"totalSpaces":57,"isFree":false,"operatingDays":"평일+토요일+공휴일","weekdayOpen":"00:00","weekdayClose":"23:59","weekendOpen":"00:00","weekendClose":"23:59","holidayOpen":"00:00","holidayClose":"23:59","feeInfo":"기본 30분 500원 / 추가 10분당 200원","phone":"052-226-0945","updatedAt":"2025-12-01","sido":"울산광역시","sigungu":"남구","dong":"무거동"},{"name":"농수산물도매시장","type":"공영","category":"노상","address":"울산광역시 남구 삼산로 324","lat":35.53800266,"lng":129.3417565,"totalSpaces":50,"isFree":false,"operatingDays":"평일+토요일+공휴일","weekdayOpen":"09:00","weekdayClose":"22:00","weekendOpen":"09:00","weekendClose":"22:00","holidayOpen":"00:00","holidayClose":"23:59","feeInfo":"기본 30분 500원 / 추가 10분당 200원","phone":"052-226-0944","updatedAt":"2025-11-27","sido":"울산광역시","sigungu":"남구","dong":"삼산동"},{"name":"무거섬들","type":"공영","category":"노외","address":"울산광역시 남구 옥현로69","lat":35.54270898,"lng":129.2611903,"totalSpaces":47,"isFree":false,"operatingDays":"평일+토요일+공휴일","weekdayOpen":"00:00","weekdayClose":"23:59","weekendOpen":"00:00","weekendClose":"23:59","holidayOpen":"00:00","holidayClose":"23:59","feeInfo":"기본 30분 500원 / 추가 10분당 200원","phone":"052-226-0945","updatedAt":"2025-12-01","sido":"울산광역시","sigungu":"남구","dong":"무거동"},{"name":"신정시장앞","type":"공영","category":"노상","address":"울산광역시 남구 월평로35","lat":35.54151026,"lng":129.3094943,"totalSpaces":43,"isFree":false,"operatingDays":"평일+토요일+공휴일","weekdayOpen":"00:00","weekdayClose":"23:59","weekendOpen":"00:00","weekendClose":"23:59","holidayOpen":"00:00","holidayClose":"23:59","feeInfo":"기본 30분 500원 / 추가 10분당 200원","phone":"052-226-0945","updatedAt":"2025-12-01","sido":"울산광역시","sigungu":"남구","dong":"신정동"},{"name":"팔등로","type":"공영","category":"노상","address":"울산광역시 남구 팔등로35","lat":35.54488047,"lng":129.3105258,"totalSpaces":42,"isFree":false,"operatingDays":"평일+토요일+공휴일","weekdayOpen":"00:00","weekdayClose":"23:59","weekendOpen":"00:00","weekendClose":"23:59","holidayOpen":"00:00","holidayClose":"23:59","feeInfo":"기본 30분 500원 / 추가 10분당 200원","phone":"052-226-0945","updatedAt":"2025-12-01","sido":"울산광역시","sigungu":"남구","dong":"신정동"},{"name":"신정3동","type":"공영","category":"노외","address":"울산광역시 남구 신정동 501-10","lat":35.54435002,"lng":129.3133619,"totalSpaces":42,"isFree":false,"operatingDays":"평일+토요일+공휴일","weekdayOpen":"00:00","weekdayClose":"23:59","weekendOpen":"00:00","weekendClose":"23:59","holidayOpen":"00:00","holidayClose":"23:59","feeInfo":"기본 30분 500원 / 추가 10분당 200원","phone":"052-226-0945","updatedAt":"2025-12-01","sido":"울산광역시","sigungu":"남구","dong":"신정동"},{"name":"신정시장앞","type":"공영","category":"노상","address":"울산광역시 남구 월평로35","lat":35.54151019,"lng":129.3094932,"totalSpaces":42,"isFree":false,"operatingDays":"평일+토요일+공휴일","weekdayOpen":"09:00","weekdayClose":"21:00","weekendOpen":"00:00","weekendClose":"23:59","holidayOpen":"00:00","holidayClose":"23:59","feeInfo":"기본 30분 500원 / 추가 10분당 200원","phone":"052-226-0945","updatedAt":"2025-11-27","sido":"울산광역시","sigungu":"남구","dong":"신정동"},{"name":"여천천","type":"공영","category":"노외","address":"울산광역시 남구 두왕로318","lat":35.53064094,"lng":129.3085941,"totalSpaces":40,"isFree":false,"operatingDays":"평일+토요일+공휴일","weekdayOpen":"00:00","weekdayClose":"23:59","weekendOpen":"00:00","weekendClose":"23:59","holidayOpen":"00:00","holidayClose":"23:59","feeInfo":"기본 30분 500원 / 추가 10분당 200원","phone":"052-226-0945","updatedAt":"2025-12-01","sido":"울산광역시","sigungu":"남구","dong":"신정동"},{"name":"여천천","type":"공영","category":"노외","address":"울산광역시 남구 두왕로318","lat":35.5306618,"lng":129.3085996,"totalSpaces":40,"isFree":false,"operatingDays":"평일+토요일+공휴일","weekdayOpen":"08:00","weekdayClose":"23:00","weekendOpen":"00:00","weekendClose":"23:59","holidayOpen":"00:00","holidayClose":"23:59","feeInfo":"기본 30분 500원 / 추가 10분당 200원","phone":"052-226-0945","updatedAt":"2025-11-27","sido":"울산광역시","sigungu":"남구","dong":"신정동"},{"name":"어은로","type":"공영","category":"노상","address":"울산광역시 남구 어은로 13-1","lat":35.55056267,"lng":129.2734311,"totalSpaces":33,"isFree":false,"operatingDays":"평일+토요일+공휴일","weekdayOpen":"00:00","weekdayClose":"23:59","weekendOpen":"00:00","weekendClose":"23:59","holidayOpen":"00:00","holidayClose":"23:59","feeInfo":"기본 30분 500원 / 추가 10분당 200원","phone":"052-226-0945","updatedAt":"2025-12-01","sido":"울산광역시","sigungu":"남구","dong":"무거동"},{"name":"공구상가앞","type":"공영","category":"노상","address":"울산광역시 남구 갈밭로 24","lat":35.5357876,"lng":129.3426382,"totalSpaces":30,"isFree":false,"operatingDays":"평일+토요일+공휴일","weekdayOpen":"09:30","weekdayClose":"17:00","weekendOpen":"00:00","weekendClose":"23:59","holidayOpen":"00:00","holidayClose":"23:59","feeInfo":"기본 30분 500원 / 추가 10분당 200원","phone":"052-226-0945","updatedAt":"2025-11-27","sido":"울산광역시","sigungu":"남구","dong":"삼산동"},{"name":"신정5동","type":"공영","category":"노외","address":"울산광역시 남구 신정동 22-53","lat":35.54576679,"lng":129.3218752,"totalSpaces":30,"isFree":false,"operatingDays":"평일+토요일+공휴일","weekdayOpen":"18:00","weekdayClose":"23:59","weekendOpen":"18:00","weekendClose":"23:59","holidayOpen":"18:00","holidayClose":"23:59","feeInfo":"기본 0분 0원 / 추가 0분당 0원","phone":"052-226-0945","updatedAt":"2025-11-27","sido":"울산광역시","sigungu":"남구","dong":"신정동"},{"name":"선암 철도하부","type":"공영","category":"노외","address":"울산광역시 남구 선암동 182-4","lat":35.51305508,"lng":129.3379729,"totalSpaces":29,"isFree":false,"operatingDays":"평일+토요일+공휴일","weekdayOpen":"18:00","weekdayClose":"23:59","weekendOpen":"18:00","weekendClose":"23:59","holidayOpen":"18:00","holidayClose":"23:59","feeInfo":"기본 0분 0원 / 추가 0분당 0원","phone":"052-226-0945","updatedAt":"2025-11-27","sido":"울산광역시","sigungu":"남구","dong":"선암동"},{"name":"궁거랑공영주차장","type":"공영","category":"노외","address":"울산광역시 남구 무거동 1431-2","lat":35.55080064,"lng":129.2668442,"totalSpaces":25,"isFree":false,"operatingDays":"평일+토요일+공휴일","weekdayOpen":"18:00","weekdayClose":"23:59","weekendOpen":"18:00","weekendClose":"23:59","holidayOpen":"18:00","holidayClose":"23:59","feeInfo":"기본 0분 0원 / 추가 0분당 0원","phone":"052-226-0945","updatedAt":"2025-11-27","sido":"울산광역시","sigungu":"남구","dong":"무거동"},{"name":"신정로","type":"공영","category":"노상","address":"울산광역시 남구 달동 651-12","lat":35.53416566,"lng":129.3224796,"totalSpaces":24,"isFree":false,"operatingDays":"평일+토요일+공휴일","weekdayOpen":"09:00","weekdayClose":"22:00","weekendOpen":"00:00","weekendClose":"23:59","holidayOpen":"00:00","holidayClose":"23:59","feeInfo":"기본 30분 500원 / 추가 10분당 200원","phone":"052-226-0945","updatedAt":"2025-11-27","sido":"울산광역시","sigungu":"남구","dong":"달동"},{"name":"울산여고 앞","type":"공영","category":"노외","address":"울산광역시 남구 신정동 1216-5","lat":35.53395449,"lng":129.308651,"totalSpaces":23,"isFree":false,"operatingDays":"평일+토요일+공휴일","weekdayOpen":"18:00","weekdayClose":"23:59","weekendOpen":"18:00","weekendClose":"23:59","holidayOpen":"18:00","holidayClose":"23:59","feeInfo":"기본 0분 0원 / 추가 0분당 0원","phone":"052-226-0945","updatedAt":"2025-11-27","sido":"울산광역시","sigungu":"남구","dong":"신정동"},{"name":"대형주차장","type":"공영","category":"부설","address":"울산광역시 남구 문수로 44","lat":35.53526694,"lng":129.2595317,"totalSpaces":17,"isFree":false,"operatingDays":"평일+토요일+공휴일","weekdayOpen":"00:00","weekdayClose":"23:59","weekendOpen":"00:00","weekendClose":"23:59","holidayOpen":"00:00","holidayClose":"23:59","feeInfo":"기본 30분 500원 / 추가 10분당 200원","phone":"052-220-2003","updatedAt":"2025-12-01","sido":"울산광역시","sigungu":"남구","dong":"옥동"},{"name":"대형주차장","type":"공영","category":"부설","address":"울산광역시 남구 문수로 44","lat":35.53526694,"lng":129.2595317,"totalSpaces":17,"isFree":false,"operatingDays":"평일+토요일+공휴일","weekdayOpen":"00:00","weekdayClose":"23:59","weekendOpen":"00:00","weekendClose":"23:59","holidayOpen":"00:00","holidayClose":"23:59","feeInfo":"기본 30분 500원 / 추가 10분당 200원","phone":"052-220-2002","updatedAt":"2025-04-28","sido":"울산광역시","sigungu":"남구","dong":"옥동"}]}