{"sido":"울산광역시","sigungu":"북구","totalCount":184,"validCount":184,"items":[{"name":"박상진호수공원제1","type":"공영","category":"노외","address":"울산광역시 북구 상원지길 6","lat":35.61061137,"lng":129.371076,"totalSpaces":256,"isFree":true,"operatingDays":"평일+토요일+공휴일","weekdayOpen":"00:00","weekdayClose":"23:59","weekendOpen":"00:00","weekendClose":"23:59","holidayOpen":"00:00","holidayClose":"23:59","feeInfo":"무료","phone":"052-241-7966","updatedAt":"2025-07-29","sido":"울산광역시","sigungu":"북구","dong":""},{"name":"호계역1","type":"공영","category":"노외","address":"울산광역시 북구 호계6길 32-9","lat":35.62169018,"lng":129.355295,"totalSpaces":245,"isFree":true,"operatingDays":"평일+토요일+공휴일","weekdayOpen":"00:00","weekdayClose":"23:59","weekendOpen":"00:00","weekendClose":"23:59","holidayOpen":"00:00","holidayClose":"23:59","feeInfo":"무료","phone":"052-241-7966","updatedAt":"2025-07-29","sido":"울산광역시","sigungu":"북구","dong":"호계동"},{"name":"호계역1","type":"공영","category":"노외","address":"울산광역시 북구 호계동 842-2","lat":35.62120611,"lng":129.3552333,"totalSpaces":245,"isFree":true,"operatingDays":"평일+토요일+공휴일","weekdayOpen":"00:00","weekdayClose":"23:59","weekendOpen":"00:00","weekendClose":"23:59","holidayOpen":"00:00","holidayClose":"23:59","feeInfo":"무료","phone":"052-241-7963","updatedAt":"2025-12-01","sido":"울산광역시","sigungu":"북구","dong":"호계동"},{"name":"모듈화산업단지제2","type":"공영","category":"노외","address":"울산광역시 북구 모듈화산업로 109","lat":35.57103858,"lng":129.376697,"totalSpaces":145,"isFree":true,"operatingDays":"평일+토요일+공휴일","weekdayOpen":"00:00","weekdayClose":"23:59","weekendOpen":"00:00","weekendClose":"23:59","holidayOpen":"00:00","holidayClose":"23:59","feeInfo":"무료","phone":"052-241-7966","updatedAt":"2025-07-29","sido":"울산광역시","sigungu":"북구","dong":"효문동"},{"name":"모듈화산업단지제2","type":"공영","category":"노외","address":"울산광역시 북구 효문동 986","lat":35.57101718,"lng":129.3761765,"totalSpaces":145,"isFree":true,"operatingDays":"평일+토요일+공휴일","weekdayOpen":"00:00","weekdayClose":"23:59","weekendOpen":"00:00","weekendClose":"23:59","holidayOpen":"00:00","holidayClose":"23:59","feeInfo":"무료","phone":"052-241-7963","updatedAt":"2025-12-01","sido":"울산광역시","sigungu":"북구","dong":"효문동"},{"name":"효문노상","type":"공영","category":"노상","address":"울산광역시 북구 화봉동 961-3","lat":35.58987038,"lng":129.3719998,"totalSpaces":141,"isFree":true,"operatingDays":"평일+토요일+공휴일","weekdayOpen":"00:00","weekdayClose":"23:59","weekendOpen":"00:00","weekendClose":"23:59","holidayOpen":"00:00","holidayClose":"23:59","feeInfo":"무료","phone":"052-241-7966","updatedAt":"2025-07-29","sido":"울산광역시","sigungu":"북구","dong":"화봉동"},{"name":"매곡1산업단지","type":"공영","category":"노외","address":"울산광역시 북구 매곡산업2길 9","lat":35.64717157,"lng":129.363783,"totalSpaces":141,"isFree":true,"operatingDays":"평일+토요일+공휴일","weekdayOpen":"00:00","weekdayClose":"23:59","weekendOpen":"00:00","weekendClose":"23:59","holidayOpen":"00:00","holidayClose":"23:59","feeInfo":"무료","phone":"052-241-7966","updatedAt":"2025-07-29","sido":"울산광역시","sigungu":"북구","dong":"매곡동"},{"name":"효문노상","type":"공영","category":"노상","address":"울산광역시 북구 화봉동 961-3","lat":35.58987038,"lng":129.3719998,"totalSpaces":141,"isFree":true,"operatingDays":"평일+토요일+공휴일","weekdayOpen":"00:00","weekdayClose":"23:59","weekendOpen":"00:00","weekendClose":"23:59","holidayOpen":"00:00","holidayClose":"23:59","feeInfo":"무료","phone":"052-241-7963","updatedAt":"2025-12-01","sido":"울산광역시","sigungu":"북구","dong":"화봉동"},{"name":"매곡1산업단지","type":"공영","category":"노외","address":"울산광역시 북구 매곡산업2길 9 (매곡동)","lat":35.64717157,"lng":129.3637787,"totalSpaces":141,"isFree":true,"operatingDays":"평일+토요일+공휴일","weekdayOpen":"00:00","weekdayClose":"23:59","weekendOpen":"00:00","weekendClose":"23:59","holidayOpen":"00:00","holidayClose":"23:59","feeInfo":"무료","phone":"052-241-7963","updatedAt":"2025-12-01","sido":"울산광역시","sigungu":"북구","dong":"매곡동"},{"name":"박상진호수공원제2","type":"공영","category":"노상","address":"울산광역시 북구 송정동 1143","lat":35.60853614,"lng":129.3718638,"totalSpaces":134,"isFree":true,"operatingDays":"평일+토요일+공휴일","weekdayOpen":"00:00","weekdayClose":"23:59","weekendOpen":"00:00","weekendClose":"23:59","holidayOpen":"00:00","holidayClose":"23:59","feeInfo":"무료","phone":"052-241-7966","updatedAt":"2025-07-29","sido":"울산광역시","sigungu":"북구","dong":"송정동"},{"name":"매곡3산업단지(1)","type":"공영","category":"노외","address":"울산광역시 북구 매곡산업6길 17","lat":35.63934007,"lng":129.3678198,"totalSpaces":109,"isFree":true,"operatingDays":"평일+토요일+공휴일","weekdayOpen":"00:00","weekdayClose":"23:59","weekendOpen":"00:00","weekendClose":"23:59","holidayOpen":"00:00","holidayClose":"23:59","feeInfo":"무료","phone":"052-241-7966","updatedAt":"2025-07-29","sido":"울산광역시","sigungu":"북구","dong":"매곡동"},{"name":"매곡3산업단지(1)","type":"공영","category":"노외","address":"울산광역시 북구 매곡동 884-5","lat":35.64062434,"lng":129.3666228,"totalSpaces":109,"isFree":true,"operatingDays":"평일+토요일+공휴일","weekdayOpen":"00:00","weekdayClose":"23:59","weekendOpen":"00:00","weekendClose":"23:59","holidayOpen":"00:00","holidayClose":"23:59","feeInfo":"무료","phone":"052-241-7963","updatedAt":"2025-12-01","sido":"울산광역시","sigungu":"북구","dong":"매곡동"},{"name":"매곡천 공영주차장","type":"공영","category":"노외","address":"울산광역시 북구 매산2로 46","lat":35.63779125,"lng":129.353959,"totalSpaces":103,"isFree":true,"operatingDays":"평일+토요일+공휴일","weekdayOpen":"00:00","weekdayClose":"23:59","weekendOpen":"00:00","weekendClose":"23:59","holidayOpen":"00:00","holidayClose":"23:59","feeInfo":"무료","phone":"052-241-7966","updatedAt":"2025-07-29","sido":"울산광역시","sigungu":"북구","dong":"신천동"},{"name":"편백산림욕장2","type":"공영","category":"노외","address":"울산광역시 북구 달천동 892-131","lat":35.63767564,"lng":129.3051601,"totalSpaces":100,"isFree":true,"operatingDays":"평일+토요일+공휴일","weekdayOpen":"00:00","weekdayClose":"23:59","weekendOpen":"00:00","weekendClose":"23:59","holidayOpen":"00:00","holidayClose":"23:59","feeInfo":"무료","phone":"052-241-7966","updatedAt":"2025-07-29","sido":"울산광역시","sigungu":"북구","dong":"달천동"},{"name":"편백산림욕장2","type":"공영","category":"노외","address":"울산광역시 북구 약수8길 66-12 (중산동)","lat":35.6376756404,"lng":129.3051601181,"totalSpaces":100,"isFree":true,"operatingDays":"평일+토요일+공휴일","weekdayOpen":"00:00","weekdayClose":"23:59","weekendOpen":"00:00","weekendClose":"23:59","holidayOpen":"00:00","holidayClose":"23:59","feeInfo":"무료","phone":"052-241-7963","updatedAt":"2025-12-01","sido":"울산광역시","sigungu":"북구","dong":"달천동"},{"name":"화동","type":"공영","category":"노외","address":"울산광역시 북구 화동15길 18-1","lat":35.59111716,"lng":129.371761,"totalSpaces":95,"isFree":true,"operatingDays":"평일+토요일+공휴일","weekdayOpen":"00:00","weekdayClose":"23:59","weekendOpen":"00:00","weekendClose":"23:59","holidayOpen":"00:00","holidayClose":"23:59","feeInfo":"무료","phone":"052-241-7966","updatedAt":"2025-07-29","sido":"울산광역시","sigungu":"북구","dong":"화봉동"},{"name":"화동","type":"공영","category":"노외","address":"울산광역시 북구 화봉동 365","lat":35.59136093,"lng":129.3730031,"totalSpaces":95,"isFree":true,"operatingDays":"평일+토요일+공휴일","weekdayOpen":"00:00","weekdayClose":"23:59","weekendOpen":"00:00","weekendClose":"23:59","holidayOpen":"00:00","holidayClose":"23:59","feeInfo":"무료","phone":"052-241-7963","updatedAt":"2025-12-01","sido":"울산광역시","sigungu":"북구","dong":"화봉동"},{"name":"유휴부지 공영주차장","type":"공영","category":"노외","address":"울산광역시 북구 신천동 819-3","lat":35.63587059,"lng":129.356467,"totalSpaces":93,"isFree":true,"operatingDays":"평일+토요일+공휴일","weekdayOpen":"00:00","weekdayClose":"23:59","weekendOpen":"00:00","weekendClose":"23:59","holidayOpen":"00:00","holidayClose":"23:59","feeInfo":"무료","phone":"052-241-7982","updatedAt":"2025-07-29","sido":"울산광역시","sigungu":"북구","dong":"신천동"},{"name":"창평","type":"공영","category":"노외","address":"울산광역시 북구 호계로 176-7","lat":35.62036431,"lng":129.356895,"totalSpaces":90,"isFree":true,"operatingDays":"평일+토요일+공휴일","weekdayOpen":"00:00","weekdayClose":"23:59","weekendOpen":"00:00","weekendClose":"23:59","holidayOpen":"00:00","holidayClose":"23:59","feeInfo":"무료","phone":"052-241-7966","updatedAt":"2025-07-29","sido":"울산광역시","sigungu":"북구","dong":"창평동"},{"name":"창평공영주차장","type":"공영","category":"노외","address":"울산광역시 북구 호계3길 17-11 (호계동)","lat":35.62361611,"lng":129.355738,"totalSpaces":90,"isFree":true,"operatingDays":"평일+토요일+공휴일","weekdayOpen":"00:00","weekdayClose":"23:59","weekendOpen":"00:00","weekendClose":"23:59","holidayOpen":"00:00","holidayClose":"23:59","feeInfo":"무료","phone":"052-241-7963","updatedAt":"2025-12-01","sido":"울산광역시","sigungu":"북구","dong":"호계동"},{"name":"신명 해안도로 노상","type":"공영","category":"노상","address":"울산광역시 북구 신명동 286-5","lat":35.64144556,"lng":129.4409815,"totalSpaces":89,"isFree":true,"operatingDays":"평일+토요일+공휴일","weekdayOpen":"00:00","weekdayClose":"23:59","weekendOpen":"00:00","weekendClose":"23:59","holidayOpen":"00:00","holidayClose":"23:59","feeInfo":"무료","phone":"052-241-7966","updatedAt":"2025-07-29","sido":"울산광역시","sigungu":"북구","dong":"신명동"},{"name":"유휴부지 공영주차장","type":"공영","category":"노외","address":"울산광역시 북구 산하중앙1로 11","lat":35.62545717,"lng":129.440509,"totalSpaces":88,"isFree":true,"operatingDays":"평일+토요일+공휴일","weekdayOpen":"00:00","weekdayClose":"23:59","weekendOpen":"00:00","weekendClose":"23:59","holidayOpen":"00:00","holidayClose":"23:59","feeInfo":"무료","phone":"052-241-7982","updatedAt":"2025-07-29","sido":"울산광역시","sigungu":"북구","dong":"산하동"},{"name":"매곡천 공영주차장(노상)","type":"공영","category":"노상","address":"울산광역시 북구 신천동 745-118","lat":35.63587031,"lng":129.3512312,"totalSpaces":87,"isFree":true,"operatingDays":"평일+토요일+공휴일","weekdayOpen":"00:00","weekdayClose":"23:59","weekendOpen":"00:00","weekendClose":"23:59","holidayOpen":"00:00","holidayClose":"23:59","feeInfo":"무료","phone":"052-241-7966","updatedAt":"2025-07-29","sido":"울산광역시","sigungu":"북구","dong":"신천동"},{"name":"모듈화산업단지제1","type":"공영","category":"노외","address":"울산광역시 북구 모듈화산업로 207-1","lat":35.57989441,"lng":129.374522,"totalSpaces":80,"isFree":true,"operatingDays":"평일+토요일+공휴일","weekdayOpen":"00:00","weekdayClose":"23:59","weekendOpen":"00:00","weekendClose":"23:59","holidayOpen":"00:00","holidayClose":"23:59","feeInfo":"무료","phone":"052-241-7966","updatedAt":"2025-07-29","sido":"울산광역시","sigungu":"북구","dong":"연암동"},{"name":"모듈화산업단지제1","type":"공영","category":"노외","address":"울산광역시 북구 연암동 1372","lat":35.5797053,"lng":129.3735198,"totalSpaces":80,"isFree":true,"operatingDays":"평일+토요일+공휴일","weekdayOpen":"00:00","weekdayClose":"23:59","weekendOpen":"00:00","weekendClose":"23:59","holidayOpen":"00:00","holidayClose":"23:59","feeInfo":"무료","phone":"052-241-7963","updatedAt":"2025-12-01","sido":"울산광역시","sigungu":"북구","dong":"연암동"},{"name":"달천농공단지2","type":"공영","category":"노외","address":"울산광역시 북구 달천동 207-5","lat":35.63873847,"lng":129.315276,"totalSpaces":73,"isFree":true,"operatingDays":"평일+토요일+공휴일","weekdayOpen":"00:00","weekdayClose":"23:59","weekendOpen":"00:00","weekendClose":"23:59","holidayOpen":"00:00","holidayClose":"23:59","feeInfo":"무료","phone":"052-241-7966","updatedAt":"2025-07-29","sido":"울산광역시","sigungu":"북구","dong":"달천동"},{"name":"달천농공단지2","type":"공영","category":"노외","address":"울산광역시 북구 약수8길 66-10 (중산동)","lat":35.6387384741,"lng":129.3152756665,"totalSpaces":73,"isFree":true,"operatingDays":"평일+토요일+공휴일","weekdayOpen":"00:00","weekdayClose":"23:59","weekendOpen":"00:00","weekendClose":"23:59","holidayOpen":"00:00","holidayClose":"23:59","feeInfo":"무료","phone":"052-241-7963","updatedAt":"2025-12-01","sido":"울산광역시","sigungu":"북구","dong":"달천동"},{"name":"약수초등학교","type":"공영","category":"노외","address":"울산광역시 북구 약수3길 9-13","lat":35.64810023,"lng":129.343153,"totalSpaces":71,"isFree":true,"operatingDays":"평일+토요일+공휴일","weekdayOpen":"00:00","weekdayClose":"23:59","weekendOpen":"00:00","weekendClose":"23:59","holidayOpen":"00:00","holidayClose":"23:59","feeInfo":"무료","phone":"052-241-7966","updatedAt":"2025-07-29","sido":"울산광역시","sigungu":"북구","dong":"중산동"},{"name":"편백산림욕장","type":"공영","category":"노외","address":"울산광역시 북구 달천만석골길 176","lat":35.64126797,"lng":129.302452,"totalSpaces":70,"isFree":true,"operatingDays":"평일+토요일+공휴일","weekdayOpen":"00:00","weekdayClose":"23:59","weekendOpen":"00:00","weekendClose":"23:59","holidayOpen":"00:00","holidayClose":"23:59","feeInfo":"무료","phone":"052-241-7966","updatedAt":"2025-07-29","sido":"울산광역시","sigungu":"북구","dong":"달천동"},{"name":"편백산림욕장","type":"공영","category":"노외","address":"울산광역시 북구 달천동 767-1","lat":35.64080533,"lng":129.302452,"totalSpaces":70,"isFree":true,"operatingDays":"평일+토요일+공휴일","weekdayOpen":"00:00","weekdayClose":"23:59","weekendOpen":"00:00","weekendClose":"23:59","holidayOpen":"00:00","holidayClose":"23:59","feeInfo":"무료","phone":"052-241-7963","updatedAt":"2025-12-01","sido":"울산광역시","sigungu":"북구","dong":"달천동"},{"name":"이화마을","type":"공영","category":"노외","address":"울산광역시 북구 이화3길 8-2","lat":35.66283939,"lng":129.342664,"totalSpaces":67,"isFree":true,"operatingDays":"평일+토요일+공휴일","weekdayOpen":"00:00","weekdayClose":"23:59","weekendOpen":"00:00","weekendClose":"23:59","holidayOpen":"00:00","holidayClose":"23:59","feeInfo":"무료","phone":"052-241-7966","updatedAt":"2025-07-29","sido":"울산광역시","sigungu":"북구","dong":"중산동"},{"name":"송정택지지구 공영주차장","type":"공영","category":"노외","address":"울산광역시 북구 송정동 1156","lat":35.60172556,"lng":129.3590485,"totalSpaces":64,"isFree":true,"operatingDays":"평일+토요일+공휴일","weekdayOpen":"00:00","weekdayClose":"23:59","weekendOpen":"00:00","weekendClose":"23:59","holidayOpen":"00:00","holidayClose":"23:59","feeInfo":"무료","phone":"052-241-7966","updatedAt":"2025-07-29","sido":"울산광역시","sigungu":"북구","dong":"송정동"},{"name":"상방공원 이면","type":"공영","category":"노상","address":"울산광역시 북구 연암동 1095-8","lat":35.58384704,"lng":129.3671986,"totalSpaces":63,"isFree":true,"operatingDays":"평일+토요일+공휴일","weekdayOpen":"00:00","weekdayClose":"23:59","weekendOpen":"00:00","weekendClose":"23:59","holidayOpen":"00:00","holidayClose":"23:59","feeInfo":"무료","phone":"052-241-7966","updatedAt":"2025-07-29","sido":"울산광역시","sigungu":"북구","dong":"연암동"},{"name":"상방공원 이면","type":"공영","category":"노상","address":"울산광역시 북구 연암동 1095-8","lat":35.58384704,"lng":129.3671986,"totalSpaces":63,"isFree":true,"operatingDays":"평일+토요일+공휴일","weekdayOpen":"00:00","weekdayClose":"23:59","weekendOpen":"00:00","weekendClose":"23:59","holidayOpen":"00:00","holidayClose":"23:59","feeInfo":"무료","phone":"052-241-7963","updatedAt":"2025-12-01","sido":"울산광역시","sigungu":"북구","dong":"연암동"},{"name":"구유동일원","type":"공영","category":"노외","address":"울산광역시 북구 판지1길 5","lat":35.61346487,"lng":129.452778,"totalSpaces":60,"isFree":true,"operatingDays":"평일+토요일+공휴일","weekdayOpen":"00:00","weekdayClose":"23:59","weekendOpen":"00:00","weekendClose":"23:59","holidayOpen":"00:00","holidayClose":"23:59","feeInfo":"무료","phone":"052-241-7966","updatedAt":"2025-07-29","sido":"울산광역시","sigungu":"북구","dong":"구유동"},{"name":"구유동일원","type":"공영","category":"노외","address":"울산광역시 북구 구유동 355-3","lat":35.61346487,"lng":129.4527765,"totalSpaces":60,"isFree":true,"operatingDays":"평일+토요일+공휴일","weekdayOpen":"00:00","weekdayClose":"23:59","weekendOpen":"00:00","weekendClose":"23:59","holidayOpen":"00:00","holidayClose":"23:59","feeInfo":"무료","phone":"052-241-7963","updatedAt":"2025-12-01","sido":"울산광역시","sigungu":"북구","dong":"구유동"},{"name":"유휴부지 공영주차장","type":"공영","category":"노외","address":"울산광역시 북구 신천동 820-7","lat":35.63472845,"lng":129.355854,"totalSpaces":58,"isFree":true,"operatingDays":"평일+토요일+공휴일","weekdayOpen":"00:00","weekdayClose":"23:59","weekendOpen":"00:00","weekendClose":"23:59","holidayOpen":"00:00","holidayClose":"23:59","feeInfo":"무료","phone":"052-241-7982","updatedAt":"2025-07-29","sido":"울산광역시","sigungu":"북구","dong":"신천동"},{"name":"강동산하(2)","type":"공영","category":"노외","address":"울산광역시 북구 동해안로 1598","lat":35.62696281,"lng":129.442016,"totalSpaces":58,"isFree":true,"operatingDays":"평일+토요일+공휴일","weekdayOpen":"00:00","weekdayClose":"23:59","weekendOpen":"00:00","weekendClose":"23:59","holidayOpen":"00:00","holidayClose":"23:59","feeInfo":"무료","phone":"052-241-7966","updatedAt":"2025-07-29","sido":"울산광역시","sigungu":"북구","dong":"산하동"},{"name":"강동산하(2)","type":"공영","category":"노외","address":"울산광역시 북구 산하동 367-16","lat":35.62696282,"lng":129.4420146,"totalSpaces":58,"isFree":true,"operatingDays":"평일+토요일+공휴일","weekdayOpen":"00:00","weekdayClose":"23:59","weekendOpen":"00:00","weekendClose":"23:59","holidayOpen":"00:00","holidayClose":"23:59","feeInfo":"무료","phone":"052-241-7963","updatedAt":"2025-12-01","sido":"울산광역시","sigungu":"북구","dong":"산하동"},{"name":"박상진호수공원제3","type":"공영","category":"노외","address":"울산광역시 북구 송정2길 31","lat":35.60296074,"lng":129.3585401,"totalSpaces":57,"isFree":true,"operatingDays":"평일+토요일+공휴일","weekdayOpen":"00:00","weekdayClose":"23:59","weekendOpen":"00:00","weekendClose":"23:59","holidayOpen":"00:00","holidayClose":"23:59","feeInfo":"무료","phone":"052-241-7966","updatedAt":"2025-07-29","sido":"울산광역시","sigungu":"북구","dong":"송정동"},{"name":"유휴부지 공영주차장","type":"공영","category":"노외","address":"울산광역시 북구 두부곡1길 8","lat":35.58357921,"lng":129.366932,"totalSpaces":57,"isFree":true,"operatingDays":"평일+토요일+공휴일","weekdayOpen":"00:00","weekdayClose":"23:59","weekendOpen":"00:00","weekendClose":"23:59","holidayOpen":"00:00","holidayClose":"23:59","feeInfo":"무료","phone":"052-241-7982","updatedAt":"2025-07-29","sido":"울산광역시","sigungu":"북구","dong":"연암동"},{"name":"연암동 442-1+442-2","type":"공영","category":"노외","address":"울산광역시 북구 연암동 442-1","lat":35.58344321,"lng":129.3672647,"totalSpaces":57,"isFree":true,"operatingDays":"평일+토요일+공휴일","weekdayOpen":"00:00","weekdayClose":"23:59","weekendOpen":"00:00","weekendClose":"23:59","holidayOpen":"00:00","holidayClose":"23:59","feeInfo":"무료","phone":"052-241-7963","updatedAt":"2025-12-01","sido":"울산광역시","sigungu":"북구","dong":"연암동"},{"name":"신천","type":"공영","category":"노외","address":"울산광역시 북구 호계로 309-19","lat":35.63003912,"lng":129.349143,"totalSpaces":55,"isFree":true,"operatingDays":"평일+토요일+공휴일","weekdayOpen":"00:00","weekdayClose":"23:59","weekendOpen":"00:00","weekendClose":"23:59","holidayOpen":"00:00","holidayClose":"23:59","feeInfo":"무료","phone":"052-241-7966","updatedAt":"2025-07-29","sido":"울산광역시","sigungu":"북구","dong":"신천동"},{"name":"신천공영주차장","type":"공영","category":"노외","address":"울산광역시 북구 신천동 344-5","lat":35.63033344,"lng":129.3496124,"totalSpaces":55,"isFree":true,"operatingDays":"평일+토요일+공휴일","weekdayOpen":"00:00","weekdayClose":"23:59","weekendOpen":"00:00","weekendClose":"23:59","holidayOpen":"00:00","holidayClose":"23:59","feeInfo":"무료","phone":"052-241-7963","updatedAt":"2025-12-01","sido":"울산광역시","sigungu":"북구","dong":"신천동"},{"name":"울산아파트형공장","type":"공영","category":"노외","address":"울산광역시 북구 효자로 70","lat":35.56742665,"lng":129.3678596,"totalSpaces":46,"isFree":true,"operatingDays":"평일+토요일+공휴일","weekdayOpen":"00:00","weekdayClose":"23:59","weekendOpen":"00:00","weekendClose":"23:59","holidayOpen":"00:00","holidayClose":"23:59","feeInfo":"무료","phone":"052-241-7966","updatedAt":"2025-07-29","sido":"울산광역시","sigungu":"북구","dong":"효문동"},{"name":"울산아파트형공장","type":"공영","category":"노외","address":"울산광역시 북구 효문동 818","lat":35.56725723,"lng":129.3684981,"totalSpaces":46,"isFree":true,"operatingDays":"평일+토요일+공휴일","weekdayOpen":"00:00","weekdayClose":"23:59","weekendOpen":"00:00","weekendClose":"23:59","holidayOpen":"00:00","holidayClose":"23:59","feeInfo":"무료","phone":"052-241-7963","updatedAt":"2025-12-01","sido":"울산광역시","sigungu":"북구","dong":"효문동"},{"name":"유휴부지 공영주차장","type":"공영","category":"노외","address":"울산광역시 북구 신천동 745-191","lat":35.63954937,"lng":129.3531809,"totalSpaces":44,"isFree":true,"operatingDays":"평일+토요일+공휴일","weekdayOpen":"00:00","weekdayClose":"23:59","weekendOpen":"00:00","weekendClose":"23:59","holidayOpen":"00:00","holidayClose":"23:59","feeInfo":"무료","phone":"052-241-7982","updatedAt":"2025-07-29","sido":"울산광역시","sigungu":"북구","dong":"신천동"},{"name":"달천농공단지3","type":"공영","category":"노외","address":"울산광역시 북구 농공단지2길 28","lat":35.63732167,"lng":129.316894,"totalSpaces":44,"isFree":true,"operatingDays":"평일+토요일+공휴일","weekdayOpen":"00:00","weekdayClose":"23:59","weekendOpen":"00:00","weekendClose":"23:59","holidayOpen":"00:00","holidayClose":"23:59","feeInfo":"무료","phone":"052-241-7966","updatedAt":"2025-07-29","sido":"울산광역시","sigungu":"북구","dong":"달천동"},{"name":"달천농공단지3","type":"공영","category":"노외","address":"울산광역시 북구 달천동 218-4","lat":35.63850965,"lng":129.3122241,"totalSpaces":44,"isFree":true,"operatingDays":"평일+토요일+공휴일","weekdayOpen":"00:00","weekdayClose":"23:59","weekendOpen":"00:00","weekendClose":"23:59","holidayOpen":"00:00","holidayClose":"23:59","feeInfo":"무료","phone":"052-241-7963","updatedAt":"2025-12-01","sido":"울산광역시","sigungu":"북구","dong":"달천동"},{"name":"구암","type":"공영","category":"노외","address":"울산광역시 북구 성골길 8-2","lat":35.57194406,"lng":129.451062,"totalSpaces":43,"isFree":true,"operatingDays":"평일+토요일+공휴일","weekdayOpen":"00:00","weekdayClose":"23:59","weekendOpen":"00:00","weekendClose":"23:59","holidayOpen":"00:00","holidayClose":"23:59","feeInfo":"무료","phone":"052-241-7966","updatedAt":"2025-07-29","sido":"울산광역시","sigungu":"북구","dong":"어물동"},{"name":"구암","type":"공영","category":"노외","address":"울산광역시 북구 어물동 272-1","lat":35.57232731,"lng":129.4520377,"totalSpaces":43,"isFree":true,"operatingDays":"평일+토요일+공휴일","weekdayOpen":"00:00","weekdayClose":"23:59","weekendOpen":"00:00","weekendClose":"23:59","holidayOpen":"00:00","holidayClose":"23:59","feeInfo":"무료","phone":"052-241-7963","updatedAt":"2025-12-01","sido":"울산광역시","sigungu":"북구","dong":"어물동"},{"name":"호계역3","type":"공영","category":"노외","address":"울산광역시 북구 호계로 239-12","lat":35.62526215,"lng":129.352691,"totalSpaces":42,"isFree":true,"operatingDays":"평일+토요일+공휴일","weekdayOpen":"00:00","weekdayClose":"23:59","weekendOpen":"00:00","weekendClose":"23:59","holidayOpen":"00:00","holidayClose":"23:59","feeInfo":"무료","phone":"052-241-7966","updatedAt":"2025-07-29","sido":"울산광역시","sigungu":"북구","dong":"호계동"},{"name":"호계역3","type":"공영","category":"노외","address":"울산광역시 북구 호계동 743-2","lat":35.62537824,"lng":129.352473,"totalSpaces":42,"isFree":true,"operatingDays":"평일+토요일+공휴일","weekdayOpen":"00:00","weekdayClose":"23:59","weekendOpen":"00:00","weekendClose":"23:59","holidayOpen":"00:00","holidayClose":"23:59","feeInfo":"무료","phone":"052-241-7963","updatedAt":"2025-12-01","sido":"울산광역시","sigungu":"북구","dong":"호계동"},{"name":"유휴부지 공영주차장","type":"공영","category":"노외","address":"울산광역시 북구 진장로 94","lat":35.5694597331,"lng":129.3571415,"totalSpaces":41,"isFree":true,"operatingDays":"평일+토요일+공휴일","weekdayOpen":"00:00","weekdayClose":"23:59","weekendOpen":"00:00","weekendClose":"23:59","holidayOpen":"00:00","holidayClose":"23:59","feeInfo":"무료","phone":"052-241-7982","updatedAt":"2025-07-29","sido":"울산광역시","sigungu":"북구","dong":"진장동"},{"name":"제2강동산하","type":"공영","category":"노외","address":"울산광역시 북구 판지1길 5 (구유동)","lat":35.61346487,"lng":129.4527765,"totalSpaces":41,"isFree":true,"operatingDays":"평일+토요일+공휴일","weekdayOpen":"00:00","weekdayClose":"23:59","weekendOpen":"00:00","weekendClose":"23:59","holidayOpen":"00:00","holidayClose":"23:59","feeInfo":"무료","phone":"052-241-7963","updatedAt":"2025-12-01","sido":"울산광역시","sigungu":"북구","dong":"구유동"},{"name":"중산산업단지2(2)","type":"공영","category":"노외","address":"울산광역시 북구 중산산업1길 9","lat":35.65612025,"lng":129.354183,"totalSpaces":40,"isFree":true,"operatingDays":"평일+토요일+공휴일","weekdayOpen":"00:00","weekdayClose":"23:59","weekendOpen":"00:00","weekendClose":"23:59","holidayOpen":"00:00","holidayClose":"23:59","feeInfo":"무료","phone":"052-241-7966","updatedAt":"2025-07-29","sido":"울산광역시","sigungu":"북구","dong":"중산동"},{"name":"중산산업단지2(3)","type":"공영","category":"노외","address":"울산광역시 북구 중산산업1길 9","lat":35.65612025,"lng":129.354183,"totalSpaces":40,"isFree":true,"operatingDays":"평일+토요일+공휴일","weekdayOpen":"00:00","weekdayClose":"23:59","weekendOpen":"00:00","weekendClose":"23:59","holidayOpen":"00:00","holidayClose":"23:59","feeInfo":"무료","phone":"052-241-7966","updatedAt":"2025-07-29","sido":"울산광역시","sigungu":"북구","dong":"중산동"},{"name":"중산산업단지2(2)","type":"공영","category":"노외","address":"울산광역시 북구 중산동 1266-4","lat":35.66127115,"lng":129.3522416,"totalSpaces":40,"isFree":true,"operatingDays":"평일+토요일+공휴일","weekdayOpen":"00:00","weekdayClose":"23:59","weekendOpen":"00:00","weekendClose":"23:59","holidayOpen":"00:00","holidayClose":"23:59","feeInfo":"무료","phone":"052-241-7963","updatedAt":"2025-12-01","sido":"울산광역시","sigungu":"북구","dong":"중산동"},{"name":"중산산업단지2(3)","type":"공영","category":"노외","address":"울산광역시 북구 중산동 1263-5","lat":35.6637812,"lng":129.3523832,"totalSpaces":40,"isFree":true,"operatingDays":"평일+토요일+공휴일","weekdayOpen":"00:00","weekdayClose":"23:59","weekendOpen":"00:00","weekendClose":"23:59","holidayOpen":"00:00","holidayClose":"23:59","feeInfo":"무료","phone":"052-241-7963","updatedAt":"2025-12-01","sido":"울산광역시","sigungu":"북구","dong":"중산동"},{"name":"21세기학원 뒤 노상","type":"공영","category":"노상","address":"울산광역시 북구 연암동 1092-4","lat":35.5877981,"lng":129.3704225,"totalSpaces":38,"isFree":true,"operatingDays":"평일+토요일+공휴일","weekdayOpen":"00:00","weekdayClose":"23:59","weekendOpen":"00:00","weekendClose":"23:59","holidayOpen":"00:00","holidayClose":"23:59","feeInfo":"무료","phone":"052-241-7966","updatedAt":"2025-07-29","sido":"울산광역시","sigungu":"북구","dong":"연암동"},{"name":"편백산림욕장1","type":"공영","category":"노외","address":"울산광역시 북구 달천동 산160-2","lat":35.63903144,"lng":129.304059,"totalSpaces":38,"isFree":true,"operatingDays":"평일+토요일+공휴일","weekdayOpen":"00:00","weekdayClose":"23:59","weekendOpen":"00:00","weekendClose":"23:59","holidayOpen":"00:00","holidayClose":"23:59","feeInfo":"무료","phone":"052-241-7966","updatedAt":"2025-07-29","sido":"울산광역시","sigungu":"북구","dong":"달천동"},{"name":"중산","type":"공영","category":"노외","address":"울산광역시 북구 중산로 3","lat":35.65344197,"lng":129.349411,"totalSpaces":38,"isFree":true,"operatingDays":"평일+토요일+공휴일","weekdayOpen":"00:00","weekdayClose":"23:59","weekendOpen":"00:00","weekendClose":"23:59","holidayOpen":"00:00","holidayClose":"23:59","feeInfo":"무료","phone":"052-241-7966","updatedAt":"2025-07-29","sido":"울산광역시","sigungu":"북구","dong":"중산동"},{"name":"21세기학원 뒤 노상","type":"공영","category":"노상","address":"울산광역시 북구 연암동 1092-4","lat":35.5877981,"lng":129.3704225,"totalSpaces":38,"isFree":true,"operatingDays":"평일+토요일+공휴일","weekdayOpen":"00:00","weekdayClose":"23:59","weekendOpen":"00:00","weekendClose":"23:59","holidayOpen":"00:00","holidayClose":"23:59","feeInfo":"무료","phone":"052-241-7963","updatedAt":"2025-12-01","sido":"울산광역시","sigungu":"북구","dong":"연암동"},{"name":"편백산림욕장1","type":"공영","category":"노외","address":"울산광역시 북구 약수8길 66-8 (중산동)","lat":35.6390314441,"lng":129.3040585786,"totalSpaces":38,"isFree":true,"operatingDays":"평일+토요일+공휴일","weekdayOpen":"00:00","weekdayClose":"23:59","weekendOpen":"00:00","weekendClose":"23:59","holidayOpen":"00:00","holidayClose":"23:59","feeInfo":"무료","phone":"052-241-7963","updatedAt":"2025-12-01","sido":"울산광역시","sigungu":"북구","dong":"달천동"},{"name":"중산","type":"공영","category":"노외","address":"울산광역시 북구 중산동 1283","lat":35.65350911,"lng":129.3503632,"totalSpaces":38,"isFree":true,"operatingDays":"평일+토요일+공휴일","weekdayOpen":"00:00","weekdayClose":"23:59","weekendOpen":"00:00","weekendClose":"23:59","holidayOpen":"00:00","holidayClose":"23:59","feeInfo":"무료","phone":"052-241-7963","updatedAt":"2025-12-01","sido":"울산광역시","sigungu":"북구","dong":"중산동"},{"name":"염포운동장 및 가재골공원","type":"공영","category":"노외","address":"울산광역시 북구 염포동 374-3","lat":35.53081191,"lng":129.396496,"totalSpaces":35,"isFree":true,"operatingDays":"평일+토요일+공휴일","weekdayOpen":"00:00","weekdayClose":"23:59","weekendOpen":"00:00","weekendClose":"23:59","holidayOpen":"00:00","holidayClose":"23:59","feeInfo":"무료","phone":"052-241-7966","updatedAt":"2025-07-29","sido":"울산광역시","sigungu":"북구","dong":"염포동"},{"name":"호계역2","type":"공영","category":"노외","address":"울산광역시 북구 호계로 251","lat":35.62566581,"lng":129.351963,"totalSpaces":35,"isFree":true,"operatingDays":"평일+토요일+공휴일","weekdayOpen":"00:00","weekdayClose":"23:59","weekendOpen":"00:00","weekendClose":"23:59","holidayOpen":"00:00","holidayClose":"23:59","feeInfo":"무료","phone":"052-241-7966","updatedAt":"2025-07-29","sido":"울산광역시","sigungu":"북구","dong":"호계동"},{"name":"달천농공단지1","type":"공영","category":"노외","address":"울산광역시 북구 농공단지1길 42","lat":35.63464095,"lng":129.3156303,"totalSpaces":35,"isFree":true,"operatingDays":"평일+토요일+공휴일","weekdayOpen":"00:00","weekdayClose":"23:59","weekendOpen":"00:00","weekendClose":"23:59","holidayOpen":"00:00","holidayClose":"23:59","feeInfo":"무료","phone":"052-241-7966","updatedAt":"2025-07-29","sido":"울산광역시","sigungu":"북구","dong":"달천동"},{"name":"달천농공단지1","type":"공영","category":"노외","address":"울산광역시 북구 달천동 212-8","lat":35.63432481,"lng":129.3157305,"totalSpaces":35,"isFree":true,"operatingDays":"평일+토요일+공휴일","weekdayOpen":"00:00","weekdayClose":"23:59","weekendOpen":"00:00","weekendClose":"23:59","holidayOpen":"00:00","holidayClose":"23:59","feeInfo":"무료","phone":"052-241-7963","updatedAt":"2025-12-01","sido":"울산광역시","sigungu":"북구","dong":"달천동"},{"name":"화정마을","type":"공영","category":"노외","address":"울산광역시 북구 중산동 742-2","lat":35.65725899,"lng":129.3414918,"totalSpaces":34,"isFree":true,"operatingDays":"평일+토요일+공휴일","weekdayOpen":"00:00","weekdayClose":"23:59","weekendOpen":"00:00","weekendClose":"23:59","holidayOpen":"00:00","holidayClose":"23:59","feeInfo":"무료","phone":"052-241-7966","updatedAt":"2025-07-29","sido":"울산광역시","sigungu":"북구","dong":"중산동"},{"name":"벽산아파트 이면","type":"공영","category":"노상","address":"울산광역시 북구 연암동 1097-5","lat":35.58518249,"lng":129.3656576,"totalSpaces":34,"isFree":true,"operatingDays":"평일+토요일+공휴일","weekdayOpen":"00:00","weekdayClose":"23:59","weekendOpen":"00:00","weekendClose":"23:59","holidayOpen":"00:00","holidayClose":"23:59","feeInfo":"무료","phone":"052-241-7966","updatedAt":"2025-07-29","sido":"울산광역시","sigungu":"북구","dong":"연암동"},{"name":"매곡3산업단지(2)","type":"공영","category":"노외","address":"울산광역시 북구 매곡산업6길 1","lat":35.63773917,"lng":129.367092,"totalSpaces":34,"isFree":true,"operatingDays":"평일+토요일+공휴일","weekdayOpen":"00:00","weekdayClose":"23:59","weekendOpen":"00:00","weekendClose":"23:59","holidayOpen":"00:00","holidayClose":"23:59","feeInfo":"무료","phone":"052-241-7966","updatedAt":"2025-07-29","sido":"울산광역시","sigungu":"북구","dong":"매곡동"},{"name":"벽산아파트 이면","type":"공영","category":"노상","address":"울산광역시 북구 연암동 1097-5","lat":35.58518249,"lng":129.3656576,"totalSpaces":34,"isFree":true,"operatingDays":"평일+토요일+공휴일","weekdayOpen":"00:00","weekdayClose":"23:59","weekendOpen":"00:00","weekendClose":"23:59","holidayOpen":"00:00","holidayClose":"23:59","feeInfo":"무료","phone":"052-241-7963","updatedAt":"2025-12-01","sido":"울산광역시","sigungu":"북구","dong":"연암동"},{"name":"매곡3산업단지(2)","type":"공영","category":"노외","address":"울산광역시 북구 매곡동 885-7","lat":35.63738466,"lng":129.3678954,"totalSpaces":34,"isFree":true,"operatingDays":"평일+토요일+공휴일","weekdayOpen":"00:00","weekdayClose":"23:59","weekendOpen":"00:00","weekendClose":"23:59","holidayOpen":"00:00","holidayClose":"23:59","feeInfo":"무료","phone":"052-241-7963","updatedAt":"2025-12-01","sido":"울산광역시","sigungu":"북구","dong":"매곡동"},{"name":"호계역2","type":"공영","category":"노외","address":"울산광역시 북구 호계동 775-6","lat":35.62502475,"lng":129.3518285,"totalSpaces":34,"isFree":true,"operatingDays":"평일+토요일+공휴일","weekdayOpen":"00:00","weekdayClose":"23:59","weekendOpen":"00:00","weekendClose":"23:59","holidayOpen":"00:00","holidayClose":"23:59","feeInfo":"무료","phone":"052-241-7963","updatedAt":"2025-12-01","sido":"울산광역시","sigungu":"북구","dong":"호계동"},{"name":"벽산반점 앞","type":"공영","category":"노상","address":"울산광역시 북구 연암동 1095-7","lat":35.58435738,"lng":129.3664238,"totalSpaces":33,"isFree":true,"operatingDays":"평일+토요일+공휴일","weekdayOpen":"00:00","weekdayClose":"23:59","weekendOpen":"00:00","weekendClose":"23:59","holidayOpen":"00:00","holidayClose":"23:59","feeInfo":"무료","phone":"052-241-7966","updatedAt":"2025-07-29","sido":"울산광역시","sigungu":"북구","dong":"연암동"},{"name":"벽산반점 앞","type":"공영","category":"노상","address":"울산광역시 북구 연암동 376-5","lat":35.58399511,"lng":129.3665707,"totalSpaces":33,"isFree":true,"operatingDays":"평일+토요일+공휴일","weekdayOpen":"00:00","weekdayClose":"23:59","weekendOpen":"00:00","weekendClose":"23:59","holidayOpen":"00:00","holidayClose":"23:59","feeInfo":"무료","phone":"052-241-7963","updatedAt":"2025-12-01","sido":"울산광역시","sigungu":"북구","dong":"연암동"},{"name":"유휴부지 공영주차장","type":"공영","category":"노외","address":"울산광역시 북구 양정동 486-1","lat":35.54886981,"lng":129.384984,"totalSpaces":30,"isFree":true,"operatingDays":"평일+토요일+공휴일","weekdayOpen":"00:00","weekdayClose":"23:59","weekendOpen":"00:00","weekendClose":"23:59","holidayOpen":"00:00","holidayClose":"23:59","feeInfo":"무료","phone":"052-241-7982","updatedAt":"2025-07-29","sido":"울산광역시","sigungu":"북구","dong":"양정동"},{"name":"중산산업단지1","type":"공영","category":"노외","address":"울산광역시 북구 중산산업로 80","lat":35.65453546,"lng":129.356078,"totalSpaces":30,"isFree":true,"operatingDays":"평일+토요일+공휴일","weekdayOpen":"00:00","weekdayClose":"23:59","weekendOpen":"00:00","weekendClose":"23:59","holidayOpen":"00:00","holidayClose":"23:59","feeInfo":"무료","phone":"052-241-7966","updatedAt":"2025-07-29","sido":"울산광역시","sigungu":"북구","dong":"중산동"},{"name":"중산산업단지2(1)","type":"공영","category":"노외","address":"울산광역시 북구 중산산업1길 9","lat":35.65612025,"lng":129.354183,"totalSpaces":30,"isFree":true,"operatingDays":"평일+토요일+공휴일","weekdayOpen":"00:00","weekdayClose":"23:59","weekendOpen":"00:00","weekendClose":"23:59","holidayOpen":"00:00","holidayClose":"23:59","feeInfo":"무료","phone":"052-241-7966","updatedAt":"2025-07-29","sido":"울산광역시","sigungu":"북구","dong":"중산동"},{"name":"중산산업단지1","type":"공영","category":"노외","address":"울산광역시 북구 중산동 1253-4","lat":35.65470756,"lng":129.3564611,"totalSpaces":30,"isFree":true,"operatingDays":"평일+토요일+공휴일","weekdayOpen":"00:00","weekdayClose":"23:59","weekendOpen":"00:00","weekendClose":"23:59","holidayOpen":"00:00","holidayClose":"23:59","feeInfo":"무료","phone":"052-241-7963","updatedAt":"2025-12-01","sido":"울산광역시","sigungu":"북구","dong":"중산동"},{"name":"중산산업단지2(1)","type":"공영","category":"노외","address":"울산광역시 북구 중산동 1270-3","lat":35.65603843,"lng":129.354882,"totalSpaces":30,"isFree":true,"operatingDays":"평일+토요일+공휴일","weekdayOpen":"00:00","weekdayClose":"23:59","weekendOpen":"00:00","weekendClose":"23:59","holidayOpen":"00:00","holidayClose":"23:59","feeInfo":"무료","phone":"052-241-7963","updatedAt":"2025-12-01","sido":"울산광역시","sigungu":"북구","dong":"중산동"},{"name":"유휴부지 공영주차장","type":"공영","category":"노외","address":"울산광역시 북구 산하동 999-8","lat":35.63186622,"lng":129.440025,"totalSpaces":29,"isFree":true,"operatingDays":"평일+토요일+공휴일","weekdayOpen":"00:00","weekdayClose":"23:59","weekendOpen":"00:00","weekendClose":"23:59","holidayOpen":"00:00","holidayClose":"23:59","feeInfo":"무료","phone":"052-241-7982","updatedAt":"2025-07-29","sido":"울산광역시","sigungu":"북구","dong":"산하동"},{"name":"강동산하(1)","type":"공영","category":"노외","address":"울산광역시 북구 동해안로 1603","lat":35.62757159,"lng":129.441058,"totalSpaces":28,"isFree":true,"operatingDays":"평일+토요일+공휴일","weekdayOpen":"00:00","weekdayClose":"23:59","weekendOpen":"00:00","weekendClose":"23:59","holidayOpen":"00:00","holidayClose":"23:59","feeInfo":"무료","phone":"052-241-7966","updatedAt":"2025-07-29","sido":"울산광역시","sigungu":"북구","dong":"산하동"},{"name":"강동산하(1)","type":"공영","category":"노외","address":"울산광역시 북구 산하동 514-4","lat":35.62652754,"lng":129.4421804,"totalSpaces":28,"isFree":true,"operatingDays":"평일+토요일+공휴일","weekdayOpen":"00:00","weekdayClose":"23:59","weekendOpen":"00:00","weekendClose":"23:59","holidayOpen":"00:00","holidayClose":"23:59","feeInfo":"무료","phone":"052-241-7963","updatedAt":"2025-12-01","sido":"울산광역시","sigungu":"북구","dong":"산하동"},{"name":"홍길동숯불갈비","type":"공영","category":"노상","address":"울산광역시 북구 연암동 1093-8","lat":35.58119679,"lng":129.3681077,"totalSpaces":27,"isFree":true,"operatingDays":"평일+토요일+공휴일","weekdayOpen":"00:00","weekdayClose":"23:59","weekendOpen":"00:00","weekendClose":"23:59","holidayOpen":"00:00","holidayClose":"23:59","feeInfo":"무료","phone":"052-241-7966","updatedAt":"2025-07-29","sido":"울산광역시","sigungu":"북구","dong":"연암동"},{"name":"매곡2산업단지","type":"공영","category":"노외","address":"울산광역시 북구 매곡산업3길 8","lat":35.64717157,"lng":129.363779,"totalSpaces":27,"isFree":true,"operatingDays":"평일+토요일+공휴일","weekdayOpen":"00:00","weekdayClose":"23:59","weekendOpen":"00:00","weekendClose":"23:59","holidayOpen":"00:00","holidayClose":"23:59","feeInfo":"무료","phone":"052-241-7966","updatedAt":"2025-07-29","sido":"울산광역시","sigungu":"북구","dong":"매곡동"},{"name":"홍길동숯불갈비","type":"공영","category":"노상","address":"울산광역시 북구 연암동 1093-8","lat":35.58119679,"lng":129.3681077,"totalSpaces":27,"isFree":true,"operatingDays":"평일+토요일+공휴일","weekdayOpen":"00:00","weekdayClose":"23:59","weekendOpen":"00:00","weekendClose":"23:59","holidayOpen":"00:00","holidayClose":"23:59","feeInfo":"무료","phone":"052-241-7963","updatedAt":"2025-12-01","sido":"울산광역시","sigungu":"북구","dong":"연암동"},{"name":"매곡2산업단지","type":"공영","category":"노외","address":"울산광역시 북구 매곡산업3길 8 (매곡동)","lat":35.64717157,"lng":129.3637787,"totalSpaces":27,"isFree":true,"operatingDays":"평일+토요일+공휴일","weekdayOpen":"00:00","weekdayClose":"23:59","weekendOpen":"00:00","weekendClose":"23:59","holidayOpen":"00:00","holidayClose":"23:59","feeInfo":"무료","phone":"052-241-7963","updatedAt":"2025-12-01","sido":"울산광역시","sigungu":"북구","dong":"매곡동"},{"name":"강동산음","type":"공영","category":"노외","address":"울산광역시 북구 산하동 965-2","lat":35.6241927,"lng":129.4435381,"totalSpaces":27,"isFree":true,"operatingDays":"평일+토요일+공휴일","weekdayOpen":"00:00","weekdayClose":"23:59","weekendOpen":"00:00","weekendClose":"23:59","holidayOpen":"00:00","holidayClose":"23:59","feeInfo":"무료","phone":"052-241-7963","updatedAt":"2025-12-01","sido":"울산광역시","sigungu":"북구","dong":"산하동"},{"name":"유휴부지 공영주차장","type":"공영","category":"노외","address":"울산광역시 북구 호계동 982-4","lat":35.63247485,"lng":129.358598,"totalSpaces":25,"isFree":true,"operatingDays":"평일+토요일+공휴일","weekdayOpen":"00:00","weekdayClose":"23:59","weekendOpen":"00:00","weekendClose":"23:59","holidayOpen":"00:00","holidayClose":"23:59","feeInfo":"무료","phone":"052-241-7982","updatedAt":"2025-07-29","sido":"울산광역시","sigungu":"북구","dong":"호계동"},{"name":"화봉","type":"공영","category":"노외","address":"울산광역시 북구 화봉동 450-1","lat":35.58853911,"lng":129.3678303,"totalSpaces":25,"isFree":true,"operatingDays":"평일+토요일+공휴일","weekdayOpen":"00:00","weekdayClose":"23:59","weekendOpen":"00:00","weekendClose":"23:59","holidayOpen":"00:00","holidayClose":"23:59","feeInfo":"무료","phone":"052-241-7963","updatedAt":"2025-12-01","sido":"울산광역시","sigungu":"북구","dong":"화봉동"},{"name":"신명","type":"공영","category":"노상","address":"울산광역시 북구 동해안로 1598 (산하동)","lat":35.62696282,"lng":129.4420146,"totalSpaces":24,"isFree":true,"operatingDays":"평일+토요일+공휴일","weekdayOpen":"00:00","weekdayClose":"23:59","weekendOpen":"00:00","weekendClose":"23:59","holidayOpen":"00:00","holidayClose":"23:59","feeInfo":"무료","phone":"052-241-7963","updatedAt":"2025-12-01","sido":"울산광역시","sigungu":"북구","dong":"산하동"},{"name":"유휴부지 공영주차장","type":"공영","category":"노외","address":"울산광역시 북구 신천동 811-1","lat":35.63641454,"lng":129.353457,"totalSpaces":24,"isFree":true,"operatingDays":"평일+토요일+공휴일","weekdayOpen":"00:00","weekdayClose":"23:59","weekendOpen":"00:00","weekendClose":"23:59","holidayOpen":"00:00","holidayClose":"23:59","feeInfo":"무료","phone":"052-241-7982","updatedAt":"2025-07-29","sido":"울산광역시","sigungu":"북구","dong":"신천동"},{"name":"신명","type":"공영","category":"노외","address":"울산광역시 북구 신명동 332-9","lat":35.63966297,"lng":129.4404854,"totalSpaces":24,"isFree":true,"operatingDays":"평일+토요일+공휴일","weekdayOpen":"00:00","weekdayClose":"23:59","weekendOpen":"00:00","weekendClose":"23:59","holidayOpen":"00:00","holidayClose":"23:59","feeInfo":"무료","phone":"052-241-7966","updatedAt":"2025-07-29","sido":"울산광역시","sigungu":"북구","dong":"신명동"},{"name":"유휴부지 공영주차장","type":"공영","category":"노외","address":"울산광역시 북구 중산동 1104-1","lat":35.64981299,"lng":129.34136,"totalSpaces":24,"isFree":true,"operatingDays":"평일+토요일+공휴일","weekdayOpen":"00:00","weekdayClose":"23:59","weekendOpen":"00:00","weekendClose":"23:59","holidayOpen":"00:00","holidayClose":"23:59","feeInfo":"무료","phone":"052-241-7982","updatedAt":"2025-07-29","sido":"울산광역시","sigungu":"북구","dong":"중산동"},{"name":"약수","type":"공영","category":"노외","address":"울산광역시 북구 약수8길 66-14 (중산동)","lat":35.6498129885,"lng":129.341359973,"totalSpaces":24,"isFree":true,"operatingDays":"평일+토요일+공휴일","weekdayOpen":"00:00","weekdayClose":"23:59","weekendOpen":"00:00","weekendClose":"23:59","holidayOpen":"00:00","holidayClose":"23:59","feeInfo":"무료","phone":"052-241-7963","updatedAt":"2025-12-01","sido":"울산광역시","sigungu":"북구","dong":"중산동"},{"name":"성원아파트 이면","type":"공영","category":"노상","address":"울산광역시 북구 연암동 1097-2","lat":35.58645869,"lng":129.3655541,"totalSpaces":23,"isFree":true,"operatingDays":"평일+토요일+공휴일","weekdayOpen":"00:00","weekdayClose":"23:59","weekendOpen":"00:00","weekendClose":"23:59","holidayOpen":"00:00","holidayClose":"23:59","feeInfo":"무료","phone":"052-241-7963","updatedAt":"2025-12-01","sido":"울산광역시","sigungu":"북구","dong":"연암동"},{"name":"현대자동차사택","type":"공영","category":"노외","address":"울산광역시 북구 양정동 772-1","lat":35.54185362,"lng":129.3922318,"totalSpaces":23,"isFree":true,"operatingDays":"평일+토요일+공휴일","weekdayOpen":"00:00","weekdayClose":"23:59","weekendOpen":"00:00","weekendClose":"23:59","holidayOpen":"00:00","holidayClose":"23:59","feeInfo":"무료","phone":"052-241-7963","updatedAt":"2025-12-01","sido":"울산광역시","sigungu":"북구","dong":"양정동"},{"name":"약수초등학교","type":"공영","category":"노외","address":"울산광역시 북구 중산동 1178-37","lat":35.64796826,"lng":129.3419638202,"totalSpaces":22,"isFree":true,"operatingDays":"평일+토요일+공휴일","weekdayOpen":"00:00","weekdayClose":"23:59","weekendOpen":"00:00","weekendClose":"23:59","holidayOpen":"00:00","holidayClose":"23:59","feeInfo":"무료","phone":"052-241-7963","updatedAt":"2025-12-01","sido":"울산광역시","sigungu":"북구","dong":"중산동"},{"name":"일취월장학원 노상","type":"공영","category":"노상","address":"울산광역시 북구 화봉동 957-5","lat":35.59100542,"lng":129.3603362,"totalSpaces":21,"isFree":true,"operatingDays":"평일+토요일+공휴일","weekdayOpen":"00:00","weekdayClose":"23:59","weekendOpen":"00:00","weekendClose":"23:59","holidayOpen":"00:00","holidayClose":"23:59","feeInfo":"무료","phone":"052-241-7966","updatedAt":"2025-07-29","sido":"울산광역시","sigungu":"북구","dong":"화봉동"},{"name":"농소3동주민센터","type":"공영","category":"노상","address":"울산광역시 북구 상안동 381-11","lat":35.62902993,"lng":129.3380066,"totalSpaces":21,"isFree":true,"operatingDays":"평일+토요일+공휴일","weekdayOpen":"00:00","weekdayClose":"23:59","weekendOpen":"00:00","weekendClose":"23:59","holidayOpen":"00:00","holidayClose":"23:59","feeInfo":"무료","phone":"052-241-7966","updatedAt":"2025-07-29","sido":"울산광역시","sigungu":"북구","dong":"상안동"},{"name":"일취월장학원 노상","type":"공영","category":"노상","address":"울산광역시 북구 화봉동 957-5","lat":35.59100542,"lng":129.3603362,"totalSpaces":21,"isFree":true,"operatingDays":"평일+토요일+공휴일","weekdayOpen":"00:00","weekdayClose":"23:59","weekendOpen":"00:00","weekendClose":"23:59","holidayOpen":"00:00","holidayClose":"23:59","feeInfo":"무료","phone":"052-241-7963","updatedAt":"2025-12-01","sido":"울산광역시","sigungu":"북구","dong":"화봉동"},{"name":"농소3동주민센터","type":"공영","category":"노상","address":"울산광역시 북구 상안동 381-11","lat":35.62902993,"lng":129.3380066,"totalSpaces":21,"isFree":true,"operatingDays":"평일+토요일+공휴일","weekdayOpen":"00:00","weekdayClose":"23:59","weekendOpen":"00:00","weekendClose":"23:59","holidayOpen":"00:00","holidayClose":"23:59","feeInfo":"무료","phone":"052-241-7963","updatedAt":"2025-12-01","sido":"울산광역시","sigungu":"북구","dong":"상안동"},{"name":"유휴부지 공영주차장","type":"공영","category":"노외","address":"울산광역시 북구 중산동 1166-70","lat":35.66162278,"lng":129.3423574,"totalSpaces":20,"isFree":true,"operatingDays":"평일+토요일+공휴일","weekdayOpen":"00:00","weekdayClose":"23:59","weekendOpen":"00:00","weekendClose":"23:59","holidayOpen":"00:00","holidayClose":"23:59","feeInfo":"무료","phone":"052-241-7982","updatedAt":"2025-07-29","sido":"울산광역시","sigungu":"북구","dong":"중산동"},{"name":"천곡동공영","type":"공영","category":"노외","address":"울산광역시 북구 천곡길 138","lat":35.63966105,"lng":129.329475,"totalSpaces":20,"isFree":true,"operatingDays":"평일+토요일+공휴일","weekdayOpen":"00:00","weekdayClose":"23:59","weekendOpen":"00:00","weekendClose":"23:59","holidayOpen":"00:00","holidayClose":"23:59","feeInfo":"무료","phone":"052-241-7966","updatedAt":"2025-07-29","sido":"울산광역시","sigungu":"북구","dong":"천곡동"},{"name":"천곡초교","type":"공영","category":"노외","address":"울산광역시 북구 천곡길 138","lat":35.63966105,"lng":129.329475,"totalSpaces":20,"isFree":true,"operatingDays":"평일+토요일+공휴일","weekdayOpen":"00:00","weekdayClose":"23:59","weekendOpen":"00:00","weekendClose":"23:59","holidayOpen":"00:00","holidayClose":"23:59","feeInfo":"무료","phone":"052-241-7966","updatedAt":"2025-07-29","sido":"울산광역시","sigungu":"북구","dong":"천곡동"},{"name":"동울산세무소 이면","type":"공영","category":"노상","address":"울산광역시 북구 화봉동 957-10","lat":35.58705916,"lng":129.3600945,"totalSpaces":20,"isFree":true,"operatingDays":"평일+토요일+공휴일","weekdayOpen":"00:00","weekdayClose":"23:59","weekendOpen":"00:00","weekendClose":"23:59","holidayOpen":"00:00","holidayClose":"23:59","feeInfo":"무료","phone":"052-241-7963","updatedAt":"2025-12-01","sido":"울산광역시","sigungu":"북구","dong":"화봉동"},{"name":"천곡동공영","type":"공영","category":"노외","address":"울산광역시 북구 천곡동 551-2","lat":35.63942569,"lng":129.3291463,"totalSpaces":20,"isFree":true,"operatingDays":"평일+토요일+공휴일","weekdayOpen":"00:00","weekdayClose":"23:59","weekendOpen":"00:00","weekendClose":"23:59","holidayOpen":"00:00","holidayClose":"23:59","feeInfo":"무료","phone":"052-241-7963","updatedAt":"2025-12-01","sido":"울산광역시","sigungu":"북구","dong":"천곡동"},{"name":"천곡초교","type":"공영","category":"노외","address":"울산광역시 북구 천곡동 553-2","lat":35.63911046,"lng":129.3302993,"totalSpaces":20,"isFree":true,"operatingDays":"평일+토요일+공휴일","weekdayOpen":"00:00","weekdayClose":"23:59","weekendOpen":"00:00","weekendClose":"23:59","holidayOpen":"00:00","holidayClose":"23:59","feeInfo":"무료","phone":"052-241-7963","updatedAt":"2025-12-01","sido":"울산광역시","sigungu":"북구","dong":"천곡동"},{"name":"화암2","type":"공영","category":"노외","address":"울산광역시 북구 산하동 957-4","lat":35.63520671,"lng":129.4428616,"totalSpaces":20,"isFree":true,"operatingDays":"평일+토요일+공휴일","weekdayOpen":"00:00","weekdayClose":"23:59","weekendOpen":"00:00","weekendClose":"23:59","holidayOpen":"00:00","holidayClose":"23:59","feeInfo":"무료","phone":"052-241-7963","updatedAt":"2025-12-01","sido":"울산광역시","sigungu":"북구","dong":"산하동"},{"name":"상원아파트 이면","type":"공영","category":"노상","address":"울산광역시 북구 연암동 1097-2","lat":35.58645869,"lng":129.3655541,"totalSpaces":19,"isFree":true,"operatingDays":"평일+토요일+공휴일","weekdayOpen":"00:00","weekdayClose":"23:59","weekendOpen":"00:00","weekendClose":"23:59","holidayOpen":"00:00","holidayClose":"23:59","feeInfo":"무료","phone":"052-241-7966","updatedAt":"2025-07-29","sido":"울산광역시","sigungu":"북구","dong":"연암동"},{"name":"동울산세무소 이면","type":"공영","category":"노상","address":"울산광역시 북구 화봉동 957-10","lat":35.58705916,"lng":129.3600945,"totalSpaces":19,"isFree":true,"operatingDays":"평일+토요일+공휴일","weekdayOpen":"00:00","weekdayClose":"23:59","weekendOpen":"00:00","weekendClose":"23:59","holidayOpen":"00:00","holidayClose":"23:59","feeInfo":"무료","phone":"052-241-7966","updatedAt":"2025-07-29","sido":"울산광역시","sigungu":"북구","dong":"화봉동"},{"name":"호계동 719-3","type":"공영","category":"노외","address":"울산광역시 북구 호계11길 10-1","lat":35.62600937,"lng":129.356144,"totalSpaces":16,"isFree":true,"operatingDays":"평일+토요일+공휴일","weekdayOpen":"00:00","weekdayClose":"23:59","weekendOpen":"00:00","weekendClose":"23:59","holidayOpen":"00:00","holidayClose":"23:59","feeInfo":"무료","phone":"052-241-7966","updatedAt":"2025-07-29","sido":"울산광역시","sigungu":"북구","dong":"호계동"},{"name":"호계시장 내","type":"공영","category":"노외","address":"울산광역시 북구 호계3길 17-11","lat":35.62361611,"lng":129.355744,"totalSpaces":16,"isFree":true,"operatingDays":"평일+토요일+공휴일","weekdayOpen":"00:00","weekdayClose":"23:59","weekendOpen":"00:00","weekendClose":"23:59","holidayOpen":"00:00","holidayClose":"23:59","feeInfo":"무료","phone":"052-241-7966","updatedAt":"2025-07-29","sido":"울산광역시","sigungu":"북구","dong":"호계동"},{"name":"매곡3산업단지(3)","type":"공영","category":"노외","address":"울산광역시 북구 매곡산업6길 1","lat":35.63773917,"lng":129.367092,"totalSpaces":16,"isFree":true,"operatingDays":"평일+토요일+공휴일","weekdayOpen":"00:00","weekdayClose":"23:59","weekendOpen":"00:00","weekendClose":"23:59","holidayOpen":"00:00","holidayClose":"23:59","feeInfo":"무료","phone":"052-241-7966","updatedAt":"2025-07-29","sido":"울산광역시","sigungu":"북구","dong":"매곡동"},{"name":"매곡3산업단지(3)","type":"공영","category":"노외","address":"울산광역시 북구 매곡동 887-4","lat":35.64185391,"lng":129.3686417,"totalSpaces":16,"isFree":true,"operatingDays":"평일+토요일+공휴일","weekdayOpen":"00:00","weekdayClose":"23:59","weekendOpen":"00:00","weekendClose":"23:59","holidayOpen":"00:00","holidayClose":"23:59","feeInfo":"무료","phone":"052-241-7963","updatedAt":"2025-12-01","sido":"울산광역시","sigungu":"북구","dong":"매곡동"},{"name":"호계동 719-3","type":"공영","category":"노외","address":"울산광역시 북구 호계동 719-3","lat":35.62606205,"lng":129.3557914,"totalSpaces":16,"isFree":true,"operatingDays":"평일+토요일+공휴일","weekdayOpen":"00:00","weekdayClose":"23:59","weekendOpen":"00:00","weekendClose":"23:59","holidayOpen":"00:00","holidayClose":"23:59","feeInfo":"무료","phone":"052-241-7963","updatedAt":"2025-12-01","sido":"울산광역시","sigungu":"북구","dong":"호계동"},{"name":"호계시장","type":"공영","category":"노외","address":"울산광역시 북구 호계동 869-1","lat":35.62361611,"lng":129.355738,"totalSpaces":16,"isFree":true,"operatingDays":"평일+토요일+공휴일","weekdayOpen":"00:00","weekdayClose":"23:59","weekendOpen":"00:00","weekendClose":"23:59","holidayOpen":"00:00","holidayClose":"23:59","feeInfo":"무료","phone":"052-241-7963","updatedAt":"2025-12-01","sido":"울산광역시","sigungu":"북구","dong":"호계동"},{"name":"효죽이면","type":"공영","category":"노상","address":"울산광역시 북구 효문동 958-16","lat":35.56606998,"lng":129.3750574,"totalSpaces":15,"isFree":true,"operatingDays":"평일+토요일+공휴일","weekdayOpen":"00:00","weekdayClose":"23:59","weekendOpen":"00:00","weekendClose":"23:59","holidayOpen":"00:00","holidayClose":"23:59","feeInfo":"무료","phone":"052-241-7963","updatedAt":"2025-12-01","sido":"울산광역시","sigungu":"북구","dong":"효문동"},{"name":"유휴부지 공영주차장","type":"공영","category":"노외","address":"울산광역시 북구 호계로 240-1","lat":35.62538235,"lng":129.3534197,"totalSpaces":15,"isFree":true,"operatingDays":"평일+토요일+공휴일","weekdayOpen":"00:00","weekdayClose":"23:59","weekendOpen":"00:00","weekendClose":"23:59","holidayOpen":"00:00","holidayClose":"23:59","feeInfo":"무료","phone":"052-241-7982","updatedAt":"2025-07-29","sido":"울산광역시","sigungu":"북구","dong":"호계동"},{"name":"효성학원 뒤","type":"공영","category":"노상","address":"울산광역시 북구 연암동 1095-6","lat":35.58431283,"lng":129.3691258,"totalSpaces":15,"isFree":true,"operatingDays":"평일+토요일+공휴일","weekdayOpen":"00:00","weekdayClose":"23:59","weekendOpen":"00:00","weekendClose":"23:59","holidayOpen":"00:00","holidayClose":"23:59","feeInfo":"무료","phone":"052-241-7966","updatedAt":"2025-07-29","sido":"울산광역시","sigungu":"북구","dong":"연암동"},{"name":"화봉토속정 노상","type":"공영","category":"노상","address":"울산광역시 북구 화봉동 957-11","lat":35.58732473,"lng":129.3614666,"totalSpaces":15,"isFree":true,"operatingDays":"평일+토요일+공휴일","weekdayOpen":"00:00","weekdayClose":"23:59","weekendOpen":"00:00","weekendClose":"23:59","holidayOpen":"00:00","holidayClose":"23:59","feeInfo":"무료","phone":"052-241-7966","updatedAt":"2025-07-29","sido":"울산광역시","sigungu":"북구","dong":"화봉동"},{"name":"제2강동산하","type":"공영","category":"노외","address":"울산광역시 북구 동해안로 1631","lat":35.62984077,"lng":129.440442,"totalSpaces":15,"isFree":true,"operatingDays":"평일+토요일+공휴일","weekdayOpen":"00:00","weekdayClose":"23:59","weekendOpen":"00:00","weekendClose":"23:59","holidayOpen":"00:00","holidayClose":"23:59","feeInfo":"무료","phone":"052-241-7966","updatedAt":"2025-07-29","sido":"울산광역시","sigungu":"북구","dong":"산하동"},{"name":"효죽이면","type":"공영","category":"노상","address":"울산광역시 북구 효문동 958-16","lat":35.56606998,"lng":129.3750574,"totalSpaces":15,"isFree":true,"operatingDays":"평일+토요일+공휴일","weekdayOpen":"00:00","weekdayClose":"23:59","weekendOpen":"00:00","weekendClose":"23:59","holidayOpen":"00:00","holidayClose":"23:59","feeInfo":"무료","phone":"052-241-7966","updatedAt":"2025-07-29","sido":"울산광역시","sigungu":"북구","dong":"효문동"},{"name":"유휴부지 공영주차장","type":"공영","category":"노외","address":"울산광역시 북구 제내1길 7-2","lat":35.63174059,"lng":129.3519702,"totalSpaces":15,"isFree":true,"operatingDays":"평일+토요일+공휴일","weekdayOpen":"00:00","weekdayClose":"23:59","weekendOpen":"00:00","weekendClose":"23:59","holidayOpen":"00:00","holidayClose":"23:59","feeInfo":"무료","phone":"052-241-7982","updatedAt":"2025-07-29","sido":"울산광역시","sigungu":"북구","dong":"신천동"},{"name":"효성학원 뒤","type":"공영","category":"노상","address":"울산광역시 북구 두부곡2길 4-9 (연암동)","lat":35.58399511,"lng":129.3665707,"totalSpaces":15,"isFree":true,"operatingDays":"평일+토요일+공휴일","weekdayOpen":"00:00","weekdayClose":"23:59","weekendOpen":"00:00","weekendClose":"23:59","holidayOpen":"00:00","holidayClose":"23:59","feeInfo":"무료","phone":"052-241-7963","updatedAt":"2025-12-01","sido":"울산광역시","sigungu":"북구","dong":"연암동"},{"name":"화봉토속정 노상","type":"공영","category":"노상","address":"울산광역시 북구 화봉동 957-11","lat":35.58732473,"lng":129.3614666,"totalSpaces":15,"isFree":true,"operatingDays":"평일+토요일+공휴일","weekdayOpen":"00:00","weekdayClose":"23:59","weekendOpen":"00:00","weekendClose":"23:59","holidayOpen":"00:00","holidayClose":"23:59","feeInfo":"무료","phone":"052-241-7963","updatedAt":"2025-12-01","sido":"울산광역시","sigungu":"북구","dong":"화봉동"},{"name":"신천동 331","type":"공영","category":"노외","address":"울산광역시 북구 신천동 331","lat":35.63192961,"lng":129.3521425,"totalSpaces":15,"isFree":true,"operatingDays":"평일+토요일+공휴일","weekdayOpen":"00:00","weekdayClose":"23:59","weekendOpen":"00:00","weekendClose":"23:59","holidayOpen":"00:00","holidayClose":"23:59","feeInfo":"무료","phone":"052-241-7963","updatedAt":"2025-12-01","sido":"울산광역시","sigungu":"북구","dong":"신천동"},{"name":"유휴부지 공영주차장","type":"공영","category":"노외","address":"울산광역시 북구 신천동 820-6","lat":35.63454753,"lng":129.355744,"totalSpaces":14,"isFree":true,"operatingDays":"평일+토요일+공휴일","weekdayOpen":"00:00","weekdayClose":"23:59","weekendOpen":"00:00","weekendClose":"23:59","holidayOpen":"00:00","holidayClose":"23:59","feeInfo":"무료","phone":"052-241-7982","updatedAt":"2025-07-29","sido":"울산광역시","sigungu":"북구","dong":"신천동"},{"name":"창평어울마당","type":"공영","category":"노외","address":"울산광역시 북구 창평동 1232-96","lat":35.60671968,"lng":129.3561829,"totalSpaces":14,"isFree":true,"operatingDays":"평일+토요일+공휴일","weekdayOpen":"00:00","weekdayClose":"23:59","weekendOpen":"00:00","weekendClose":"23:59","holidayOpen":"00:00","holidayClose":"23:59","feeInfo":"무료","phone":"052-241-7966","updatedAt":"2025-07-29","sido":"울산광역시","sigungu":"북구","dong":"창평동"},{"name":"유휴부지 공영주차장","type":"공영","category":"노외","address":"울산광역시 북구 산하중앙1로 24","lat":35.62666082,"lng":129.440457,"totalSpaces":14,"isFree":true,"operatingDays":"평일+토요일+공휴일","weekdayOpen":"00:00","weekdayClose":"23:59","weekendOpen":"00:00","weekendClose":"23:59","holidayOpen":"00:00","holidayClose":"23:59","feeInfo":"무료","phone":"052-241-7982","updatedAt":"2025-07-29","sido":"울산광역시","sigungu":"북구","dong":"산하동"},{"name":"매곡푸르지오","type":"공영","category":"노외","address":"울산광역시 북구 신천로 92","lat":35.64599364,"lng":129.353575,"totalSpaces":14,"isFree":true,"operatingDays":"평일+토요일+공휴일","weekdayOpen":"00:00","weekdayClose":"23:59","weekendOpen":"00:00","weekendClose":"23:59","holidayOpen":"00:00","holidayClose":"23:59","feeInfo":"무료","phone":"052-241-7966","updatedAt":"2025-07-29","sido":"울산광역시","sigungu":"북구","dong":"매곡동"},{"name":"매곡푸르지오","type":"공영","category":"노외","address":"울산광역시 북구 매곡동 844","lat":35.64583876,"lng":129.354012,"totalSpaces":14,"isFree":true,"operatingDays":"평일+토요일+공휴일","weekdayOpen":"00:00","weekdayClose":"23:59","weekendOpen":"00:00","weekendClose":"23:59","holidayOpen":"00:00","holidayClose":"23:59","feeInfo":"무료","phone":"052-241-7963","updatedAt":"2025-12-01","sido":"울산광역시","sigungu":"북구","dong":"매곡동"},{"name":"유휴부지 공영주차장","type":"공영","category":"노외","address":"울산광역시 북구 호계동 285-11","lat":35.62853705,"lng":129.356446,"totalSpaces":11,"isFree":true,"operatingDays":"평일+토요일+공휴일","weekdayOpen":"00:00","weekdayClose":"23:59","weekendOpen":"00:00","weekendClose":"23:59","holidayOpen":"00:00","holidayClose":"23:59","feeInfo":"무료","phone":"052-241-7982","updatedAt":"2025-07-29","sido":"울산광역시","sigungu":"북구","dong":"호계동"},{"name":"유휴부지 공영주차장","type":"공영","category":"노외","address":"울산광역시 북구 호계2길 54-7","lat":35.62569698,"lng":129.360385,"totalSpaces":11,"isFree":true,"operatingDays":"평일+토요일+공휴일","weekdayOpen":"00:00","weekdayClose":"23:59","weekendOpen":"00:00","weekendClose":"23:59","holidayOpen":"00:00","holidayClose":"23:59","feeInfo":"무료","phone":"052-241-7982","updatedAt":"2025-07-29","sido":"울산광역시","sigungu":"북구","dong":"호계동"},{"name":"유휴부지 공영주차장","type":"공영","category":"노외","address":"울산광역시 북구 정자7길 12","lat":35.61573405,"lng":129.449025,"totalSpaces":11,"isFree":true,"operatingDays":"평일+토요일+공휴일","weekdayOpen":"00:00","weekdayClose":"23:59","weekendOpen":"00:00","weekendClose":"23:59","holidayOpen":"00:00","holidayClose":"23:59","feeInfo":"무료","phone":"052-241-7982","updatedAt":"2025-07-29","sido":"울산광역시","sigungu":"북구","dong":"정자동"},{"name":"호계동 589-1","type":"공영","category":"노외","address":"울산광역시 북구 호계동 589-1","lat":35.62560771,"lng":129.3600036,"totalSpaces":11,"isFree":true,"operatingDays":"평일+토요일+공휴일","weekdayOpen":"00:00","weekdayClose":"23:59","weekendOpen":"00:00","weekendClose":"23:59","holidayOpen":"00:00","holidayClose":"23:59","feeInfo":"무료","phone":"052-241-7963","updatedAt":"2025-12-01","sido":"울산광역시","sigungu":"북구","dong":"호계동"},{"name":"유휴부지 공영주차장","type":"공영","category":"노외","address":"울산광역시 북구 진장동 784-2","lat":35.558992632,"lng":129.3546854,"totalSpaces":10,"isFree":true,"operatingDays":"평일+토요일+공휴일","weekdayOpen":"00:00","weekdayClose":"23:59","weekendOpen":"00:00","weekendClose":"23:59","holidayOpen":"00:00","holidayClose":"23:59","feeInfo":"무료","phone":"052-241-7982","updatedAt":"2025-07-29","sido":"울산광역시","sigungu":"북구","dong":"진장동"},{"name":"유휴부지 공영주차장","type":"공영","category":"노외","address":"울산광역시 북구 동대로 35","lat":35.62782438,"lng":129.3559708,"totalSpaces":10,"isFree":true,"operatingDays":"평일+토요일+공휴일","weekdayOpen":"00:00","weekdayClose":"23:59","weekendOpen":"00:00","weekendClose":"23:59","holidayOpen":"00:00","holidayClose":"23:59","feeInfo":"무료","phone":"052-241-7982","updatedAt":"2025-07-29","sido":"울산광역시","sigungu":"북구","dong":"호계동"},{"name":"유휴부지 공영주차장","type":"공영","category":"노외","address":"울산광역시 북구 동대19길 5","lat":35.63008765,"lng":129.353413,"totalSpaces":10,"isFree":true,"operatingDays":"평일+토요일+공휴일","weekdayOpen":"00:00","weekdayClose":"23:59","weekendOpen":"00:00","weekendClose":"23:59","holidayOpen":"00:00","holidayClose":"23:59","feeInfo":"무료","phone":"052-241-7982","updatedAt":"2025-07-29","sido":"울산광역시","sigungu":"북구","dong":"호계동"},{"name":"호계동대중앙로 포켓주차장","type":"공영","category":"노상","address":"울산광역시 북구 호계동 307","lat":35.6296778,"lng":129.3546637,"totalSpaces":10,"isFree":true,"operatingDays":"평일+토요일+공휴일","weekdayOpen":"00:00","weekdayClose":"23:59","weekendOpen":"00:00","weekendClose":"23:59","holidayOpen":"00:00","holidayClose":"23:59","feeInfo":"무료","phone":"052-241-7966","updatedAt":"2025-07-29","sido":"울산광역시","sigungu":"북구","dong":"호계동"},{"name":"금천부설","type":"공영","category":"노외","address":"울산광역시 북구 아름1길 6","lat":35.5805256,"lng":129.452113,"totalSpaces":9,"isFree":true,"operatingDays":"평일+토요일+공휴일","weekdayOpen":"00:00","weekdayClose":"23:59","weekendOpen":"00:00","weekendClose":"23:59","holidayOpen":"00:00","holidayClose":"23:59","feeInfo":"무료","phone":"052-241-7966","updatedAt":"2025-07-29","sido":"울산광역시","sigungu":"북구","dong":"당사동"},{"name":"금천부설","type":"공영","category":"노외","address":"울산광역시 북구 당사동 527-8","lat":35.58024039,"lng":129.4526783,"totalSpaces":9,"isFree":true,"operatingDays":"평일+토요일+공휴일","weekdayOpen":"00:00","weekdayClose":"23:59","weekendOpen":"00:00","weekendClose":"23:59","holidayOpen":"00:00","holidayClose":"23:59","feeInfo":"무료","phone":"052-241-7963","updatedAt":"2025-12-01","sido":"울산광역시","sigungu":"북구","dong":"당사동"},{"name":"연암","type":"공영","category":"노외","address":"울산광역시 북구 상방2길 39","lat":35.58356399,"lng":129.3692001,"totalSpaces":8,"isFree":true,"operatingDays":"평일+토요일+공휴일","weekdayOpen":"00:00","weekdayClose":"23:59","weekendOpen":"00:00","weekendClose":"23:59","holidayOpen":"00:00","holidayClose":"23:59","feeInfo":"무료","phone":"052-241-7966","updatedAt":"2025-07-29","sido":"울산광역시","sigungu":"북구","dong":"연암동"},{"name":"유휴부지 공영주차장","type":"공영","category":"노외","address":"울산광역시 북구 화동14길 7","lat":35.59084312,"lng":129.369208,"totalSpaces":8,"isFree":true,"operatingDays":"평일+토요일+공휴일","weekdayOpen":"00:00","weekdayClose":"23:59","weekendOpen":"00:00","weekendClose":"23:59","holidayOpen":"00:00","holidayClose":"23:59","feeInfo":"무료","phone":"052-241-7982","updatedAt":"2025-07-29","sido":"울산광역시","sigungu":"북구","dong":"화봉동"},{"name":"제3강동산하","type":"공영","category":"노외","address":"울산광역시 북구 동해안로 1598","lat":35.62696281,"lng":129.442015,"totalSpaces":8,"isFree":true,"operatingDays":"평일+토요일+공휴일","weekdayOpen":"00:00","weekdayClose":"23:59","weekendOpen":"00:00","weekendClose":"23:59","holidayOpen":"00:00","holidayClose":"23:59","feeInfo":"무료","phone":"052-241-7966","updatedAt":"2025-07-29","sido":"울산광역시","sigungu":"북구","dong":"산하동"},{"name":"호계동 375","type":"공영","category":"노외","address":"울산광역시 북구 호계9길 52-2","lat":35.62732769,"lng":129.357668,"totalSpaces":8,"isFree":true,"operatingDays":"평일+토요일+공휴일","weekdayOpen":"00:00","weekdayClose":"23:59","weekendOpen":"00:00","weekendClose":"23:59","holidayOpen":"00:00","holidayClose":"23:59","feeInfo":"무료","phone":"052-241-7966","updatedAt":"2025-07-29","sido":"울산광역시","sigungu":"북구","dong":"호계동"},{"name":"호계동 375","type":"공영","category":"노외","address":"울산광역시 북구 호계동 375","lat":35.62732769,"lng":129.3576671,"totalSpaces":8,"isFree":true,"operatingDays":"평일+토요일+공휴일","weekdayOpen":"00:00","weekdayClose":"23:59","weekendOpen":"00:00","weekendClose":"23:59","holidayOpen":"00:00","holidayClose":"23:59","feeInfo":"무료","phone":"052-241-7963","updatedAt":"2025-12-01","sido":"울산광역시","sigungu":"북구","dong":"호계동"},{"name":"연암","type":"공영","category":"노외","address":"울산광역시 북구 연암동 322-2","lat":35.5837709,"lng":129.3688337,"totalSpaces":8,"isFree":true,"operatingDays":"평일+토요일+공휴일","weekdayOpen":"00:00","weekdayClose":"23:59","weekendOpen":"00:00","weekendClose":"23:59","holidayOpen":"00:00","holidayClose":"23:59","feeInfo":"무료","phone":"052-241-7963","updatedAt":"2025-12-01","sido":"울산광역시","sigungu":"북구","dong":"연암동"},{"name":"화봉동 1460-4","type":"공영","category":"노외","address":"울산광역시 북구 화봉동 1460-4","lat":35.59084605,"lng":129.3693851,"totalSpaces":8,"isFree":true,"operatingDays":"평일+토요일+공휴일","weekdayOpen":"00:00","weekdayClose":"23:59","weekendOpen":"00:00","weekendClose":"23:59","holidayOpen":"00:00","holidayClose":"23:59","feeInfo":"무료","phone":"052-241-7963","updatedAt":"2025-12-01","sido":"울산광역시","sigungu":"북구","dong":"화봉동"},{"name":"강동산음","type":"공영","category":"노외","address":"울산광역시 북구 동해안로 1568","lat":35.62457592,"lng":129.443218,"totalSpaces":7,"isFree":true,"operatingDays":"평일+토요일+공휴일","weekdayOpen":"00:00","weekdayClose":"23:59","weekendOpen":"00:00","weekendClose":"23:59","holidayOpen":"00:00","holidayClose":"23:59","feeInfo":"무료","phone":"052-241-7966","updatedAt":"2025-07-29","sido":"울산광역시","sigungu":"북구","dong":"산하동"},{"name":"유휴부지 공영주차장","type":"공영","category":"노외","address":"울산광역시 북구 화봉동 446-17","lat":35.58975602,"lng":129.365381,"totalSpaces":6,"isFree":true,"operatingDays":"평일+토요일+공휴일","weekdayOpen":"00:00","weekdayClose":"23:59","weekendOpen":"00:00","weekendClose":"23:59","holidayOpen":"00:00","holidayClose":"23:59","feeInfo":"무료","phone":"052-241-7982","updatedAt":"2025-07-29","sido":"울산광역시","sigungu":"북구","dong":"화봉동"},{"name":"상방","type":"공영","category":"노외","address":"울산광역시 북구 상방1길 23-1","lat":35.58224996,"lng":129.365713,"totalSpaces":6,"isFree":true,"operatingDays":"평일+토요일+공휴일","weekdayOpen":"00:00","weekdayClose":"23:59","weekendOpen":"00:00","weekendClose":"23:59","holidayOpen":"00:00","holidayClose":"23:59","feeInfo":"무료","phone":"052-241-7966","updatedAt":"2025-07-29","sido":"울산광역시","sigungu":"북구","dong":"연암동"},{"name":"유휴부지 공영주차장","type":"공영","category":"노외","address":"울산광역시 북구 송내13길 18","lat":35.59287699,"lng":129.362122,"totalSpaces":6,"isFree":true,"operatingDays":"평일+토요일+공휴일","weekdayOpen":"00:00","weekdayClose":"23:59","weekendOpen":"00:00","weekendClose":"23:59","holidayOpen":"00:00","holidayClose":"23:59","feeInfo":"무료","phone":"052-241-7982","updatedAt":"2025-07-29","sido":"울산광역시","sigungu":"북구","dong":"화봉동"},{"name":"유휴부지 공영주차장","type":"공영","category":"노외","address":"울산광역시 북구 동대9길 7","lat":35.62872776,"lng":129.355465,"totalSpaces":6,"isFree":true,"operatingDays":"평일+토요일+공휴일","weekdayOpen":"00:00","weekdayClose":"23:59","weekendOpen":"00:00","weekendClose":"23:59","holidayOpen":"00:00","holidayClose":"23:59","feeInfo":"무료","phone":"052-241-7982","updatedAt":"2025-07-29","sido":"울산광역시","sigungu":"북구","dong":"호계동"},{"name":"호계동 283-6","type":"공영","category":"노외","address":"울산광역시 북구 호계동 283-6","lat":35.62860713,"lng":129.3555527,"totalSpaces":6,"isFree":true,"operatingDays":"평일+토요일+공휴일","weekdayOpen":"00:00","weekdayClose":"23:59","weekendOpen":"00:00","weekendClose":"23:59","holidayOpen":"00:00","holidayClose":"23:59","feeInfo":"무료","phone":"052-241-7963","updatedAt":"2025-12-01","sido":"울산광역시","sigungu":"북구","dong":"호계동"},{"name":"상방","type":"공영","category":"노외","address":"울산광역시 북구 연암동 435-4","lat":35.58215529,"lng":129.3659344,"totalSpaces":6,"isFree":true,"operatingDays":"평일+토요일+공휴일","weekdayOpen":"00:00","weekdayClose":"23:59","weekendOpen":"00:00","weekendClose":"23:59","holidayOpen":"00:00","holidayClose":"23:59","feeInfo":"무료","phone":"052-241-7963","updatedAt":"2025-12-01","sido":"울산광역시","sigungu":"북구","dong":"연암동"},{"name":"화봉동 422-1","type":"공영","category":"노외","address":"울산광역시 북구 화봉동 422-1","lat":35.59280056,"lng":129.3619873,"totalSpaces":6,"isFree":true,"operatingDays":"평일+토요일+공휴일","weekdayOpen":"00:00","weekdayClose":"23:59","weekendOpen":"00:00","weekendClose":"23:59","holidayOpen":"00:00","holidayClose":"23:59","feeInfo":"무료","phone":"052-241-7963","updatedAt":"2025-12-01","sido":"울산광역시","sigungu":"북구","dong":"화봉동"},{"name":"호계동 676-8","type":"공영","category":"노외","address":"울산광역시 북구 호계3길 24","lat":35.62424806,"lng":129.3566702,"totalSpaces":5,"isFree":true,"operatingDays":"평일+토요일+공휴일","weekdayOpen":"00:00","weekdayClose":"23:59","weekendOpen":"00:00","weekendClose":"23:59","holidayOpen":"00:00","holidayClose":"23:59","feeInfo":"무료","phone":"052-241-7966","updatedAt":"2025-07-29","sido":"울산광역시","sigungu":"북구","dong":"호계동"},{"name":"유휴부지 공영주차장","type":"공영","category":"노외","address":"울산광역시 북구 화봉동 462-13","lat":35.5892647,"lng":129.369483,"totalSpaces":5,"isFree":true,"operatingDays":"평일+토요일+공휴일","weekdayOpen":"00:00","weekdayClose":"23:59","weekendOpen":"00:00","weekendClose":"23:59","holidayOpen":"00:00","holidayClose":"23:59","feeInfo":"무료","phone":"052-241-7982","updatedAt":"2025-07-29","sido":"울산광역시","sigungu":"북구","dong":"화봉동"},{"name":"호계동 676-8","type":"공영","category":"노외","address":"울산광역시 북구 호계9길 52-2 (호계동)","lat":35.62732769,"lng":129.3576671,"totalSpaces":5,"isFree":true,"operatingDays":"평일+토요일+공휴일","weekdayOpen":"00:00","weekdayClose":"23:59","weekendOpen":"00:00","weekendClose":"23:59","holidayOpen":"00:00","holidayClose":"23:59","feeInfo":"무료","phone":"052-241-7963","updatedAt":"2025-12-01","sido":"울산광역시","sigungu":"북구","dong":"호계동"},{"name":"제3강동산하","type":"공영","category":"노외","address":"울산광역시 북구 산하동 367-9","lat":35.62861439,"lng":129.441322,"totalSpaces":5,"isFree":true,"operatingDays":"평일+토요일+공휴일","weekdayOpen":"00:00","weekdayClose":"23:59","weekendOpen":"00:00","weekendClose":"23:59","holidayOpen":"00:00","holidayClose":"23:59","feeInfo":"무료","phone":"052-241-7963","updatedAt":"2025-12-01","sido":"울산광역시","sigungu":"북구","dong":"산하동"},{"name":"유휴부지 공영주차장","type":"공영","category":"노외","address":"울산광역시 북구 양정동 556-10","lat":35.54247089,"lng":129.389228,"totalSpaces":4,"isFree":true,"operatingDays":"평일+토요일+공휴일","weekdayOpen":"00:00","weekdayClose":"23:59","weekendOpen":"00:00","weekendClose":"23:59","holidayOpen":"00:00","holidayClose":"23:59","feeInfo":"무료","phone":"052-241-7982","updatedAt":"2025-07-29","sido":"울산광역시","sigungu":"북구","dong":"양정동"},{"name":"상방마을 이면","type":"공영","category":"노상","address":"울산광역시 북구 연암동 1095-8","lat":35.58384704,"lng":129.3671986,"totalSpaces":4,"isFree":true,"operatingDays":"평일+토요일+공휴일","weekdayOpen":"00:00","weekdayClose":"23:59","weekendOpen":"00:00","weekendClose":"23:59","holidayOpen":"00:00","holidayClose":"23:59","feeInfo":"무료","phone":"052-241-7966","updatedAt":"2025-07-29","sido":"울산광역시","sigungu":"북구","dong":"연암동"},{"name":"상방마을이면","type":"공영","category":"노상","address":"울산광역시 북구 연암동 1095-8","lat":35.58384704,"lng":129.3671986,"totalSpaces":4,"isFree":true,"operatingDays":"평일+토요일+공휴일","weekdayOpen":"00:00","weekdayClose":"23:59","weekendOpen":"00:00","weekendClose":"23:59","holidayOpen":"00:00","holidayClose":"23:59","feeInfo":"무료","phone":"052-241-7963","updatedAt":"2025-12-01","sido":"울산광역시","sigungu":"북구","dong":"연암동"},{"name":"유휴부지 공영주차장","type":"공영","category":"노외","address":"울산광역시 북구 신기2길 5-4","lat":35.64357442,"lng":129.355833,"totalSpaces":3,"isFree":true,"operatingDays":"평일+토요일+공휴일","weekdayOpen":"00:00","weekdayClose":"23:59","weekendOpen":"00:00","weekendClose":"23:59","holidayOpen":"00:00","holidayClose":"23:59","feeInfo":"무료","phone":"052-241-7982","updatedAt":"2025-07-29","sido":"울산광역시","sigungu":"북구","dong":"매곡동"},{"name":"매곡동 595-1","type":"공영","category":"노외","address":"울산광역시 북구 매곡동 595-1","lat":35.64363845,"lng":129.3559049,"totalSpaces":3,"isFree":true,"operatingDays":"평일+토요일+공휴일","weekdayOpen":"00:00","weekdayClose":"23:59","weekendOpen":"00:00","weekendClose":"23:59","holidayOpen":"00:00","holidayClose":"23:59","feeInfo":"무료","phone":"052-241-7963","updatedAt":"2025-12-01","sido":"울산광역시","sigungu":"북구","dong":"매곡동"},{"name":"현대자동차문회회관","type":"공영","category":"노외","address":"울산광역시 북구 염포로 581","lat":35.53984921,"lng":129.386723,"totalSpaces":214,"isFree":false,"operatingDays":"평일+토요일+공휴일","weekdayOpen":"00:00","weekdayClose":"23:59","weekendOpen":"00:00","weekendClose":"23:59","holidayOpen":"00:00","holidayClose":"23:59","feeInfo":"기본 030분 500원","phone":"052-241-7966","updatedAt":"2025-07-29","sido":"울산광역시","sigungu":"북구","dong":"양정동"},{"name":"강동중앙공원","type":"공영","category":"노외","address":"울산광역시 북구 강동산하4로 21","lat":35.63115202,"lng":129.4379267,"totalSpaces":182,"isFree":false,"operatingDays":"평일+토요일","weekdayOpen":"00:00","weekdayClose":"23:59","weekendOpen":"00:00","weekendClose":"23:59","holidayOpen":"00:00","holidayClose":"00:00","feeInfo":"기본 030분 300원","phone":"052-241-7966","updatedAt":"2025-07-29","sido":"울산광역시","sigungu":"북구","dong":"산하동"},{"name":"화봉공원","type":"공영","category":"노외","address":"울산광역시 북구 송내1길 7","lat":35.58942782,"lng":129.364954,"totalSpaces":129,"isFree":false,"operatingDays":"평일+토요일","weekdayOpen":"00:00","weekdayClose":"23:59","weekendOpen":"00:00","weekendClose":"23:59","holidayOpen":"00:00","holidayClose":"00:00","feeInfo":"기본 030분 500원","phone":"052-241-7966","updatedAt":"2025-07-29","sido":"울산광역시","sigungu":"북구","dong":"화봉동"},{"name":"양정수양버들","type":"공영","category":"노외","address":"울산광역시 북구 양정1길 13-4","lat":35.54227189,"lng":129.387067,"totalSpaces":96,"isFree":false,"operatingDays":"평일+토요일+공휴일","weekdayOpen":"00:00","weekdayClose":"23:59","weekendOpen":"00:00","weekendClose":"23:59","holidayOpen":"00:00","holidayClose":"23:59","feeInfo":"기본 030분 500원","phone":"052-241-7966","updatedAt":"2025-07-29","sido":"울산광역시","sigungu":"북구","dong":""},{"name":"상방복개천 노상","type":"공영","category":"노상","address":"울산광역시 북구 화봉로 75 (화봉동)","lat":35.58859131,"lng":129.3673337,"totalSpaces":78,"isFree":false,"operatingDays":"평일+토요일+공휴일","weekdayOpen":"00:00","weekdayClose":"23:59","weekendOpen":"00:00","weekendClose":"23:59","holidayOpen":"00:00","holidayClose":"23:59","feeInfo":"기본 30분 500원","phone":"052-241-7963","updatedAt":"2025-12-01","sido":"울산광역시","sigungu":"북구","dong":"화봉동"},{"name":"상방복개천 노상","type":"공영","category":"노상","address":"울산광역시 북구 연암동 417-4","lat":35.58154972,"lng":129.3641238,"totalSpaces":78,"isFree":false,"operatingDays":"평일+토요일","weekdayOpen":"08:00","weekdayClose":"20:00","weekendOpen":"08:00","weekendClose":"20:00","holidayOpen":"00:00","holidayClose":"00:00","feeInfo":"기본 0분 0원","phone":"052-241-7966","updatedAt":"2025-07-29","sido":"울산광역시","sigungu":"북구","dong":"연암동"},{"name":"양정복개천 노상","type":"공영","category":"노상","address":"울산광역시 북구 오치골2길 10 (양정동)","lat":35.54735475,"lng":129.3849748,"totalSpaces":70,"isFree":false,"operatingDays":"평일+토요일+공휴일","weekdayOpen":"00:00","weekdayClose":"23:59","weekendOpen":"00:00","weekendClose":"23:59","holidayOpen":"00:00","holidayClose":"23:59","feeInfo":"기본 30분 500원","phone":"052-241-7963","updatedAt":"2025-12-01","sido":"울산광역시","sigungu":"북구","dong":"양정동"},{"name":"염포마을공동","type":"공영","category":"노외","address":"울산광역시 북구 새장터2길 38","lat":35.53614549,"lng":129.392715,"totalSpaces":50,"isFree":false,"operatingDays":"평일+토요일","weekdayOpen":"10:00","weekdayClose":"19:00","weekendOpen":"00:00","weekendClose":"23:59","holidayOpen":"00:00","holidayClose":"00:00","feeInfo":"기본 030분 500원","phone":"052-241-7966","updatedAt":"2025-07-29","sido":"울산광역시","sigungu":"북구","dong":"염포동"},{"name":"염포마을공동","type":"공영","category":"노외","address":"울산광역시 북구 염포동 307-3","lat":35.53619799,"lng":129.3928486,"totalSpaces":50,"isFree":false,"operatingDays":"평일+토요일+공휴일","weekdayOpen":"00:00","weekdayClose":"23:59","weekendOpen":"00:00","weekendClose":"23:59","holidayOpen":"00:00","holidayClose":"23:59","feeInfo":"기본 30분 500원","phone":"052-241-7963","updatedAt":"2025-12-01","sido":"울산광역시","sigungu":"북구","dong":"염포동"},{"name":"호계시장","type":"공영","category":"노외","address":"울산광역시 북구 호계3길 14","lat":35.62375479,"lng":129.3563592,"totalSpaces":28,"isFree":false,"operatingDays":"평일+토요일","weekdayOpen":"00:00","weekdayClose":"23:59","weekendOpen":"00:00","weekendClose":"23:59","holidayOpen":"00:00","holidayClose":"00:00","feeInfo":"기본 030분 500원","phone":"052-241-7966","updatedAt":"2025-07-29","sido":"울산광역시","sigungu":"북구","dong":"호계동"},{"name":"염포신전 노상","type":"공영","category":"노상","address":"울산광역시 북구 새장터2길 14 (염포동)","lat":35.53565219,"lng":129.3905117,"totalSpaces":23,"isFree":false,"operatingDays":"평일+토요일+공휴일","weekdayOpen":"00:00","weekdayClose":"23:59","weekendOpen":"00:00","weekendClose":"23:59","holidayOpen":"00:00","holidayClose":"23:59","feeInfo":"기본 30분 500원","phone":"052-241-7963","updatedAt":"2025-12-01","sido":"울산광역시","sigungu":"북구","dong":"염포동"},{"name":"화봉 노상","type":"공영","category":"노상","address":"울산광역시 북구 오치골2길 4 (양정동)","lat":35.54713024,"lng":129.3844038,"totalSpaces":15,"isFree":false,"operatingDays":"평일+토요일+공휴일","weekdayOpen":"00:00","weekdayClose":"23:59","weekendOpen":"00:00","weekendClose":"23:59","holidayOpen":"00:00","holidayClose":"23:59","feeInfo":"기본 30분 500원","phone":"052-241-7963","updatedAt":"2025-12-01","sido":"울산광역시","sigungu":"북구","dong":"양정동"},{"name":"화봉 노상","type":"공영","category":"노상","address":"울산광역시 북구 연암동 1094-1","lat":35.5881540526,"lng":129.366254804,"totalSpaces":15,"isFree":false,"operatingDays":"평일+토요일+공휴일","weekdayOpen":"10:00","weekdayClose":"19:00","weekendOpen":"10:00","weekendClose":"19:00","holidayOpen":"10:00","holidayClose":"19:00","feeInfo":"기본 030분 500원","phone":"052-241-7966","updatedAt":"2025-07-29","sido":"울산광역시","sigungu":"북구","dong":"연암동"},{"name":"연암노상","type":"공영","category":"노상","address":"울산광역시 북구 화봉로 76 (연암동)","lat":35.58794939,"lng":129.3673938,"totalSpaces":14,"isFree":false,"operatingDays":"평일+토요일+공휴일","weekdayOpen":"00:00","weekdayClose":"23:59","weekendOpen":"00:00","weekendClose":"23:59","holidayOpen":"00:00","holidayClose":"23:59","feeInfo":"기본 30분 500원","phone":"052-241-7963","updatedAt":"2025-12-01","sido":"울산광역시","sigungu":"북구","dong":"연암동"},{"name":"양정","type":"공영","category":"노외","address":"울산광역시 북구 오치골2길 10","lat":35.54735475,"lng":129.384975,"totalSpaces":14,"isFree":false,"operatingDays":"평일+토요일","weekdayOpen":"10:00","weekdayClose":"19:00","weekendOpen":"00:00","weekendClose":"23:59","holidayOpen":"00:00","holidayClose":"00:00","feeInfo":"기본 030분 500원","phone":"052-241-7966","updatedAt":"2025-07-29","sido":"울산광역시","sigungu":"북구","dong":"양정동"},{"name":"연암 노상","type":"공영","category":"노상","address":"울산광역시 북구 연암동 1094-1","lat":35.5881540526,"lng":129.366254804,"totalSpaces":14,"isFree":false,"operatingDays":"평일+토요일+공휴일","weekdayOpen":"10:00","weekdayClose":"19:00","weekendOpen":"10:00","weekendClose":"19:00","holidayOpen":"10:00","holidayClose":"19:00","feeInfo":"기본 030분 500원","phone":"052-241-7966","updatedAt":"2025-07-29","sido":"울산광역시","sigungu":"북구","dong":"연암동"}]}