{"sido":"대구광역시","sigungu":"군위군","totalCount":61,"validCount":61,"items":[{"name":"둔치 내량교 주차장","type":"공영","category":"노외","address":"대구광역시 군위군 군위읍 정리 1134-6","lat":36.2439994139,"lng":128.5616565749,"totalSpaces":245,"isFree":true,"operatingDays":"평일+토요일+공휴일","weekdayOpen":"00:00","weekdayClose":"23:59","weekendOpen":"00:00","weekendClose":"23:59","holidayOpen":"00:00","holidayClose":"23:59","feeInfo":"무료","phone":"","updatedAt":"2025-10-30","sido":"대구광역시","sigungu":"군위군","dong":"군위읍"},{"name":"제2 석굴암(2) 주차장","type":"공영","category":"노외","address":"대구광역시 군위군 부게면 한티로 1943","lat":36.049337,"lng":128.645157,"totalSpaces":142,"isFree":true,"operatingDays":"평일+토요일+공휴일","weekdayOpen":"00:00","weekdayClose":"23:59","weekendOpen":"00:00","weekendClose":"23:59","holidayOpen":"00:00","holidayClose":"23:59","feeInfo":"무료","phone":"","updatedAt":"2025-10-30","sido":"대구광역시","sigungu":"군위군","dong":""},{"name":"아미산 주차장","type":"공영","category":"노외","address":"대구광역시 군위군 삼국유사면 양지리 61","lat":36.1686487408,"lng":128.8383056287,"totalSpaces":136,"isFree":true,"operatingDays":"평일+토요일+공휴일","weekdayOpen":"00:00","weekdayClose":"23:59","weekendOpen":"00:00","weekendClose":"23:59","holidayOpen":"00:00","holidayClose":"23:59","feeInfo":"무료","phone":"","updatedAt":"2025-10-30","sido":"대구광역시","sigungu":"군위군","dong":"삼국유사면"},{"name":"위천수변테마파크 주차장","type":"공영","category":"노외","address":"대구광역시 군위군 효령면 병수리 703","lat":36.1765,"lng":128.585394843,"totalSpaces":105,"isFree":true,"operatingDays":"평일+토요일+공휴일","weekdayOpen":"00:00","weekdayClose":"23:59","weekendOpen":"00:00","weekendClose":"23:59","holidayOpen":"00:00","holidayClose":"23:59","feeInfo":"무료","phone":"","updatedAt":"2025-10-30","sido":"대구광역시","sigungu":"군위군","dong":"효령면"},{"name":"군위체육공원주차장","type":"공영","category":"노외","address":"대구광역시 군위군 군위읍 서부리 475-1","lat":36.2408795364,"lng":128.56193,"totalSpaces":97,"isFree":true,"operatingDays":"평일+토요일+공휴일","weekdayOpen":"00:00","weekdayClose":"23:59","weekendOpen":"00:00","weekendClose":"23:59","holidayOpen":"00:00","holidayClose":"23:59","feeInfo":"무료","phone":"","updatedAt":"2025-10-30","sido":"대구광역시","sigungu":"군위군","dong":"군위읍"},{"name":"일연공원 주차장","type":"공영","category":"노외","address":"대구광역시 군위군 삼국유사면 화북리 산157-1","lat":36.1208786954,"lng":128.7900291437,"totalSpaces":87,"isFree":true,"operatingDays":"평일+토요일+공휴일","weekdayOpen":"00:00","weekdayClose":"23:59","weekendOpen":"00:00","weekendClose":"23:59","holidayOpen":"00:00","holidayClose":"23:59","feeInfo":"무료","phone":"","updatedAt":"2025-10-30","sido":"대구광역시","sigungu":"군위군","dong":"삼국유사면"},{"name":"삼국유사 군위 야구장","type":"공영","category":"노외","address":"대구광역시 군위군 군위읍 내량리 3-1","lat":36.2475867656,"lng":128.5568313532,"totalSpaces":80,"isFree":true,"operatingDays":"평일+토요일+공휴일","weekdayOpen":"00:00","weekdayClose":"23:59","weekendOpen":"00:00","weekendClose":"23:59","holidayOpen":"00:00","holidayClose":"23:59","feeInfo":"무료","phone":"","updatedAt":"2025-10-30","sido":"대구광역시","sigungu":"군위군","dong":"군위읍"},{"name":"우보면3노상주차장","type":"공영","category":"노상","address":"대구광역시 군위군 우보면 이화리 1230-5","lat":36.19642575,"lng":128.6663579688,"totalSpaces":80,"isFree":true,"operatingDays":"평일+토요일+공휴일","weekdayOpen":"00:00","weekdayClose":"23:59","weekendOpen":"00:00","weekendClose":"23:59","holidayOpen":"00:00","holidayClose":"23:59","feeInfo":"무료","phone":"","updatedAt":"2025-10-30","sido":"대구광역시","sigungu":"군위군","dong":"우보면"},{"name":"군위시장2 주차장","type":"공영","category":"노외","address":"대구광역시 군위군 군위읍 서부리 9-5","lat":36.240522,"lng":128.56786,"totalSpaces":77,"isFree":true,"operatingDays":"평일+토요일+공휴일","weekdayOpen":"00:00","weekdayClose":"23:59","weekendOpen":"00:00","weekendClose":"23:59","holidayOpen":"00:00","holidayClose":"23:59","feeInfo":"무료","phone":"","updatedAt":"2025-10-30","sido":"대구광역시","sigungu":"군위군","dong":"군위읍"},{"name":"군위종합운동장1 주차장","type":"공영","category":"노외","address":"대구광역시 군위군 군위읍 내량리 417-1","lat":36.2466100041,"lng":128.5542580186,"totalSpaces":75,"isFree":true,"operatingDays":"평일+토요일+공휴일","weekdayOpen":"00:00","weekdayClose":"23:59","weekendOpen":"00:00","weekendClose":"23:59","holidayOpen":"00:00","holidayClose":"23:59","feeInfo":"무료","phone":"","updatedAt":"2025-10-30","sido":"대구광역시","sigungu":"군위군","dong":"군위읍"},{"name":"군위종합운동장3 주차장","type":"공영","category":"노외","address":"대구광역시 군위군 군위읍 내량길 28-49","lat":36.248934,"lng":128.556116,"totalSpaces":70,"isFree":true,"operatingDays":"평일+토요일+공휴일","weekdayOpen":"00:00","weekdayClose":"23:59","weekendOpen":"00:00","weekendClose":"23:59","holidayOpen":"00:00","holidayClose":"23:59","feeInfo":"무료","phone":"","updatedAt":"2025-10-30","sido":"대구광역시","sigungu":"군위군","dong":""},{"name":"우보공원 주차장","type":"공영","category":"노외","address":"대구광역시 군위군 우보면 이화리 1244-6","lat":36.195015,"lng":128.6657929576,"totalSpaces":54,"isFree":true,"operatingDays":"평일+토요일+공휴일","weekdayOpen":"00:00","weekdayClose":"23:59","weekendOpen":"00:00","weekendClose":"23:59","holidayOpen":"00:00","holidayClose":"23:59","feeInfo":"무료","phone":"","updatedAt":"2025-10-30","sido":"대구광역시","sigungu":"군위군","dong":"우보면"},{"name":"군위읍1노상주차장","type":"공영","category":"노상","address":"대구광역시 군위군 군위읍 서부리 126-22","lat":36.2308705413,"lng":128.5675279122,"totalSpaces":54,"isFree":true,"operatingDays":"평일+토요일+공휴일","weekdayOpen":"00:00","weekdayClose":"23:59","weekendOpen":"00:00","weekendClose":"23:59","holidayOpen":"00:00","holidayClose":"23:59","feeInfo":"무료","phone":"","updatedAt":"2025-10-30","sido":"대구광역시","sigungu":"군위군","dong":"군위읍"},{"name":"군위읍3노상주차장","type":"공영","category":"노상","address":"대구광역시 군위군 군위읍 서부리 22-8","lat":36.2385666598,"lng":128.567594,"totalSpaces":53,"isFree":true,"operatingDays":"평일+토요일+공휴일","weekdayOpen":"00:00","weekdayClose":"23:59","weekendOpen":"00:00","weekendClose":"23:59","holidayOpen":"00:00","holidayClose":"23:59","feeInfo":"무료","phone":"","updatedAt":"2025-10-30","sido":"대구광역시","sigungu":"군위군","dong":"군위읍"},{"name":"군위읍2노상주차장","type":"공영","category":"노상","address":"대구광역시 군위군 군위읍 서부리 285-4","lat":36.234253,"lng":128.5664650548,"totalSpaces":50,"isFree":true,"operatingDays":"평일+토요일+공휴일","weekdayOpen":"00:00","weekdayClose":"23:59","weekendOpen":"00:00","weekendClose":"23:59","holidayOpen":"00:00","holidayClose":"23:59","feeInfo":"무료","phone":"","updatedAt":"2025-10-30","sido":"대구광역시","sigungu":"군위군","dong":"군위읍"},{"name":"법주사 주차장","type":"공영","category":"노외","address":"대구광역시 군위군 소보면 달산리 766","lat":36.2720519093,"lng":128.4420228487,"totalSpaces":49,"isFree":true,"operatingDays":"평일+토요일+공휴일","weekdayOpen":"00:00","weekdayClose":"23:59","weekendOpen":"00:00","weekendClose":"23:59","holidayOpen":"00:00","holidayClose":"23:59","feeInfo":"무료","phone":"","updatedAt":"2025-10-30","sido":"대구광역시","sigungu":"군위군","dong":"소보면"},{"name":"원효구도의길 제2 주차장","type":"공영","category":"노외","address":"대구광역시 군위군 부게면 동산리 30","lat":36.034261,"lng":128.681095,"totalSpaces":41,"isFree":true,"operatingDays":"평일+토요일+공휴일","weekdayOpen":"00:00","weekdayClose":"23:59","weekendOpen":"00:00","weekendClose":"23:59","holidayOpen":"00:00","holidayClose":"23:59","feeInfo":"무료","phone":"","updatedAt":"2025-10-30","sido":"대구광역시","sigungu":"군위군","dong":"부게면"},{"name":"의흥면 행정복지센터 주차장","type":"공영","category":"노외","address":"대구광역시 군위군 의흥면 읍내리 420-16","lat":36.1759916057,"lng":128.715235477,"totalSpaces":41,"isFree":true,"operatingDays":"평일+토요일+공휴일","weekdayOpen":"00:00","weekdayClose":"23:59","weekendOpen":"00:00","weekendClose":"23:59","holidayOpen":"00:00","holidayClose":"23:59","feeInfo":"무료","phone":"","updatedAt":"2025-10-30","sido":"대구광역시","sigungu":"군위군","dong":"의흥면"},{"name":"효령면행정복지센터 주차장","type":"공영","category":"노외","address":"대구광역시 군위군 효령면 치산효령로 2400","lat":36.1568754313,"lng":128.58543881,"totalSpaces":38,"isFree":true,"operatingDays":"평일+토요일+공휴일","weekdayOpen":"00:00","weekdayClose":"23:59","weekendOpen":"00:00","weekendClose":"23:59","holidayOpen":"00:00","holidayClose":"23:59","feeInfo":"무료","phone":"","updatedAt":"2025-10-30","sido":"대구광역시","sigungu":"군위군","dong":""},{"name":"어슬렁 대추정원 주차장","type":"공영","category":"노외","address":"대구광역시 군위군 의홍면 수서리 663-37","lat":36.178278,"lng":128.687037,"totalSpaces":36,"isFree":true,"operatingDays":"평일+토요일+공휴일","weekdayOpen":"00:00","weekdayClose":"23:59","weekendOpen":"00:00","weekendClose":"23:59","holidayOpen":"00:00","holidayClose":"23:59","feeInfo":"무료","phone":"","updatedAt":"2025-10-30","sido":"대구광역시","sigungu":"군위군","dong":"의홍면"},{"name":"우보면1노상주차장","type":"공영","category":"노상","address":"대구광역시 군위군 우보면 이화리 1301-1","lat":36.1949930417,"lng":128.6633900612,"totalSpaces":36,"isFree":true,"operatingDays":"평일+토요일+공휴일","weekdayOpen":"00:00","weekdayClose":"23:59","weekendOpen":"00:00","weekendClose":"23:59","holidayOpen":"00:00","holidayClose":"23:59","feeInfo":"무료","phone":"","updatedAt":"2025-10-30","sido":"대구광역시","sigungu":"군위군","dong":"우보면"},{"name":"삼국유사군위풋살주차장","type":"공영","category":"노외","address":"대구광역시 군위군 군위읍 사직리 341-4","lat":36.2376136783,"lng":128.559490315,"totalSpaces":35,"isFree":true,"operatingDays":"평일+토요일+공휴일","weekdayOpen":"00:00","weekdayClose":"23:59","weekendOpen":"00:00","weekendClose":"23:59","holidayOpen":"00:00","holidayClose":"23:59","feeInfo":"무료","phone":"","updatedAt":"2025-10-30","sido":"대구광역시","sigungu":"군위군","dong":"군위읍"},{"name":"우보시장 공영주차장","type":"공영","category":"노외","address":"대구광역시 군위군 우보면 이화리 1282-1","lat":36.19516,"lng":128.6642662308,"totalSpaces":34,"isFree":true,"operatingDays":"평일+토요일+공휴일","weekdayOpen":"00:00","weekdayClose":"23:59","weekendOpen":"00:00","weekendClose":"23:59","holidayOpen":"00:00","holidayClose":"23:59","feeInfo":"무료","phone":"","updatedAt":"2025-10-30","sido":"대구광역시","sigungu":"군위군","dong":"우보면"},{"name":"군위종합운동장2 주차장","type":"공영","category":"노외","address":"대구광역시 군위군 군위읍 내량리 423-1","lat":36.2469002966,"lng":128.5550203421,"totalSpaces":33,"isFree":true,"operatingDays":"평일+토요일+공휴일","weekdayOpen":"00:00","weekdayClose":"23:59","weekendOpen":"00:00","weekendClose":"23:59","holidayOpen":"00:00","holidayClose":"23:59","feeInfo":"무료","phone":"","updatedAt":"2025-10-30","sido":"대구광역시","sigungu":"군위군","dong":"군위읍"},{"name":"사유원 2 주차장","type":"민영","category":"노외","address":"대구광역시 군위군 부계면 치산효령로 1176","lat":36.0921538183,"lng":128.6811605082,"totalSpaces":32,"isFree":true,"operatingDays":"평일+토요일+공휴일","weekdayOpen":"00:00","weekdayClose":"23:59","weekendOpen":"00:00","weekendClose":"23:59","holidayOpen":"00:00","holidayClose":"23:59","feeInfo":"무료","phone":"","updatedAt":"2025-10-30","sido":"대구광역시","sigungu":"군위군","dong":""},{"name":"군위시장3 주차장","type":"공영","category":"노외","address":"대구광역시 군위군 군위읍 서부리 6-4","lat":36.2409390027,"lng":128.567217,"totalSpaces":30,"isFree":true,"operatingDays":"평일+토요일+공휴일","weekdayOpen":"00:00","weekdayClose":"23:59","weekendOpen":"00:00","weekendClose":"23:59","holidayOpen":"00:00","holidayClose":"23:59","feeInfo":"무료","phone":"","updatedAt":"2025-10-30","sido":"대구광역시","sigungu":"군위군","dong":"군위읍"},{"name":"구룡지 주차장","type":"공영","category":"노외","address":"대구광역시 군위군 효령면 거매리 32-1","lat":36.153514,"lng":128.6097933815,"totalSpaces":29,"isFree":true,"operatingDays":"평일+토요일+공휴일","weekdayOpen":"00:00","weekdayClose":"23:59","weekendOpen":"00:00","weekendClose":"23:59","holidayOpen":"00:00","holidayClose":"23:59","feeInfo":"무료","phone":"","updatedAt":"2025-10-30","sido":"대구광역시","sigungu":"군위군","dong":"효령면"},{"name":"소보면사무소 주차장","type":"공영","category":"노외","address":"대구광역시 군위군 소보면 송원리 615-3","lat":36.255049,"lng":128.4749698362,"totalSpaces":29,"isFree":true,"operatingDays":"평일+토요일+공휴일","weekdayOpen":"00:00","weekdayClose":"23:59","weekendOpen":"00:00","weekendClose":"23:59","holidayOpen":"00:00","holidayClose":"23:59","feeInfo":"무료","phone":"","updatedAt":"2025-10-30","sido":"대구광역시","sigungu":"군위군","dong":"소보면"},{"name":"동산계곡 주차장","type":"공영","category":"노외","address":"대구광역시 군위군 부게면 동산리 319-1","lat":36.040799,"lng":128.668668,"totalSpaces":28,"isFree":true,"operatingDays":"평일+토요일+공휴일","weekdayOpen":"00:00","weekdayClose":"23:59","weekendOpen":"00:00","weekendClose":"23:59","holidayOpen":"00:00","holidayClose":"23:59","feeInfo":"무료","phone":"","updatedAt":"2025-10-30","sido":"대구광역시","sigungu":"군위군","dong":"부게면"},{"name":"우보면2노상주차장","type":"공영","category":"노상","address":"대구광역시 군위군 우보면 이화리 1284-1","lat":36.1949072954,"lng":128.6650266604,"totalSpaces":28,"isFree":true,"operatingDays":"평일+토요일+공휴일","weekdayOpen":"00:00","weekdayClose":"23:59","weekendOpen":"00:00","weekendClose":"23:59","holidayOpen":"00:00","holidayClose":"23:59","feeInfo":"무료","phone":"","updatedAt":"2025-10-30","sido":"대구광역시","sigungu":"군위군","dong":"우보면"},{"name":"원효구도의길 제1 주차장","type":"공영","category":"노외","address":"대구광역시 군위군 부계면 동산리 산78-6","lat":36.0327824172,"lng":128.68306153,"totalSpaces":25,"isFree":true,"operatingDays":"평일+토요일+공휴일","weekdayOpen":"00:00","weekdayClose":"23:59","weekendOpen":"00:00","weekendClose":"23:59","holidayOpen":"00:00","holidayClose":"23:59","feeInfo":"무료","phone":"","updatedAt":"2025-10-30","sido":"대구광역시","sigungu":"군위군","dong":"부계면"},{"name":"군위 동부2리회관앞 주차장","type":"공영","category":"노외","address":"대구광역시 군위군 군위읍 동서5길 19","lat":36.2375636224,"lng":128.568581,"totalSpaces":25,"isFree":true,"operatingDays":"평일+토요일+공휴일","weekdayOpen":"00:00","weekdayClose":"23:59","weekendOpen":"00:00","weekendClose":"23:59","holidayOpen":"00:00","holidayClose":"23:59","feeInfo":"무료","phone":"","updatedAt":"2025-10-30","sido":"대구광역시","sigungu":"군위군","dong":""},{"name":"군위읍4노상주차장","type":"공영","category":"노상","address":"대구광역시 군위군 군위읍 정리 183-3","lat":36.242508,"lng":128.5681154385,"totalSpaces":24,"isFree":true,"operatingDays":"평일+토요일+공휴일","weekdayOpen":"00:00","weekdayClose":"23:59","weekendOpen":"00:00","weekendClose":"23:59","holidayOpen":"00:00","holidayClose":"23:59","feeInfo":"무료","phone":"","updatedAt":"2025-10-30","sido":"대구광역시","sigungu":"군위군","dong":"군위읍"},{"name":"부계면 행정복지센터 주차장","type":"공영","category":"노외","address":"대구광역시 군위군 부게면 창평리 895-1","lat":36.100704,"lng":128.664121,"totalSpaces":23,"isFree":true,"operatingDays":"평일+토요일+공휴일","weekdayOpen":"00:00","weekdayClose":"23:59","weekendOpen":"00:00","weekendClose":"23:59","holidayOpen":"00:00","holidayClose":"23:59","feeInfo":"무료","phone":"","updatedAt":"2025-10-30","sido":"대구광역시","sigungu":"군위군","dong":"부게면"},{"name":"화본역 주차장","type":"공영","category":"노외","address":"대구광역시 군위군 산성면 화본리 824-1","lat":36.1270969369,"lng":128.6953834452,"totalSpaces":21,"isFree":true,"operatingDays":"평일+토요일+공휴일","weekdayOpen":"00:00","weekdayClose":"23:59","weekendOpen":"00:00","weekendClose":"23:59","holidayOpen":"00:00","holidayClose":"23:59","feeInfo":"무료","phone":"","updatedAt":"2025-10-30","sido":"대구광역시","sigungu":"군위군","dong":"산성면"},{"name":"의흥면 주민공동센터 주차장","type":"공영","category":"노외","address":"대구광역시 군위군 의흥면 읍내리 434-18","lat":36.1762136275,"lng":128.7155816345,"totalSpaces":21,"isFree":true,"operatingDays":"평일+토요일+공휴일","weekdayOpen":"00:00","weekdayClose":"23:59","weekendOpen":"00:00","weekendClose":"23:59","holidayOpen":"00:00","holidayClose":"23:59","feeInfo":"무료","phone":"","updatedAt":"2025-10-30","sido":"대구광역시","sigungu":"군위군","dong":"의흥면"},{"name":"보현골 주차장","type":"공영","category":"노외","address":"대구광역시 군위군 소보면 보현리 529-1","lat":36.2966381015,"lng":128.4301795616,"totalSpaces":20,"isFree":true,"operatingDays":"평일+토요일+공휴일","weekdayOpen":"00:00","weekdayClose":"23:59","weekendOpen":"00:00","weekendClose":"23:59","holidayOpen":"00:00","holidayClose":"23:59","feeInfo":"무료","phone":"","updatedAt":"2025-10-30","sido":"대구광역시","sigungu":"군위군","dong":"소보면"},{"name":"부계 공영주차장","type":"공영","category":"노외","address":"대구광역시 군위군 부계면 창평리 1157-9","lat":36.098807,"lng":128.665172,"totalSpaces":19,"isFree":true,"operatingDays":"평일+토요일+공휴일","weekdayOpen":"00:00","weekdayClose":"23:59","weekendOpen":"00:00","weekendClose":"23:59","holidayOpen":"00:00","holidayClose":"23:59","feeInfo":"무료","phone":"","updatedAt":"2025-10-30","sido":"대구광역시","sigungu":"군위군","dong":"부계면"},{"name":"우보면 행정복지센터 주차장","type":"공영","category":"노외","address":"대구광역시 군위군 우보면 이화리 1195-6","lat":36.1949056628,"lng":128.6616239552,"totalSpaces":19,"isFree":true,"operatingDays":"평일+토요일+공휴일","weekdayOpen":"00:00","weekdayClose":"23:59","weekendOpen":"00:00","weekendClose":"23:59","holidayOpen":"00:00","holidayClose":"23:59","feeInfo":"무료","phone":"","updatedAt":"2025-10-30","sido":"대구광역시","sigungu":"군위군","dong":"우보면"},{"name":"사리온이야기마을(사이) 주차장","type":"공영","category":"노외","address":"대구광역시 군위군 군위읍 서부리 44-1","lat":36.23615536,"lng":128.5677327961,"totalSpaces":18,"isFree":true,"operatingDays":"평일+토요일+공휴일","weekdayOpen":"00:00","weekdayClose":"23:59","weekendOpen":"00:00","weekendClose":"23:59","holidayOpen":"00:00","holidayClose":"23:59","feeInfo":"무료","phone":"","updatedAt":"2025-10-30","sido":"대구광역시","sigungu":"군위군","dong":"군위읍"},{"name":"사라온이야기마을1 주차장","type":"공영","category":"노외","address":"대구광역시 군위군 군위읍 서부리 38-3","lat":36.236785,"lng":128.567507,"totalSpaces":18,"isFree":true,"operatingDays":"평일+토요일+공휴일","weekdayOpen":"00:00","weekdayClose":"23:59","weekendOpen":"00:00","weekendClose":"23:59","holidayOpen":"00:00","holidayClose":"23:59","feeInfo":"무료","phone":"","updatedAt":"2025-10-30","sido":"대구광역시","sigungu":"군위군","dong":"군위읍"},{"name":"용아교차로 주차장","type":"공영","category":"노외","address":"대구광역시 군위군 삼국유사면 학성리 513-3","lat":36.136444,"lng":128.80062,"totalSpaces":17,"isFree":true,"operatingDays":"평일+토요일+공휴일","weekdayOpen":"00:00","weekdayClose":"23:59","weekendOpen":"00:00","weekendClose":"23:59","holidayOpen":"00:00","holidayClose":"23:59","feeInfo":"무료","phone":"","updatedAt":"2025-10-30","sido":"대구광역시","sigungu":"군위군","dong":"삼국유사면"},{"name":"한밤마을 주차장","type":"공영","category":"노외","address":"대구광역시 군위군 부계면 대율리 572","lat":36.0639147061,"lng":128.6562684736,"totalSpaces":16,"isFree":true,"operatingDays":"평일+토요일+공휴일","weekdayOpen":"00:00","weekdayClose":"23:59","weekendOpen":"00:00","weekendClose":"23:59","holidayOpen":"00:00","holidayClose":"23:59","feeInfo":"무료","phone":"","updatedAt":"2025-10-30","sido":"대구광역시","sigungu":"군위군","dong":"부계면"},{"name":"동부리 마을주차장","type":"공영","category":"노외","address":"대구광역시 군위군 군위읍 동부리 648-7","lat":36.23233408,"lng":128.5709131281,"totalSpaces":16,"isFree":true,"operatingDays":"평일+토요일+공휴일","weekdayOpen":"00:00","weekdayClose":"23:59","weekendOpen":"00:00","weekendClose":"23:59","holidayOpen":"00:00","holidayClose":"23:59","feeInfo":"무료","phone":"","updatedAt":"2025-10-30","sido":"대구광역시","sigungu":"군위군","dong":"군위읍"},{"name":"삼국유사면 3 주차장","type":"공영","category":"노외","address":"대구광역시 군위군 삼국유사면 학성리 397-8","lat":36.123671,"lng":128.7950724508,"totalSpaces":15,"isFree":true,"operatingDays":"평일+토요일+공휴일","weekdayOpen":"00:00","weekdayClose":"23:59","weekendOpen":"00:00","weekendClose":"23:59","holidayOpen":"00:00","holidayClose":"23:59","feeInfo":"무료","phone":"","updatedAt":"2025-10-30","sido":"대구광역시","sigungu":"군위군","dong":"삼국유사면"},{"name":"산성면 행정복지센터 주차장","type":"공영","category":"노외","address":"대구광역시 군위군 산성면 화본리 1164-3","lat":36.1230536093,"lng":128.694819,"totalSpaces":14,"isFree":true,"operatingDays":"평일+토요일+공휴일","weekdayOpen":"00:00","weekdayClose":"23:59","weekendOpen":"00:00","weekendClose":"23:59","holidayOpen":"00:00","holidayClose":"23:59","feeInfo":"무료","phone":"","updatedAt":"2025-10-30","sido":"대구광역시","sigungu":"군위군","dong":"산성면"},{"name":"제2 석굴암(1) 주차장","type":"공영","category":"노외","address":"대구광역시 군위군 부계면 남산리 317-1","lat":36.0480489983,"lng":128.643109,"totalSpaces":14,"isFree":true,"operatingDays":"평일+토요일+공휴일","weekdayOpen":"00:00","weekdayClose":"23:59","weekendOpen":"00:00","weekendClose":"23:59","holidayOpen":"00:00","holidayClose":"23:59","feeInfo":"무료","phone":"","updatedAt":"2025-10-30","sido":"대구광역시","sigungu":"군위군","dong":"부계면"},{"name":"군위초등학교 주차장","type":"공영","category":"노외","address":"대구광역시 군위군 군위읍 동부리 403-5","lat":36.238164,"lng":128.5691178158,"totalSpaces":13,"isFree":true,"operatingDays":"평일+토요일+공휴일","weekdayOpen":"00:00","weekdayClose":"23:59","weekendOpen":"00:00","weekendClose":"23:59","holidayOpen":"00:00","holidayClose":"23:59","feeInfo":"무료","phone":"","updatedAt":"2025-10-30","sido":"대구광역시","sigungu":"군위군","dong":"군위읍"},{"name":"동부리 마을주차장","type":"공영","category":"노외","address":"대구광역시 군위군 군위읍 동부리 643","lat":36.23251382,"lng":128.5705712573,"totalSpaces":12,"isFree":true,"operatingDays":"평일+토요일+공휴일","weekdayOpen":"00:00","weekdayClose":"23:59","weekendOpen":"00:00","weekendClose":"23:59","holidayOpen":"00:00","holidayClose":"23:59","feeInfo":"무료","phone":"","updatedAt":"2025-10-30","sido":"대구광역시","sigungu":"군위군","dong":"군위읍"},{"name":"군위읍행정복지센터(뒤) 주차장","type":"공영","category":"노외","address":"대구광역시 군위군 군위읍 동부리 323-9","lat":36.2400612296,"lng":128.569159,"totalSpaces":11,"isFree":true,"operatingDays":"평일+토요일+공휴일","weekdayOpen":"00:00","weekdayClose":"23:59","weekendOpen":"00:00","weekendClose":"23:59","holidayOpen":"00:00","holidayClose":"23:59","feeInfo":"무료","phone":"","updatedAt":"2025-10-30","sido":"대구광역시","sigungu":"군위군","dong":"군위읍"},{"name":"군위군민회관, 군위노인복지회관 주차장","type":"공영","category":"부설","address":"대구광역시 군위군 군위읍 군청로 98-6","lat":36.2317788134,"lng":128.5706526,"totalSpaces":11,"isFree":true,"operatingDays":"평일+토요일+공휴일","weekdayOpen":"00:00","weekdayClose":"23:59","weekendOpen":"00:00","weekendClose":"23:59","holidayOpen":"00:00","holidayClose":"23:59","feeInfo":"무료","phone":"","updatedAt":"2025-10-30","sido":"대구광역시","sigungu":"군위군","dong":"군위읍"},{"name":"삼국유사면 2 주차장","type":"공영","category":"노외","address":"대구광역시 군위군 삼국유사면 학성리 397-8","lat":36.1236673662,"lng":128.7950724508,"totalSpaces":10,"isFree":true,"operatingDays":"평일+토요일+공휴일","weekdayOpen":"00:00","weekdayClose":"23:59","weekendOpen":"00:00","weekendClose":"23:59","holidayOpen":"00:00","holidayClose":"23:59","feeInfo":"무료","phone":"","updatedAt":"2025-10-30","sido":"대구광역시","sigungu":"군위군","dong":"삼국유사면"},{"name":"리틀포레스트 주차장","type":"공영","category":"노외","address":"대구광역시 군위군 우보면 미성리 931","lat":36.178884,"lng":128.664732,"totalSpaces":10,"isFree":true,"operatingDays":"평일+토요일+공휴일","weekdayOpen":"00:00","weekdayClose":"23:59","weekendOpen":"00:00","weekendClose":"23:59","holidayOpen":"00:00","holidayClose":"23:59","feeInfo":"무료","phone":"","updatedAt":"2025-10-30","sido":"대구광역시","sigungu":"군위군","dong":"우보면"},{"name":"남방지 주차장","type":"공영","category":"노외","address":"대구광역시 군위군 부계면 창평리 548","lat":36.095805348,"lng":128.6766439435,"totalSpaces":9,"isFree":true,"operatingDays":"평일+토요일+공휴일","weekdayOpen":"00:00","weekdayClose":"23:59","weekendOpen":"00:00","weekendClose":"23:59","holidayOpen":"00:00","holidayClose":"23:59","feeInfo":"무료","phone":"","updatedAt":"2025-10-30","sido":"대구광역시","sigungu":"군위군","dong":"부계면"},{"name":"장군마을 주차장","type":"공영","category":"노외","address":"대구광역시 군위군 효령면 장군리 116-5","lat":36.123323,"lng":128.5746964896,"totalSpaces":9,"isFree":true,"operatingDays":"평일+토요일+공휴일","weekdayOpen":"00:00","weekdayClose":"23:59","weekendOpen":"00:00","weekendClose":"23:59","holidayOpen":"00:00","holidayClose":"23:59","feeInfo":"무료","phone":"","updatedAt":"2025-10-30","sido":"대구광역시","sigungu":"군위군","dong":"효령면"},{"name":"우보면4노상주차장","type":"공영","category":"노상","address":"대구광역시 군위군 우보면 이화리 1230-5","lat":36.19642575,"lng":128.6663579688,"totalSpaces":8,"isFree":true,"operatingDays":"평일+토요일+공휴일","weekdayOpen":"00:00","weekdayClose":"23:59","weekendOpen":"00:00","weekendClose":"23:59","holidayOpen":"00:00","holidayClose":"23:59","feeInfo":"무료","phone":"","updatedAt":"2025-10-30","sido":"대구광역시","sigungu":"군위군","dong":"우보면"},{"name":"제동서원 주차장","type":"공영","category":"노외","address":"대구광역시 군위군 효령면 장군리 95","lat":36.123349,"lng":128.5729581281,"totalSpaces":7,"isFree":true,"operatingDays":"평일+토요일+공휴일","weekdayOpen":"00:00","weekdayClose":"23:59","weekendOpen":"00:00","weekendClose":"23:59","holidayOpen":"00:00","holidayClose":"23:59","feeInfo":"무료","phone":"","updatedAt":"2025-10-30","sido":"대구광역시","sigungu":"군위군","dong":"효령면"},{"name":"삼국유사면 1 주차장","type":"공영","category":"노외","address":"대구광역시 군위군 삼국유사면 학성리 397-10","lat":36.1233182616,"lng":128.7947221847,"totalSpaces":7,"isFree":true,"operatingDays":"평일+토요일+공휴일","weekdayOpen":"00:00","weekdayClose":"23:59","weekendOpen":"00:00","weekendClose":"23:59","holidayOpen":"00:00","holidayClose":"23:59","feeInfo":"무료","phone":"","updatedAt":"2025-10-30","sido":"대구광역시","sigungu":"군위군","dong":"삼국유사면"},{"name":"사라온이야기마을2 주차장","type":"공영","category":"노외","address":"대구광역시 군위군 군위읍 서부리 39-3","lat":36.236676,"lng":128.567694,"totalSpaces":7,"isFree":true,"operatingDays":"평일+토요일+공휴일","weekdayOpen":"00:00","weekdayClose":"23:59","weekendOpen":"00:00","weekendClose":"23:59","holidayOpen":"00:00","holidayClose":"23:59","feeInfo":"무료","phone":"","updatedAt":"2025-10-30","sido":"대구광역시","sigungu":"군위군","dong":"군위읍"},{"name":"군위향교 주차장","type":"공영","category":"노외","address":"대구광역시 군위군 군위읍 동부리 627-1","lat":36.234428,"lng":128.56824,"totalSpaces":6,"isFree":true,"operatingDays":"평일+토요일+공휴일","weekdayOpen":"00:00","weekdayClose":"23:59","weekendOpen":"00:00","weekendClose":"23:59","holidayOpen":"00:00","holidayClose":"23:59","feeInfo":"무료","phone":"","updatedAt":"2025-10-30","sido":"대구광역시","sigungu":"군위군","dong":"군위읍"},{"name":"군위시장1 주차장","type":"공영","category":"노외","address":"대구광역시 군위군 군위읍 서부리 9-1","lat":36.2405987319,"lng":128.567542,"totalSpaces":5,"isFree":true,"operatingDays":"평일+토요일+공휴일","weekdayOpen":"00:00","weekdayClose":"23:59","weekendOpen":"00:00","weekendClose":"23:59","holidayOpen":"00:00","holidayClose":"23:59","feeInfo":"무료","phone":"","updatedAt":"2025-10-30","sido":"대구광역시","sigungu":"군위군","dong":"군위읍"}]}