{"sido":"대구광역시","sigungu":"동구","totalCount":58,"validCount":58,"items":[{"name":"나불지 공영주차장","type":"공영","category":"노외","address":"대구광역시 동구 각산동 1131","lat":35.8795814941,"lng":128.7181757212,"totalSpaces":115,"isFree":true,"operatingDays":"평일+토요일+공휴일","weekdayOpen":"09:00","weekdayClose":"19:30","weekendOpen":"09:00","weekendClose":"19:30","holidayOpen":"09:00","holidayClose":"19:30","feeInfo":"무료","phone":"053-662-3595","updatedAt":"2025-12-11","sido":"대구광역시","sigungu":"동구","dong":"각산동"},{"name":"도평동 공영주차장","type":"공영","category":"노외","address":"대구광역시 동구 도동 978-401","lat":35.9099924,"lng":128.6526542,"totalSpaces":31,"isFree":true,"operatingDays":"평일+토요일+공휴일","weekdayOpen":"09:00","weekdayClose":"19:30","weekendOpen":"09:00","weekendClose":"19:30","holidayOpen":"09:00","holidayClose":"19:30","feeInfo":"무료","phone":"053-662-3595","updatedAt":"2025-12-11","sido":"대구광역시","sigungu":"동구","dong":"도동"},{"name":"율암동 공영주차장","type":"공영","category":"노외","address":"대구광역시 동구 용계로 89","lat":35.88000835,"lng":128.7013913,"totalSpaces":31,"isFree":true,"operatingDays":"평일+토요일+공휴일","weekdayOpen":"09:00","weekdayClose":"19:30","weekendOpen":"09:00","weekendClose":"19:30","holidayOpen":"09:00","holidayClose":"19:30","feeInfo":"무료","phone":"053-662-3595","updatedAt":"2025-12-11","sido":"대구광역시","sigungu":"동구","dong":"율암동"},{"name":"불로동공영주차장","type":"공영","category":"노외","address":"대구광역시 동구 팔공로23길 14-6","lat":35.9096902,"lng":128.6398772,"totalSpaces":29,"isFree":true,"operatingDays":"평일+토요일+공휴일","weekdayOpen":"09:00","weekdayClose":"19:30","weekendOpen":"09:00","weekendClose":"19:30","holidayOpen":"09:00","holidayClose":"19:30","feeInfo":"무료","phone":"053-662-3595","updatedAt":"2025-12-11","sido":"대구광역시","sigungu":"동구","dong":"불로동"},{"name":"도평동 제2공영주차장","type":"공영","category":"노외","address":"대구광역시 동구 도동 978-401","lat":35.9099924,"lng":128.6526542,"totalSpaces":28,"isFree":true,"operatingDays":"평일+토요일+공휴일","weekdayOpen":"09:00","weekdayClose":"19:30","weekendOpen":"09:00","weekendClose":"19:30","holidayOpen":"09:00","holidayClose":"19:30","feeInfo":"무료","phone":"053-662-3595","updatedAt":"2025-12-11","sido":"대구광역시","sigungu":"동구","dong":"도동"},{"name":"미대동 공영주차장","type":"공영","category":"노외","address":"대구광역시 동구 미대동 514-2","lat":35.95258719,"lng":128.6766746,"totalSpaces":22,"isFree":true,"operatingDays":"평일+토요일+공휴일","weekdayOpen":"09:00","weekdayClose":"19:30","weekendOpen":"09:00","weekendClose":"19:30","holidayOpen":"09:00","holidayClose":"19:30","feeInfo":"무료","phone":"053-662-3595","updatedAt":"2025-12-11","sido":"대구광역시","sigungu":"동구","dong":"미대동"},{"name":"해안동 공영주차장","type":"공영","category":"노외","address":"대구광역시 동구 방촌동 126-2","lat":35.89132596,"lng":128.67702,"totalSpaces":21,"isFree":true,"operatingDays":"평일+토요일+공휴일","weekdayOpen":"09:00","weekdayClose":"19:30","weekendOpen":"09:00","weekendClose":"19:30","holidayOpen":"09:00","holidayClose":"19:30","feeInfo":"무료","phone":"053-662-3595","updatedAt":"2025-12-11","sido":"대구광역시","sigungu":"동구","dong":"방촌동"},{"name":"안심 공영주차장","type":"공영","category":"노외","address":"대구광역시 동구 괴전동 401-2","lat":35.86954023,"lng":128.7353094,"totalSpaces":254,"isFree":false,"operatingDays":"평일+토요일+공휴일","weekdayOpen":"09:00","weekdayClose":"19:30","weekendOpen":"09:00","weekendClose":"19:30","holidayOpen":"09:00","holidayClose":"19:30","feeInfo":"기본 30분 400원 / 추가 10분당 200원","phone":"053-662-2983","updatedAt":"2025-12-11","sido":"대구광역시","sigungu":"동구","dong":"괴전동"},{"name":"동촌유원지 2 공영주차장","type":"공영","category":"노외","address":"대구광역시 동구 효목동 1040","lat":35.87998501,"lng":128.6495852,"totalSpaces":240,"isFree":false,"operatingDays":"평일+토요일+공휴일","weekdayOpen":"09:00","weekdayClose":"19:30","weekendOpen":"09:00","weekendClose":"19:30","holidayOpen":"09:00","holidayClose":"19:30","feeInfo":"기본 30분 400원 / 추가 10분당 200원","phone":"053-662-3595","updatedAt":"2025-12-11","sido":"대구광역시","sigungu":"동구","dong":"효목동"},{"name":"혁신도시 공영주차장","type":"공영","category":"노외","address":"대구광역시 동구 신서동 1152-2","lat":35.87922001,"lng":128.7347389,"totalSpaces":179,"isFree":false,"operatingDays":"평일+토요일+공휴일","weekdayOpen":"09:00","weekdayClose":"19:30","weekendOpen":"09:00","weekendClose":"19:30","holidayOpen":"09:00","holidayClose":"19:30","feeInfo":"기본 30분 400원 / 추가 10분당 200원","phone":"053-662-3595","updatedAt":"2025-12-11","sido":"대구광역시","sigungu":"동구","dong":"신서동"},{"name":"공항2공영주차장","type":"공영","category":"노외","address":"대구광역시 동구 해동로 6","lat":35.8974446,"lng":128.637719,"totalSpaces":172,"isFree":false,"operatingDays":"평일+토요일+공휴일","weekdayOpen":"06:00","weekdayClose":"23:00","weekendOpen":"06:00","weekendClose":"23:00","holidayOpen":"06:00","holidayClose":"23:00","feeInfo":"기본 10분 200원 / 추가 10분당 200원","phone":"053-982-6444","updatedAt":"2025-08-01","sido":"대구광역시","sigungu":"동구","dong":"지저동"},{"name":"공항2공영주차장","type":"공영","category":"노외","address":"대구광역시 동구 지저동 460-4","lat":35.8985225,"lng":128.6362915,"totalSpaces":172,"isFree":false,"operatingDays":"평일+토요일+공휴일","weekdayOpen":"06:00","weekdayClose":"23:00","weekendOpen":"06:00","weekendClose":"23:00","holidayOpen":"06:00","holidayClose":"23:00","feeInfo":"기본 30분 400원 / 추가 10분당 200원","phone":"053-982-6444","updatedAt":"2025-12-11","sido":"대구광역시","sigungu":"동구","dong":"지저동"},{"name":"동촌유원지 1 공영주차장","type":"공영","category":"노외","address":"대구광역시 동구 효목동 1025","lat":35.87898424,"lng":128.6498128,"totalSpaces":158,"isFree":false,"operatingDays":"평일+토요일+공휴일","weekdayOpen":"09:00","weekdayClose":"19:30","weekendOpen":"09:00","weekendClose":"19:30","holidayOpen":"09:00","holidayClose":"19:30","feeInfo":"기본 30분 400원 / 추가 10분당 200원","phone":"053-662-3595","updatedAt":"2025-12-11","sido":"대구광역시","sigungu":"동구","dong":"효목동"},{"name":"동촌유원지 3 공영주차장","type":"공영","category":"노외","address":"대구광역시 동구 효목동 1202","lat":35.8777613782,"lng":128.6548199,"totalSpaces":137,"isFree":false,"operatingDays":"평일+토요일+공휴일","weekdayOpen":"09:00","weekdayClose":"19:30","weekendOpen":"09:00","weekendClose":"19:30","holidayOpen":"09:00","holidayClose":"19:30","feeInfo":"기본 30분 400원 / 추가 10분당 200원","phone":"053-662-3595","updatedAt":"2025-12-11","sido":"대구광역시","sigungu":"동구","dong":"효목동"},{"name":"갓바위5주차장","type":"공영","category":"노외","address":"대구광역시 동구 갓바위로 227","lat":35.9708814,"lng":128.7261682,"totalSpaces":124,"isFree":false,"operatingDays":"평일+토요일+공휴일","weekdayOpen":"07:00","weekdayClose":"18:00","weekendOpen":"07:00","weekendClose":"18:00","holidayOpen":"07:00","holidayClose":"18:00","feeInfo":"기본 120분 1,000원","phone":"053-982-4857","updatedAt":"2025-08-01","sido":"대구광역시","sigungu":"동구","dong":"진인동"},{"name":"갓바위2주차장","type":"공영","category":"노외","address":"대구광역시 동구 갓바위로 227","lat":35.9708814,"lng":128.7261682,"totalSpaces":95,"isFree":false,"operatingDays":"평일+토요일+공휴일","weekdayOpen":"07:00","weekdayClose":"18:00","weekendOpen":"07:00","weekendClose":"18:00","holidayOpen":"07:00","holidayClose":"18:00","feeInfo":"기본 120분 1,000원","phone":"053-982-4857","updatedAt":"2025-08-01","sido":"대구광역시","sigungu":"동구","dong":"진인동"},{"name":"공항1공영주차장","type":"공영","category":"노외","address":"대구광역시 동구 해동로 6","lat":35.8974446,"lng":128.637719,"totalSpaces":80,"isFree":false,"operatingDays":"평일+토요일+공휴일","weekdayOpen":"06:00","weekdayClose":"23:00","weekendOpen":"06:00","weekendClose":"23:00","holidayOpen":"06:00","holidayClose":"23:00","feeInfo":"기본 10분 200원 / 추가 10분당 200원","phone":"053-982-6444","updatedAt":"2025-08-01","sido":"대구광역시","sigungu":"동구","dong":"지저동"},{"name":"공항1공영주차장","type":"공영","category":"노외","address":"대구광역시 동구 지저동 460-4","lat":35.8985225,"lng":128.6362915,"totalSpaces":80,"isFree":false,"operatingDays":"평일+토요일+공휴일","weekdayOpen":"06:00","weekdayClose":"23:00","weekendOpen":"06:00","weekendClose":"23:00","holidayOpen":"06:00","holidayClose":"23:00","feeInfo":"기본 30분 400원 / 추가 10분당 200원","phone":"053-982-6444","updatedAt":"2025-12-11","sido":"대구광역시","sigungu":"동구","dong":"지저동"},{"name":"반야월서편공영주차장","type":"공영","category":"노외","address":"대구광역시 동구 신기동 174","lat":35.87257768,"lng":128.7019733,"totalSpaces":70,"isFree":false,"operatingDays":"평일+토요일+공휴일","weekdayOpen":"09:00","weekdayClose":"19:30","weekendOpen":"09:00","weekendClose":"19:30","holidayOpen":"09:00","holidayClose":"19:30","feeInfo":"기본 24분 400원 / 추가 10분당 200원","phone":"053-662-3595","updatedAt":"2025-12-11","sido":"대구광역시","sigungu":"동구","dong":"신기동"},{"name":"평화시장 공영주차장","type":"공영","category":"노외","address":"대구광역시 동구 신암동 604-1","lat":35.88427648,"lng":128.6198107,"totalSpaces":63,"isFree":false,"operatingDays":"평일+토요일+공휴일","weekdayOpen":"09:00","weekdayClose":"19:30","weekendOpen":"09:00","weekendClose":"19:30","holidayOpen":"09:00","holidayClose":"19:30","feeInfo":"기본 30분 600원 / 추가 10분당 300원","phone":"053-662-3595","updatedAt":"2025-12-11","sido":"대구광역시","sigungu":"동구","dong":"신암동"},{"name":"갓바위1주차장","type":"공영","category":"노외","address":"대구광역시 동구 갓바위로 227","lat":35.9708814,"lng":128.7261682,"totalSpaces":60,"isFree":false,"operatingDays":"평일+토요일+공휴일","weekdayOpen":"07:00","weekdayClose":"18:00","weekendOpen":"07:00","weekendClose":"18:00","holidayOpen":"07:00","holidayClose":"18:00","feeInfo":"기본 120분 1,000원","phone":"053-982-4857","updatedAt":"2025-08-01","sido":"대구광역시","sigungu":"동구","dong":"진인동"},{"name":"갓바위3주차장","type":"공영","category":"노외","address":"대구광역시 동구 갓바위로 227","lat":35.9708814,"lng":128.7261682,"totalSpaces":58,"isFree":false,"operatingDays":"평일+토요일+공휴일","weekdayOpen":"07:00","weekdayClose":"18:00","weekendOpen":"07:00","weekendClose":"18:00","holidayOpen":"07:00","holidayClose":"18:00","feeInfo":"기본 120분 1,000원","phone":"053-982-4857","updatedAt":"2025-08-01","sido":"대구광역시","sigungu":"동구","dong":"진인동"},{"name":"동대구맞이주차장","type":"공영","category":"노상","address":"대구광역시 동구 동대구로 550","lat":35.87943614,"lng":128.6287755,"totalSpaces":56,"isFree":false,"operatingDays":"평일+토요일+공휴일","weekdayOpen":"00:00","weekdayClose":"23:59","weekendOpen":"00:00","weekendClose":"23:59","holidayOpen":"00:00","holidayClose":"23:59","feeInfo":"기본 20분 0원 / 추가 10분당 1,000원","phone":"053-956-1400","updatedAt":"2025-08-01","sido":"대구광역시","sigungu":"동구","dong":"신암동"},{"name":"동대구역맞이 주차장","type":"공영","category":"노외","address":"대구광역시 동구 동대구로 550","lat":35.87943614,"lng":128.6287755,"totalSpaces":56,"isFree":false,"operatingDays":"평일+토요일+공휴일","weekdayOpen":"00:00","weekdayClose":"23:59","weekendOpen":"00:00","weekendClose":"23:59","holidayOpen":"00:00","holidayClose":"23:59","feeInfo":"기본 30분 1,000원 / 추가 10분당 1,000원","phone":"053-956-1400","updatedAt":"2025-12-11","sido":"대구광역시","sigungu":"동구","dong":""},{"name":"반야월동편공영주차장(전통)","type":"공영","category":"노외","address":"대구광역시 동구 신기동 182-4","lat":35.87213228,"lng":128.7035166,"totalSpaces":52,"isFree":false,"operatingDays":"평일+토요일+공휴일","weekdayOpen":"09:00","weekdayClose":"19:30","weekendOpen":"09:00","weekendClose":"19:30","holidayOpen":"09:00","holidayClose":"19:30","feeInfo":"기본 30분 400원 / 추가 10분당 200원","phone":"053-662-3595","updatedAt":"2025-12-11","sido":"대구광역시","sigungu":"동구","dong":"신기동"},{"name":"불로전통시장공영주차장","type":"공영","category":"노외","address":"대구광역시 동구 팔공로30길 7-6","lat":35.91223341,"lng":128.6420237,"totalSpaces":49,"isFree":false,"operatingDays":"평일+토요일+공휴일","weekdayOpen":"09:00","weekdayClose":"19:30","weekendOpen":"09:00","weekendClose":"19:30","holidayOpen":"09:00","holidayClose":"19:30","feeInfo":"기본 30분 400원 / 추가 10분당 200원","phone":"053-662-2983","updatedAt":"2025-12-11","sido":"대구광역시","sigungu":"동구","dong":"불로동"},{"name":"방촌시장 공영주차장(전통)","type":"공영","category":"노외","address":"대구광역시 동구 동촌로42길 19-12","lat":35.88120296,"lng":128.6631112,"totalSpaces":49,"isFree":false,"operatingDays":"평일+토요일+공휴일","weekdayOpen":"09:00","weekdayClose":"19:30","weekendOpen":"09:00","weekendClose":"19:30","holidayOpen":"09:00","holidayClose":"19:30","feeInfo":"기본 30분 400원 / 추가 10분당 200원","phone":"053-662-3595","updatedAt":"2025-12-11","sido":"대구광역시","sigungu":"동구","dong":"방촌동"},{"name":"동대구로2 공영주차장","type":"공영","category":"노상","address":"대구광역시 동구 신천동 289-2","lat":35.87364781,"lng":128.6260553,"totalSpaces":47,"isFree":false,"operatingDays":"평일+토요일+공휴일","weekdayOpen":"09:00","weekdayClose":"19:30","weekendOpen":"09:00","weekendClose":"19:30","holidayOpen":"09:00","holidayClose":"19:30","feeInfo":"기본 30분 1,000원 / 추가 10분당 500원","phone":"053-662-3596","updatedAt":"2025-12-11","sido":"대구광역시","sigungu":"동구","dong":"신천동"},{"name":"신천희망로주차장","type":"공영","category":"노상","address":"대구광역시 동구 장등로 33","lat":35.8704209,"lng":128.6232384,"totalSpaces":45,"isFree":false,"operatingDays":"평일","weekdayOpen":"09:00","weekdayClose":"19:00","weekendOpen":"00:00","weekendClose":"00:00","holidayOpen":"00:00","holidayClose":"00:00","feeInfo":"기본 10분 600원 / 추가 10분당 600원","phone":"053-603-4064","updatedAt":"2025-08-01","sido":"대구광역시","sigungu":"동구","dong":"신천3동"},{"name":"현대아울렛 앞 노상공영주차장","type":"공영","category":"노상","address":"대구광역시 동구 동대구로 454","lat":35.87073052,"lng":128.6265483,"totalSpaces":44,"isFree":false,"operatingDays":"평일","weekdayOpen":"09:00","weekdayClose":"18:00","weekendOpen":"00:00","weekendClose":"00:00","holidayOpen":"00:00","holidayClose":"00:00","feeInfo":"기본 10분 600원 / 추가 10분당 600원","phone":"053-603-4064","updatedAt":"2025-08-01","sido":"대구광역시","sigungu":"동구","dong":"신천동"},{"name":"현대아울렛 앞","type":"공영","category":"노상","address":"대구광역시 동구 신천동 296-1","lat":35.87163437,"lng":128.6265211,"totalSpaces":44,"isFree":false,"operatingDays":"평일+토요일+공휴일","weekdayOpen":"09:00","weekdayClose":"18:00","weekendOpen":"09:00","weekendClose":"19:30","holidayOpen":"09:00","holidayClose":"19:30","feeInfo":"기본 30분 1,000원 / 추가 10분당 500원","phone":"1577-6446","updatedAt":"2025-12-11","sido":"대구광역시","sigungu":"동구","dong":"신천동"},{"name":"공항시장 공영주차장","type":"공영","category":"노외","address":"대구광역시 동구 해동로 19-2","lat":35.89616391,"lng":128.6380569,"totalSpaces":40,"isFree":false,"operatingDays":"평일+토요일+공휴일","weekdayOpen":"09:00","weekdayClose":"19:30","weekendOpen":"09:00","weekendClose":"19:30","holidayOpen":"09:00","holidayClose":"19:30","feeInfo":"기본 30분 400원 / 추가 10분당 200원","phone":"053-662-4714","updatedAt":"2025-12-11","sido":"대구광역시","sigungu":"동구","dong":"지저동"},{"name":"중앙고속 차고지 앞","type":"공영","category":"노상","address":"대구광역시 동구 신천동 331-1","lat":35.87547908,"lng":128.62819,"totalSpaces":40,"isFree":false,"operatingDays":"평일+토요일+공휴일","weekdayOpen":"09:00","weekdayClose":"19:30","weekendOpen":"09:00","weekendClose":"19:30","holidayOpen":"09:00","holidayClose":"19:30","feeInfo":"기본 30분 1,000원 / 추가 10분당 500원","phone":"053-662-3596","updatedAt":"2025-12-11","sido":"대구광역시","sigungu":"동구","dong":"신천동"},{"name":"율하3 공영주차장","type":"공영","category":"노상","address":"대구광역시 동구 율하동 1423","lat":35.86279499,"lng":128.6961426,"totalSpaces":38,"isFree":false,"operatingDays":"평일+토요일+공휴일","weekdayOpen":"09:00","weekdayClose":"19:30","weekendOpen":"09:00","weekendClose":"19:30","holidayOpen":"09:00","holidayClose":"19:30","feeInfo":"기본 30분 400원 / 추가 10분당 200원","phone":"053-662-3596","updatedAt":"2025-12-11","sido":"대구광역시","sigungu":"동구","dong":"율하동"},{"name":"율하1 공영주차장","type":"공영","category":"노상","address":"대구광역시 동구 율하동 1433","lat":35.86315869,"lng":128.6978073,"totalSpaces":37,"isFree":false,"operatingDays":"평일+토요일+공휴일","weekdayOpen":"09:00","weekdayClose":"19:30","weekendOpen":"09:00","weekendClose":"19:30","holidayOpen":"09:00","holidayClose":"19:30","feeInfo":"기본 30분 400원 / 추가 10분당 200원","phone":"053-662-3596","updatedAt":"2025-12-11","sido":"대구광역시","sigungu":"동구","dong":"율하동"},{"name":"신천1,2동 공영주차장","type":"공영","category":"노외","address":"대구광역시 동구 신천동 544-5","lat":35.87486373,"lng":128.6150706,"totalSpaces":37,"isFree":false,"operatingDays":"평일+토요일+공휴일","weekdayOpen":"09:00","weekdayClose":"19:30","weekendOpen":"09:00","weekendClose":"19:30","holidayOpen":"09:00","holidayClose":"19:30","feeInfo":"기본 30분 1,000원 / 추가 10분당 500원","phone":"053-662-3595","updatedAt":"2025-12-11","sido":"대구광역시","sigungu":"동구","dong":"신천동"},{"name":"동대구역 고가교 하단 공영주차장","type":"공영","category":"노상","address":"대구광역시 동구 동대구로 550","lat":35.8794361441,"lng":128.6287755327,"totalSpaces":36,"isFree":false,"operatingDays":"평일+토요일+공휴일","weekdayOpen":"00:00","weekdayClose":"23:59","weekendOpen":"00:00","weekendClose":"23:59","holidayOpen":"00:00","holidayClose":"23:59","feeInfo":"기본 10분 600원 / 추가 10분당 600원","phone":"053-603-4064","updatedAt":"2025-08-01","sido":"대구광역시","sigungu":"동구","dong":"신암동"},{"name":"동대구로1 공영주차장","type":"공영","category":"노상","address":"대구광역시 동구 신천동 285-1","lat":35.87619293,"lng":128.6267294,"totalSpaces":36,"isFree":false,"operatingDays":"평일+토요일+공휴일","weekdayOpen":"09:00","weekdayClose":"19:30","weekendOpen":"09:00","weekendClose":"19:30","holidayOpen":"09:00","holidayClose":"19:30","feeInfo":"기본 30분 1,000원 / 추가 10분당 500원","phone":"053-662-3596","updatedAt":"2025-12-11","sido":"대구광역시","sigungu":"동구","dong":"신천동"},{"name":"동대구역 고가교 하단","type":"공영","category":"노상","address":"대구광역시 동구 신암동 368","lat":35.8818042651,"lng":128.6253421554,"totalSpaces":36,"isFree":false,"operatingDays":"평일+토요일+공휴일","weekdayOpen":"09:00","weekdayClose":"18:00","weekendOpen":"09:00","weekendClose":"19:30","holidayOpen":"09:00","holidayClose":"19:30","feeInfo":"기본 30분 1,000원 / 추가 10분당 500원","phone":"1577-6446","updatedAt":"2025-12-11","sido":"대구광역시","sigungu":"동구","dong":"신암동"},{"name":"율하2 공영주차장","type":"공영","category":"노상","address":"대구광역시 동구 율하동 1418","lat":35.86297128,"lng":128.6945762,"totalSpaces":32,"isFree":false,"operatingDays":"평일+토요일+공휴일","weekdayOpen":"09:00","weekdayClose":"19:30","weekendOpen":"09:00","weekendClose":"19:30","holidayOpen":"09:00","holidayClose":"19:30","feeInfo":"기본 30분 400원 / 추가 10분당 200원","phone":"053-662-3596","updatedAt":"2025-12-11","sido":"대구광역시","sigungu":"동구","dong":"율하동"},{"name":"신천희망로","type":"공영","category":"노상","address":"대구광역시 동구 장등로 77","lat":35.87425433,"lng":128.6235046,"totalSpaces":31,"isFree":false,"operatingDays":"평일+토요일+공휴일","weekdayOpen":"09:00","weekdayClose":"19:00","weekendOpen":"09:00","weekendClose":"19:30","holidayOpen":"09:00","holidayClose":"19:30","feeInfo":"기본 30분 1,000원 / 추가 10분당 500원","phone":"1577-6446","updatedAt":"2025-12-11","sido":"대구광역시","sigungu":"동구","dong":"신천동"},{"name":"동서식품동편주차장","type":"공영","category":"노상","address":"대구광역시 동구 동부로 22길 46","lat":35.872691,"lng":128.6265879,"totalSpaces":30,"isFree":false,"operatingDays":"평일","weekdayOpen":"09:00","weekdayClose":"18:00","weekendOpen":"00:00","weekendClose":"00:00","holidayOpen":"00:00","holidayClose":"00:00","feeInfo":"기본 10분 600원 / 추가 10분당 600원","phone":"053-603-4064","updatedAt":"2025-08-01","sido":"대구광역시","sigungu":"동구","dong":"신천동"},{"name":"상공회의소 뒤편1","type":"공영","category":"노상","address":"대구광역시 동구 신천동 78-11","lat":35.87522369,"lng":128.6241975,"totalSpaces":30,"isFree":false,"operatingDays":"평일+토요일+공휴일","weekdayOpen":"09:00","weekdayClose":"19:30","weekendOpen":"09:00","weekendClose":"19:30","holidayOpen":"09:00","holidayClose":"19:30","feeInfo":"기본 30분 1,000원 / 추가 10분당 500원","phone":"053-662-3596","updatedAt":"2025-12-11","sido":"대구광역시","sigungu":"동구","dong":"신천동"},{"name":"동서식품 동편 도로","type":"공영","category":"노상","address":"대구광역시 동구 동부로22길 46","lat":35.87266561,"lng":128.6265894,"totalSpaces":30,"isFree":false,"operatingDays":"평일+토요일+공휴일","weekdayOpen":"09:00","weekdayClose":"18:00","weekendOpen":"09:00","weekendClose":"19:30","holidayOpen":"09:00","holidayClose":"19:30","feeInfo":"기본 30분 1,000원 / 추가 10분당 500원","phone":"1577-6446","updatedAt":"2025-12-11","sido":"대구광역시","sigungu":"동구","dong":"신천동"},{"name":"동대구초등서편주차장","type":"공영","category":"노상","address":"대구광역시 동구 아양로8길 36","lat":35.87889844,"lng":128.619885,"totalSpaces":28,"isFree":false,"operatingDays":"평일","weekdayOpen":"09:00","weekdayClose":"18:00","weekendOpen":"00:00","weekendClose":"00:00","holidayOpen":"00:00","holidayClose":"00:00","feeInfo":"기본 10분 350원 / 추가 10분당 350원","phone":"053-603-4064","updatedAt":"2025-08-01","sido":"대구광역시","sigungu":"동구","dong":"신암동"},{"name":"동호정형외과앞주차장","type":"공영","category":"노상","address":"대구광역시 동구 금강로 5","lat":35.8673563,"lng":128.7244971,"totalSpaces":28,"isFree":false,"operatingDays":"평일","weekdayOpen":"09:00","weekdayClose":"18:00","weekendOpen":"00:00","weekendClose":"00:00","holidayOpen":"00:00","holidayClose":"00:00","feeInfo":"기본 10분 350원 / 추가 10분당 350원","phone":"053-603-4064","updatedAt":"2025-08-01","sido":"대구광역시","sigungu":"동구","dong":"신서동"},{"name":"동호정형외과","type":"공영","category":"노상","address":"대구광역시 동구 안심로 358","lat":35.86755616,"lng":128.7236844,"totalSpaces":28,"isFree":false,"operatingDays":"평일+토요일+공휴일","weekdayOpen":"09:00","weekdayClose":"18:00","weekendOpen":"09:00","weekendClose":"19:30","holidayOpen":"09:00","holidayClose":"19:30","feeInfo":"기본 30분 400원 / 추가 10분당 200원","phone":"1577-6446","updatedAt":"2025-12-11","sido":"대구광역시","sigungu":"동구","dong":"동호동"},{"name":"동대구초등 서편 도로","type":"공영","category":"노상","address":"대구광역시 동구 아양로8길 36","lat":35.87889889,"lng":128.619881,"totalSpaces":28,"isFree":false,"operatingDays":"평일+토요일+공휴일","weekdayOpen":"09:00","weekdayClose":"18:00","weekendOpen":"09:00","weekendClose":"19:30","holidayOpen":"09:00","holidayClose":"19:30","feeInfo":"기본 30분 600원 / 추가 10분당 300원","phone":"1577-6446","updatedAt":"2025-12-11","sido":"대구광역시","sigungu":"동구","dong":""},{"name":"상공회의소 뒤편2","type":"공영","category":"노상","address":"대구광역시 동구 신천동 90-2","lat":35.87367287,"lng":128.6248626,"totalSpaces":26,"isFree":false,"operatingDays":"평일+토요일+공휴일","weekdayOpen":"09:00","weekdayClose":"19:30","weekendOpen":"09:00","weekendClose":"19:30","holidayOpen":"09:00","holidayClose":"19:30","feeInfo":"기본 30분 1,000원 / 추가 10분당 500원","phone":"053-662-3596","updatedAt":"2025-12-11","sido":"대구광역시","sigungu":"동구","dong":"신천동"},{"name":"신천3동주차장","type":"공영","category":"노외","address":"대구광역시 동구 송라로14길 46-2","lat":35.874552,"lng":128.621271,"totalSpaces":25,"isFree":false,"operatingDays":"평일","weekdayOpen":"09:00","weekdayClose":"18:00","weekendOpen":"00:00","weekendClose":"00:00","holidayOpen":"00:00","holidayClose":"00:00","feeInfo":"기본 10분 300원 / 추가 10분당 300원","phone":"053-603-4064","updatedAt":"2025-08-01","sido":"대구광역시","sigungu":"동구","dong":"신천동"},{"name":"동원빌딩앞주차장","type":"공영","category":"노상","address":"대구광역시 동구 동부로 22길 27","lat":35.8741386,"lng":128.6270981,"totalSpaces":25,"isFree":false,"operatingDays":"평일","weekdayOpen":"09:00","weekdayClose":"18:00","weekendOpen":"00:00","weekendClose":"00:00","holidayOpen":"00:00","holidayClose":"00:00","feeInfo":"기본 10분 600원 / 추가 10분당 600원","phone":"053-603-4064","updatedAt":"2025-08-01","sido":"대구광역시","sigungu":"동구","dong":"신천동"},{"name":"신천3동 공영주차장(전통시장","type":"공영","category":"노외","address":"대구광역시 동구 송라로14길 46-1","lat":35.87469001,"lng":128.6213582,"totalSpaces":25,"isFree":false,"operatingDays":"평일+토요일+공휴일","weekdayOpen":"09:00","weekdayClose":"18:00","weekendOpen":"09:00","weekendClose":"19:30","holidayOpen":"09:00","holidayClose":"19:30","feeInfo":"기본 30분 1,000원 / 추가 10분당 500원","phone":"1577-6446","updatedAt":"2025-12-11","sido":"대구광역시","sigungu":"동구","dong":"신천동"},{"name":"동원빌딩 앞 공영주차장","type":"공영","category":"노상","address":"대구광역시 동구 동부로22길 43","lat":35.87280531,"lng":128.6271133,"totalSpaces":25,"isFree":false,"operatingDays":"평일+토요일+공휴일","weekdayOpen":"09:00","weekdayClose":"18:00","weekendOpen":"09:00","weekendClose":"19:30","holidayOpen":"09:00","holidayClose":"19:30","feeInfo":"기본 30분 1,000원 / 추가 10분당 500원","phone":"1577-6446","updatedAt":"2025-12-11","sido":"대구광역시","sigungu":"동구","dong":"신천동"},{"name":"상공회의소 뒤편3","type":"공영","category":"노상","address":"대구광역시 동구 신천동 101-4","lat":35.87138466,"lng":128.6241578,"totalSpaces":23,"isFree":false,"operatingDays":"평일+토요일+공휴일","weekdayOpen":"09:00","weekdayClose":"19:30","weekendOpen":"09:00","weekendClose":"19:30","holidayOpen":"09:00","holidayClose":"19:30","feeInfo":"기본 30분 1,000원 / 추가 10분당 500원","phone":"053-662-3596","updatedAt":"2025-12-11","sido":"대구광역시","sigungu":"동구","dong":"신천동"},{"name":"신암3동행정복지센터 앞","type":"공영","category":"노상","address":"대구광역시 동구 신암남로 67","lat":35.87958757,"lng":128.6231421,"totalSpaces":22,"isFree":false,"operatingDays":"평일+토요일+공휴일","weekdayOpen":"09:00","weekdayClose":"18:00","weekendOpen":"09:00","weekendClose":"19:30","holidayOpen":"09:00","holidayClose":"19:30","feeInfo":"기본 30분 600원 / 추가 10분당 300원","phone":"1577-6446","updatedAt":"2025-12-11","sido":"대구광역시","sigungu":"동구","dong":""},{"name":"영남일보앞주차장","type":"공영","category":"노상","address":"대구광역시 동구 동대구로 445","lat":35.8699325,"lng":128.6252865,"totalSpaces":14,"isFree":false,"operatingDays":"평일","weekdayOpen":"09:00","weekdayClose":"18:00","weekendOpen":"00:00","weekendClose":"00:00","holidayOpen":"00:00","holidayClose":"00:00","feeInfo":"기본 10분 600원 / 추가 10분당 600원","phone":"053-603-4064","updatedAt":"2025-08-01","sido":"대구광역시","sigungu":"동구","dong":"신천동"},{"name":"영남일보 앞 도로","type":"공영","category":"노상","address":"대구광역시 동구 동대구로 423","lat":35.86819855,"lng":128.6259527,"totalSpaces":14,"isFree":false,"operatingDays":"평일+토요일+공휴일","weekdayOpen":"09:00","weekdayClose":"18:00","weekendOpen":"09:00","weekendClose":"19:30","holidayOpen":"09:00","holidayClose":"19:30","feeInfo":"기본 30분 1,000원 / 추가 10분당 500원","phone":"1577-6446","updatedAt":"2025-12-11","sido":"대구광역시","sigungu":"동구","dong":""},{"name":"갓바위4주차장","type":"공영","category":"노외","address":"대구광역시 동구 갓바위로 227","lat":35.9708814,"lng":128.7261682,"totalSpaces":13,"isFree":false,"operatingDays":"평일+토요일+공휴일","weekdayOpen":"07:00","weekdayClose":"18:00","weekendOpen":"07:00","weekendClose":"18:00","holidayOpen":"07:00","holidayClose":"18:00","feeInfo":"기본 120분 1,000원","phone":"053-982-4857","updatedAt":"2025-08-01","sido":"대구광역시","sigungu":"동구","dong":"진인동"}]}