{"sido":"대구광역시","sigungu":"서구","totalCount":85,"validCount":85,"items":[{"name":"달서초등학교 인근","type":"공영","category":"노상","address":"대구광역시 서구 국채보상로36길 28","lat":35.86722262,"lng":128.5510421,"totalSpaces":186,"isFree":true,"operatingDays":"평일+토요일+공휴일","weekdayOpen":"00:00","weekdayClose":"23:59","weekendOpen":"00:00","weekendClose":"23:59","holidayOpen":"00:00","holidayClose":"23:59","feeInfo":"무료","phone":"053-663-3034","updatedAt":"2025-09-08","sido":"대구광역시","sigungu":"서구","dong":"중리동"},{"name":"서대구로62길인근 노상공영주차장","type":"공영","category":"노상","address":"대구광역시 서구 비산동 875","lat":35.8862321,"lng":128.5624536,"totalSpaces":160,"isFree":true,"operatingDays":"평일+토요일+공휴일","weekdayOpen":"00:00","weekdayClose":"23:59","weekendOpen":"00:00","weekendClose":"23:59","holidayOpen":"00:00","holidayClose":"23:59","feeInfo":"무료","phone":"053-663-3034","updatedAt":"2025-09-08","sido":"대구광역시","sigungu":"서구","dong":"비산동"},{"name":"통학로51길인근 노상공영주차장","type":"공영","category":"노상","address":"대구광역시 서구 비산동 810","lat":35.88232758,"lng":128.5614542,"totalSpaces":159,"isFree":true,"operatingDays":"평일+토요일+공휴일","weekdayOpen":"00:00","weekdayClose":"23:59","weekendOpen":"00:00","weekendClose":"23:59","holidayOpen":"00:00","holidayClose":"23:59","feeInfo":"무료","phone":"053-663-3034","updatedAt":"2025-09-08","sido":"대구광역시","sigungu":"서구","dong":"비산동"},{"name":"삼익뉴타운아파트인근","type":"공영","category":"노상","address":"대구광역시 서구 평리로42길 24(내당동)","lat":35.85932516,"lng":128.5476652,"totalSpaces":150,"isFree":true,"operatingDays":"평일+토요일+공휴일","weekdayOpen":"00:00","weekdayClose":"23:59","weekendOpen":"00:00","weekendClose":"23:59","holidayOpen":"00:00","holidayClose":"23:59","feeInfo":"무료","phone":"053-663-3034","updatedAt":"2025-09-08","sido":"대구광역시","sigungu":"서구","dong":"내당동"},{"name":"염색공단중앙로23길인근 노상공영주차장","type":"공영","category":"노상","address":"대구광역시 서구 염색공단중앙로23길 2","lat":35.88847051,"lng":128.5452155,"totalSpaces":121,"isFree":true,"operatingDays":"평일+토요일+공휴일","weekdayOpen":"00:00","weekdayClose":"23:59","weekendOpen":"00:00","weekendClose":"23:59","holidayOpen":"00:00","holidayClose":"23:59","feeInfo":"무료","phone":"053-663-3034","updatedAt":"2025-09-08","sido":"대구광역시","sigungu":"서구","dong":"비산동"},{"name":"염색공단중앙로12길인근 노상공영주차장","type":"공영","category":"노상","address":"대구광역시 서구 염색공단중앙로12길 36","lat":35.88519181,"lng":128.5523655,"totalSpaces":110,"isFree":true,"operatingDays":"평일+토요일+공휴일","weekdayOpen":"00:00","weekdayClose":"23:59","weekendOpen":"00:00","weekendClose":"23:59","holidayOpen":"00:00","holidayClose":"23:59","feeInfo":"무료","phone":"053-663-3034","updatedAt":"2025-09-08","sido":"대구광역시","sigungu":"서구","dong":"비산동"},{"name":"염색공단중앙로22길인근 노상공영주차장","type":"공영","category":"노상","address":"대구광역시 서구 염색공단천로11길 19","lat":35.88879474,"lng":128.5487738,"totalSpaces":109,"isFree":true,"operatingDays":"평일+토요일+공휴일","weekdayOpen":"00:00","weekdayClose":"23:59","weekendOpen":"00:00","weekendClose":"23:59","holidayOpen":"00:00","holidayClose":"23:59","feeInfo":"무료","phone":"053-663-3034","updatedAt":"2025-09-08","sido":"대구광역시","sigungu":"서구","dong":"비산동"},{"name":"달서천로57길인근 노상공영주차장","type":"공영","category":"노상","address":"대구광역시 서구 비산동 875","lat":35.8862321,"lng":128.5624536,"totalSpaces":103,"isFree":true,"operatingDays":"평일+토요일+공휴일","weekdayOpen":"00:00","weekdayClose":"23:59","weekendOpen":"00:00","weekendClose":"23:59","holidayOpen":"00:00","holidayClose":"23:59","feeInfo":"무료","phone":"053-663-3034","updatedAt":"2025-09-08","sido":"대구광역시","sigungu":"서구","dong":"비산동"},{"name":"염색공단중앙로14길인근 노상공영주차장","type":"공영","category":"노상","address":"대구광역시 서구 염색공단중앙로14길 23","lat":35.88655447,"lng":128.5503535,"totalSpaces":96,"isFree":true,"operatingDays":"평일+토요일+공휴일","weekdayOpen":"00:00","weekdayClose":"23:59","weekendOpen":"00:00","weekendClose":"23:59","holidayOpen":"00:00","holidayClose":"23:59","feeInfo":"무료","phone":"053-663-3034","updatedAt":"2025-09-08","sido":"대구광역시","sigungu":"서구","dong":"비산동"},{"name":"서대구로3길인근 노상공영주차장","type":"공영","category":"노상","address":"대구광역시 서구 서대구로3길 59-24","lat":35.85762495,"lng":128.549997,"totalSpaces":95,"isFree":true,"operatingDays":"평일+토요일+공휴일","weekdayOpen":"00:00","weekdayClose":"23:59","weekendOpen":"00:00","weekendClose":"23:59","holidayOpen":"00:00","holidayClose":"23:59","feeInfo":"무료","phone":"053-663-3034","updatedAt":"2025-09-08","sido":"대구광역시","sigungu":"서구","dong":"내당동"},{"name":"평리로35길인근 노상공영주차장","type":"공영","category":"노상","address":"대구광역시 서구 중리동 765","lat":35.8641104,"lng":128.5433335,"totalSpaces":89,"isFree":true,"operatingDays":"평일+토요일+공휴일","weekdayOpen":"00:00","weekdayClose":"23:59","weekendOpen":"00:00","weekendClose":"23:59","holidayOpen":"00:00","holidayClose":"23:59","feeInfo":"무료","phone":"053-663-3034","updatedAt":"2025-09-08","sido":"대구광역시","sigungu":"서구","dong":"중리동"},{"name":"염색공단로21인근 노상공영주차장","type":"공영","category":"노상","address":"대구광역시 서구 염색공단로 21","lat":35.88815488,"lng":128.5535145,"totalSpaces":79,"isFree":true,"operatingDays":"평일+토요일+공휴일","weekdayOpen":"00:00","weekdayClose":"23:59","weekendOpen":"00:00","weekendClose":"23:59","holidayOpen":"00:00","holidayClose":"23:59","feeInfo":"무료","phone":"053-663-3034","updatedAt":"2025-09-08","sido":"대구광역시","sigungu":"서구","dong":"비산동"},{"name":"서대구로7길인근 노상공영주차장","type":"공영","category":"노상","address":"대구광역시 서구 서대구로7길 43","lat":35.8605594,"lng":128.5516583,"totalSpaces":77,"isFree":true,"operatingDays":"평일+토요일+공휴일","weekdayOpen":"00:00","weekdayClose":"23:59","weekendOpen":"00:00","weekendClose":"23:59","holidayOpen":"00:00","holidayClose":"23:59","feeInfo":"무료","phone":"053-663-3034","updatedAt":"2025-09-08","sido":"대구광역시","sigungu":"서구","dong":"내당동"},{"name":"삼익뉴타운3차아파트인근","type":"공영","category":"노상","address":"대구광역시 서구 평리로50길 9-1","lat":35.86171573,"lng":128.5506908,"totalSpaces":76,"isFree":true,"operatingDays":"평일+토요일+공휴일","weekdayOpen":"00:00","weekdayClose":"23:59","weekendOpen":"00:00","weekendClose":"23:59","holidayOpen":"00:00","holidayClose":"23:59","feeInfo":"무료","phone":"053-663-3034","updatedAt":"2025-09-08","sido":"대구광역시","sigungu":"서구","dong":"내당동"},{"name":"소망교회 앞","type":"공영","category":"노상","address":"대구광역시 서구 서대구로10길 21","lat":35.86347344,"lng":128.558681,"totalSpaces":76,"isFree":true,"operatingDays":"평일+토요일+공휴일","weekdayOpen":"00:00","weekdayClose":"23:59","weekendOpen":"00:00","weekendClose":"23:59","holidayOpen":"00:00","holidayClose":"23:59","feeInfo":"무료","phone":"053-663-3034","updatedAt":"2025-09-08","sido":"대구광역시","sigungu":"서구","dong":"내당동"},{"name":"서대구로63안길인근 노상공영주차장","type":"공영","category":"노상","address":"대구광역시 서구 서대구로63안길 35","lat":35.88521112,"lng":128.5534714,"totalSpaces":74,"isFree":true,"operatingDays":"평일+토요일+공휴일","weekdayOpen":"00:00","weekdayClose":"23:59","weekendOpen":"00:00","weekendClose":"23:59","holidayOpen":"00:00","holidayClose":"23:59","feeInfo":"무료","phone":"053-663-3034","updatedAt":"2025-09-08","sido":"대구광역시","sigungu":"서구","dong":"비산동"},{"name":"다담뜰 유로주차장 주변","type":"공영","category":"노상","address":"대구광역시 서구 달구벌대로 1781-1","lat":35.85889951,"lng":128.5597691,"totalSpaces":73,"isFree":true,"operatingDays":"평일+토요일+공휴일","weekdayOpen":"00:00","weekdayClose":"23:59","weekendOpen":"00:00","weekendClose":"23:59","holidayOpen":"00:00","holidayClose":"23:59","feeInfo":"무료","phone":"053-663-3034","updatedAt":"2025-09-08","sido":"대구광역시","sigungu":"서구","dong":"내당동"},{"name":"통학로인근 노상공영주차장","type":"공영","category":"노상","address":"대구광역시 서구 비산동 752-1","lat":35.88277903,"lng":128.5630792,"totalSpaces":68,"isFree":true,"operatingDays":"평일+토요일+공휴일","weekdayOpen":"00:00","weekdayClose":"23:59","weekendOpen":"00:00","weekendClose":"23:59","holidayOpen":"00:00","holidayClose":"23:59","feeInfo":"무료","phone":"053-663-3034","updatedAt":"2025-09-08","sido":"대구광역시","sigungu":"서구","dong":"비산동"},{"name":"서도초등학교 인근","type":"공영","category":"노상","address":"대구광역시 서구 통학로16길 17","lat":35.86751782,"lng":128.5662447,"totalSpaces":67,"isFree":true,"operatingDays":"평일+토요일+공휴일","weekdayOpen":"00:00","weekdayClose":"23:59","weekendOpen":"00:00","weekendClose":"23:59","holidayOpen":"00:00","holidayClose":"23:59","feeInfo":"무료","phone":"053-663-3034","updatedAt":"2025-09-08","sido":"대구광역시","sigungu":"서구","dong":"평리동"},{"name":"홍실타운아파트 정문인근","type":"공영","category":"노상","address":"대구광역시 서구 서대구로8길 50","lat":35.86195437,"lng":128.562026,"totalSpaces":58,"isFree":true,"operatingDays":"평일+토요일+공휴일","weekdayOpen":"00:00","weekdayClose":"23:59","weekendOpen":"00:00","weekendClose":"23:59","holidayOpen":"00:00","holidayClose":"23:59","feeInfo":"무료","phone":"053-663-3034","updatedAt":"2025-09-08","sido":"대구광역시","sigungu":"서구","dong":"내당동"},{"name":"염색공단천로3길인근 노상공영주차장","type":"공영","category":"노상","address":"대구광역시 서구 염색공단천로3길 33","lat":35.8892084,"lng":128.5539884,"totalSpaces":55,"isFree":true,"operatingDays":"평일+토요일+공휴일","weekdayOpen":"00:00","weekdayClose":"23:59","weekendOpen":"00:00","weekendClose":"23:59","holidayOpen":"00:00","holidayClose":"23:59","feeInfo":"무료","phone":"053-663-3034","updatedAt":"2025-09-08","sido":"대구광역시","sigungu":"서구","dong":"비산동"},{"name":"삼익뉴타운1차아파트 인근","type":"공영","category":"노상","address":"대구광역시 서구 서대구로5길 63","lat":35.859328,"lng":128.5496035,"totalSpaces":54,"isFree":true,"operatingDays":"평일+토요일+공휴일","weekdayOpen":"00:00","weekdayClose":"23:59","weekendOpen":"00:00","weekendClose":"23:59","holidayOpen":"00:00","holidayClose":"23:59","feeInfo":"무료","phone":"053-663-3034","updatedAt":"2025-09-08","sido":"대구광역시","sigungu":"서구","dong":"내당동"},{"name":"달서천로인근","type":"공영","category":"노상","address":"대구광역시 서구 원대동1가 258","lat":35.88053078,"lng":128.5777546,"totalSpaces":53,"isFree":true,"operatingDays":"평일+토요일+공휴일","weekdayOpen":"00:00","weekdayClose":"23:59","weekendOpen":"00:00","weekendClose":"23:59","holidayOpen":"00:00","holidayClose":"23:59","feeInfo":"무료","phone":"053-663-3034","updatedAt":"2025-09-08","sido":"대구광역시","sigungu":"서구","dong":"원대동1가"},{"name":"염색공단로11길인근 노상공영주차장","type":"공영","category":"노상","address":"대구광역시 서구 염색공단로11길 27","lat":35.88543505,"lng":128.5529004,"totalSpaces":52,"isFree":true,"operatingDays":"평일+토요일+공휴일","weekdayOpen":"00:00","weekdayClose":"23:59","weekendOpen":"00:00","weekendClose":"23:59","holidayOpen":"00:00","holidayClose":"23:59","feeInfo":"무료","phone":"053-663-3034","updatedAt":"2025-09-08","sido":"대구광역시","sigungu":"서구","dong":"비산동"},{"name":"달구벌대로337길인근 노상공영주차장","type":"공영","category":"노상","address":"대구광역시 서구 달구벌대로337길 19","lat":35.85662447,"lng":128.5498622,"totalSpaces":51,"isFree":true,"operatingDays":"평일+토요일+공휴일","weekdayOpen":"00:00","weekdayClose":"23:59","weekendOpen":"00:00","weekendClose":"23:59","holidayOpen":"00:00","holidayClose":"23:59","feeInfo":"무료","phone":"053-663-3034","updatedAt":"2025-09-08","sido":"대구광역시","sigungu":"서구","dong":"내당동"},{"name":"상리공원주차장","type":"공영","category":"노외","address":"대구광역시 서구 중리동 1174-1","lat":35.86312705,"lng":128.5335732,"totalSpaces":47,"isFree":true,"operatingDays":"평일+토요일+공휴일","weekdayOpen":"00:00","weekdayClose":"23:59","weekendOpen":"00:00","weekendClose":"23:59","holidayOpen":"00:00","holidayClose":"23:59","feeInfo":"무료","phone":"053-663-3034","updatedAt":"2025-09-08","sido":"대구광역시","sigungu":"서구","dong":"중리동"},{"name":"통학로2길인근 노상공영주차장","type":"공영","category":"노상","address":"대구광역시 서구 통학로2길 8-1","lat":35.86117679,"lng":128.5653193,"totalSpaces":47,"isFree":true,"operatingDays":"평일+토요일+공휴일","weekdayOpen":"00:00","weekdayClose":"23:59","weekendOpen":"00:00","weekendClose":"23:59","holidayOpen":"00:00","holidayClose":"23:59","feeInfo":"무료","phone":"053-663-3034","updatedAt":"2025-09-08","sido":"대구광역시","sigungu":"서구","dong":"내당동"},{"name":"한국폴리텍6대학 운동장 인근","type":"공영","category":"노상","address":"대구광역시 서구 국채보상로43길 30","lat":35.87379548,"lng":128.5540141,"totalSpaces":44,"isFree":true,"operatingDays":"평일+토요일+공휴일","weekdayOpen":"00:00","weekdayClose":"23:59","weekendOpen":"00:00","weekendClose":"23:59","holidayOpen":"00:00","holidayClose":"23:59","feeInfo":"무료","phone":"053-663-3034","updatedAt":"2025-09-08","sido":"대구광역시","sigungu":"서구","dong":"평리동"},{"name":"북비산로61길인근 노상공영주차장","type":"공영","category":"노상","address":"대구광역시 서구 북비산로61길 6-1(평리동)","lat":35.88012316,"lng":128.5671826,"totalSpaces":43,"isFree":true,"operatingDays":"평일+토요일+공휴일","weekdayOpen":"00:00","weekdayClose":"23:59","weekendOpen":"00:00","weekendClose":"23:59","holidayOpen":"00:00","holidayClose":"23:59","feeInfo":"무료","phone":"053-663-3034","updatedAt":"2025-09-08","sido":"대구광역시","sigungu":"서구","dong":"평리동"},{"name":"대구제일고등학교 인근","type":"공영","category":"노상","address":"대구광역시 서구 국채보상로78길 12","lat":35.87101669,"lng":128.5728105,"totalSpaces":42,"isFree":true,"operatingDays":"평일+토요일+공휴일","weekdayOpen":"00:00","weekdayClose":"23:59","weekendOpen":"00:00","weekendClose":"23:59","holidayOpen":"00:00","holidayClose":"23:59","feeInfo":"무료","phone":"053-663-3034","updatedAt":"2025-09-08","sido":"대구광역시","sigungu":"서구","dong":"비산동"},{"name":"평리로52길인근 노상공영주차장","type":"공영","category":"노상","address":"대구광역시 서구 내당동 341-5","lat":35.86146303,"lng":128.552253,"totalSpaces":41,"isFree":true,"operatingDays":"평일+토요일+공휴일","weekdayOpen":"00:00","weekdayClose":"23:59","weekendOpen":"00:00","weekendClose":"23:59","holidayOpen":"00:00","holidayClose":"23:59","feeInfo":"무료","phone":"053-663-3034","updatedAt":"2025-09-08","sido":"대구광역시","sigungu":"서구","dong":"내당동"},{"name":"국채보상로39길인근 노상공영주차장","type":"공영","category":"노상","address":"대구광역시 서구 평리동 1650","lat":35.87355027,"lng":128.54868,"totalSpaces":39,"isFree":true,"operatingDays":"평일+토요일+공휴일","weekdayOpen":"00:00","weekdayClose":"23:59","weekendOpen":"00:00","weekendClose":"23:59","holidayOpen":"00:00","holidayClose":"23:59","feeInfo":"무료","phone":"053-663-3034","updatedAt":"2025-09-08","sido":"대구광역시","sigungu":"서구","dong":"평리동"},{"name":"서대구로64길인근 노상공영주차장","type":"공영","category":"노상","address":"대구광역시 서구 비산동 875","lat":35.8862321,"lng":128.5624536,"totalSpaces":39,"isFree":true,"operatingDays":"평일+토요일+공휴일","weekdayOpen":"00:00","weekdayClose":"23:59","weekendOpen":"00:00","weekendClose":"23:59","holidayOpen":"00:00","holidayClose":"23:59","feeInfo":"무료","phone":"053-663-3034","updatedAt":"2025-09-08","sido":"대구광역시","sigungu":"서구","dong":"비산동"},{"name":"석화빌 앞","type":"공영","category":"노상","address":"대구광역시 서구 서대구로4길 18-1","lat":35.86023698,"lng":128.5589447,"totalSpaces":38,"isFree":true,"operatingDays":"평일+토요일+공휴일","weekdayOpen":"00:00","weekdayClose":"23:59","weekendOpen":"00:00","weekendClose":"23:59","holidayOpen":"00:00","holidayClose":"23:59","feeInfo":"무료","phone":"053-663-3034","updatedAt":"2025-09-08","sido":"대구광역시","sigungu":"서구","dong":"내당동"},{"name":"당산로69길인근 노상공영주차장","type":"공영","category":"노상","address":"대구광역시 서구 중리동 756-6","lat":35.86715755,"lng":128.5447075,"totalSpaces":37,"isFree":true,"operatingDays":"평일+토요일+공휴일","weekdayOpen":"00:00","weekdayClose":"23:59","weekendOpen":"00:00","weekendClose":"23:59","holidayOpen":"00:00","holidayClose":"23:59","feeInfo":"무료","phone":"053-663-3034","updatedAt":"2025-09-08","sido":"대구광역시","sigungu":"서구","dong":"중리동"},{"name":"달서천로61길인근 노상공영주차장","type":"공영","category":"노상","address":"대구광역시 서구 달서천로61길 34","lat":35.88713971,"lng":128.5693522,"totalSpaces":37,"isFree":true,"operatingDays":"평일+토요일+공휴일","weekdayOpen":"00:00","weekdayClose":"23:59","weekendOpen":"00:00","weekendClose":"23:59","holidayOpen":"00:00","holidayClose":"23:59","feeInfo":"무료","phone":"053-663-3034","updatedAt":"2025-09-08","sido":"대구광역시","sigungu":"서구","dong":"비산동"},{"name":"통학로20길인근 노상공영주차장","type":"공영","category":"노상","address":"대구광역시 서구 통학로20길 20","lat":35.86918652,"lng":128.5662087,"totalSpaces":35,"isFree":true,"operatingDays":"평일+토요일+공휴일","weekdayOpen":"00:00","weekdayClose":"23:59","weekendOpen":"00:00","weekendClose":"23:59","holidayOpen":"00:00","holidayClose":"23:59","feeInfo":"무료","phone":"053-663-3034","updatedAt":"2025-09-08","sido":"대구광역시","sigungu":"서구","dong":"평리동"},{"name":"서대구로18길인근 노상공영주차장","type":"공영","category":"노상","address":"대구광역시 서구 서대구로18길 13","lat":35.86576414,"lng":128.5574327,"totalSpaces":35,"isFree":true,"operatingDays":"평일+토요일+공휴일","weekdayOpen":"00:00","weekdayClose":"23:59","weekendOpen":"00:00","weekendClose":"23:59","holidayOpen":"00:00","holidayClose":"23:59","feeInfo":"무료","phone":"053-663-3034","updatedAt":"2025-09-08","sido":"대구광역시","sigungu":"서구","dong":"평리동"},{"name":"통학로24길인근 노상공영주차장","type":"공영","category":"노상","address":"대구광역시 서구 평리동 1678","lat":35.87124163,"lng":128.5654733,"totalSpaces":34,"isFree":true,"operatingDays":"평일+토요일+공휴일","weekdayOpen":"00:00","weekdayClose":"23:59","weekendOpen":"00:00","weekendClose":"23:59","holidayOpen":"00:00","holidayClose":"23:59","feeInfo":"무료","phone":"053-663-3034","updatedAt":"2025-09-08","sido":"대구광역시","sigungu":"서구","dong":"평리동"},{"name":"대구두류초등학교 후문","type":"공영","category":"노상","address":"대구광역시 서구 서대구로6길 22","lat":35.86103344,"lng":128.560083,"totalSpaces":33,"isFree":true,"operatingDays":"평일+토요일+공휴일","weekdayOpen":"00:00","weekdayClose":"23:59","weekendOpen":"00:00","weekendClose":"23:59","holidayOpen":"00:00","holidayClose":"23:59","feeInfo":"무료","phone":"053-663-3034","updatedAt":"2025-09-08","sido":"대구광역시","sigungu":"서구","dong":"내당동"},{"name":"대구N타워 인근","type":"공영","category":"노상","address":"대구광역시 서구 달구벌대로361길 3","lat":35.85982639,"lng":128.561781,"totalSpaces":31,"isFree":true,"operatingDays":"평일+토요일+공휴일","weekdayOpen":"00:00","weekdayClose":"23:59","weekendOpen":"00:00","weekendClose":"23:59","holidayOpen":"00:00","holidayClose":"23:59","feeInfo":"무료","phone":"053-663-3034","updatedAt":"2025-09-08","sido":"대구광역시","sigungu":"서구","dong":"내당동"},{"name":"경운초등학교 인근","type":"공영","category":"노상","address":"대구광역시 서구 서대구로11길 37","lat":35.86197935,"lng":128.551888,"totalSpaces":30,"isFree":true,"operatingDays":"평일+토요일+공휴일","weekdayOpen":"00:00","weekdayClose":"23:59","weekendOpen":"00:00","weekendClose":"23:59","holidayOpen":"00:00","holidayClose":"23:59","feeInfo":"무료","phone":"053-663-3034","updatedAt":"2025-09-08","sido":"대구광역시","sigungu":"서구","dong":"내당동"},{"name":"평리로62길인근 노상공영주차장","type":"공영","category":"노상","address":"대구광역시 서구 내당동 341-3","lat":35.86351194,"lng":128.5632779,"totalSpaces":28,"isFree":true,"operatingDays":"평일+토요일+공휴일","weekdayOpen":"00:00","weekdayClose":"23:59","weekendOpen":"00:00","weekendClose":"23:59","holidayOpen":"00:00","holidayClose":"23:59","feeInfo":"무료","phone":"053-663-3034","updatedAt":"2025-09-08","sido":"대구광역시","sigungu":"서구","dong":"내당동"},{"name":"북비산로65길인근 노상공영주차장","type":"공영","category":"노상","address":"대구광역시 서구 비산동 698-83","lat":35.88335605,"lng":128.5689242,"totalSpaces":26,"isFree":true,"operatingDays":"평일+토요일+공휴일","weekdayOpen":"00:00","weekdayClose":"23:59","weekendOpen":"00:00","weekendClose":"23:59","holidayOpen":"00:00","holidayClose":"23:59","feeInfo":"무료","phone":"053-663-3034","updatedAt":"2025-09-08","sido":"대구광역시","sigungu":"서구","dong":"비산동"},{"name":"서대구로25길인근 노상공영주차장","type":"공영","category":"노상","address":"대구광역시 서구 국채보상로156","lat":35.86900755,"lng":128.5481281,"totalSpaces":25,"isFree":true,"operatingDays":"평일+토요일+공휴일","weekdayOpen":"00:00","weekdayClose":"23:59","weekendOpen":"00:00","weekendClose":"23:59","holidayOpen":"00:00","holidayClose":"23:59","feeInfo":"무료","phone":"053-663-3034","updatedAt":"2025-09-08","sido":"대구광역시","sigungu":"서구","dong":"중리동"},{"name":"통학로50길인근 노상공영주차장","type":"공영","category":"노상","address":"대구광역시 서구 비산동 764-10","lat":35.88210702,"lng":128.5634999684,"totalSpaces":25,"isFree":true,"operatingDays":"평일+토요일+공휴일","weekdayOpen":"00:00","weekdayClose":"23:59","weekendOpen":"00:00","weekendClose":"23:59","holidayOpen":"00:00","holidayClose":"23:59","feeInfo":"무료","phone":"053-663-3034","updatedAt":"2025-09-08","sido":"대구광역시","sigungu":"서구","dong":"비산동"},{"name":"평리5동경로당 인근","type":"공영","category":"노상","address":"대구광역시 서구 서대구로31길 13","lat":35.87176112,"lng":128.5525817,"totalSpaces":22,"isFree":true,"operatingDays":"평일+토요일+공휴일","weekdayOpen":"18:30","weekdayClose":"08:00","weekendOpen":"00:00","weekendClose":"23:59","holidayOpen":"00:00","holidayClose":"23:59","feeInfo":"무료","phone":"053-663-3034","updatedAt":"2025-09-08","sido":"대구광역시","sigungu":"서구","dong":"평리동"},{"name":"새방로25길인근 노상공영주차장","type":"공영","category":"노상","address":"대구광역시 서구 새방로25길 4(상리동)","lat":35.8678521,"lng":128.5289992,"totalSpaces":21,"isFree":true,"operatingDays":"평일+토요일+공휴일","weekdayOpen":"00:00","weekdayClose":"23:59","weekendOpen":"00:00","weekendClose":"23:59","holidayOpen":"00:00","holidayClose":"23:59","feeInfo":"무료","phone":"053-663-3034","updatedAt":"2025-09-08","sido":"대구광역시","sigungu":"서구","dong":"상리동"},{"name":"통학로18길인근 노상공영주차장","type":"공영","category":"노상","address":"대구광역시 서구 평리동 1174-118","lat":35.8684511,"lng":128.5658219,"totalSpaces":21,"isFree":true,"operatingDays":"평일+토요일+공휴일","weekdayOpen":"00:00","weekdayClose":"23:59","weekendOpen":"00:00","weekendClose":"23:59","holidayOpen":"00:00","holidayClose":"23:59","feeInfo":"무료","phone":"053-663-3034","updatedAt":"2025-09-08","sido":"대구광역시","sigungu":"서구","dong":"평리동"},{"name":"달서로43길인근 노상공영주차장","type":"공영","category":"노상","address":"대구광역시 서구 달서로43길 19(비산동)","lat":35.8817917,"lng":128.5698889,"totalSpaces":19,"isFree":true,"operatingDays":"평일+토요일+공휴일","weekdayOpen":"00:00","weekdayClose":"23:59","weekendOpen":"00:00","weekendClose":"23:59","holidayOpen":"00:00","holidayClose":"23:59","feeInfo":"무료","phone":"053-663-3034","updatedAt":"2025-09-08","sido":"대구광역시","sigungu":"서구","dong":"비산동"},{"name":"달서천로41길인근 노상공영주차장","type":"공영","category":"노상","address":"대구광역시 서구 비산동 875","lat":35.8862321,"lng":128.5624536,"totalSpaces":17,"isFree":true,"operatingDays":"평일+토요일+공휴일","weekdayOpen":"00:00","weekdayClose":"23:59","weekendOpen":"00:00","weekendClose":"23:59","holidayOpen":"00:00","holidayClose":"23:59","feeInfo":"무료","phone":"053-663-3034","updatedAt":"2025-09-08","sido":"대구광역시","sigungu":"서구","dong":"비산동"},{"name":"국채보상로41길인근 노상공영주차장","type":"공영","category":"노상","address":"대구광역시 서구 국채보상로41길 16","lat":35.87159754,"lng":128.5532165,"totalSpaces":17,"isFree":true,"operatingDays":"평일+토요일+공휴일","weekdayOpen":"00:00","weekdayClose":"23:59","weekendOpen":"00:00","weekendClose":"23:59","holidayOpen":"00:00","holidayClose":"23:59","feeInfo":"무료","phone":"053-663-3034","updatedAt":"2025-09-08","sido":"대구광역시","sigungu":"서구","dong":"평리동"},{"name":"달서로16안길인근 노상공영주차장","type":"공영","category":"노상","address":"대구광역시 서구 비산동 219-22","lat":35.869229,"lng":128.5728764,"totalSpaces":16,"isFree":true,"operatingDays":"평일+토요일+공휴일","weekdayOpen":"00:00","weekdayClose":"23:59","weekendOpen":"00:00","weekendClose":"23:59","holidayOpen":"00:00","holidayClose":"23:59","feeInfo":"무료","phone":"053-663-3034","updatedAt":"2025-09-08","sido":"대구광역시","sigungu":"서구","dong":"비산동"},{"name":"염색공단로7길인근 노상공영주차장","type":"공영","category":"노상","address":"대구광역시 서구 염색공단로7길 3","lat":35.887654,"lng":128.5536259,"totalSpaces":16,"isFree":true,"operatingDays":"평일+토요일+공휴일","weekdayOpen":"00:00","weekdayClose":"23:59","weekendOpen":"00:00","weekendClose":"23:59","holidayOpen":"00:00","holidayClose":"23:59","feeInfo":"무료","phone":"053-663-3034","updatedAt":"2025-09-08","sido":"대구광역시","sigungu":"서구","dong":"비산동"},{"name":"가르뱅이로9길인근 노상공영주차장","type":"공영","category":"노상","address":"대구광역시 서구 상리동 239-9","lat":35.88149984,"lng":128.5322859,"totalSpaces":16,"isFree":true,"operatingDays":"평일+토요일+공휴일","weekdayOpen":"00:00","weekdayClose":"23:59","weekendOpen":"00:00","weekendClose":"23:59","holidayOpen":"00:00","holidayClose":"23:59","feeInfo":"무료","phone":"053-663-3034","updatedAt":"2025-09-08","sido":"대구광역시","sigungu":"서구","dong":"상리동"},{"name":"풍년막창 인근","type":"공영","category":"노상","address":"대구광역시 서구 북비산로59길 4","lat":35.87973677,"lng":128.5655853,"totalSpaces":14,"isFree":true,"operatingDays":"평일+토요일+공휴일","weekdayOpen":"00:00","weekdayClose":"23:59","weekendOpen":"00:00","weekendClose":"23:59","holidayOpen":"00:00","holidayClose":"23:59","feeInfo":"무료","phone":"053-663-3034","updatedAt":"2025-09-08","sido":"대구광역시","sigungu":"서구","dong":"평리동"},{"name":"달서천로65길인근 노상공영주차장","type":"공영","category":"노상","address":"대구광역시 서구 달서천로65길 30","lat":35.886826,"lng":128.5705527,"totalSpaces":14,"isFree":true,"operatingDays":"평일+토요일+공휴일","weekdayOpen":"00:00","weekdayClose":"23:59","weekendOpen":"00:00","weekendClose":"23:59","holidayOpen":"00:00","holidayClose":"23:59","feeInfo":"무료","phone":"053-663-3034","updatedAt":"2025-09-08","sido":"대구광역시","sigungu":"서구","dong":"비산동"},{"name":"북비산로51길인근 노상공영주차장","type":"공영","category":"노상","address":"대구광역시 서구 비산동 816-26","lat":35.88161266,"lng":128.5607022,"totalSpaces":13,"isFree":true,"operatingDays":"평일+토요일+공휴일","weekdayOpen":"00:00","weekdayClose":"23:59","weekendOpen":"00:00","weekendClose":"23:59","holidayOpen":"00:00","holidayClose":"23:59","feeInfo":"무료","phone":"053-663-3034","updatedAt":"2025-09-08","sido":"대구광역시","sigungu":"서구","dong":"비산동"},{"name":"염색공단로5길인근 노상공영주차장","type":"공영","category":"노상","address":"대구광역시 서구 염색공단로5길 4","lat":35.88795844,"lng":128.5535554,"totalSpaces":12,"isFree":true,"operatingDays":"평일+토요일+공휴일","weekdayOpen":"00:00","weekdayClose":"23:59","weekendOpen":"00:00","weekendClose":"23:59","holidayOpen":"00:00","holidayClose":"23:59","feeInfo":"무료","phone":"053-663-3034","updatedAt":"2025-09-08","sido":"대구광역시","sigungu":"서구","dong":"비산동"},{"name":"달서천로61안길인근 노상공영주차장","type":"공영","category":"노상","address":"대구광역시 서구 달서천로61안길 26","lat":35.88566755,"lng":128.570914,"totalSpaces":11,"isFree":true,"operatingDays":"평일+토요일+공휴일","weekdayOpen":"00:00","weekdayClose":"23:59","weekendOpen":"00:00","weekendClose":"23:59","holidayOpen":"00:00","holidayClose":"23:59","feeInfo":"무료","phone":"053-663-3034","updatedAt":"2025-09-08","sido":"대구광역시","sigungu":"서구","dong":"비산동"},{"name":"새방로27길인근 노상공영주차장","type":"공영","category":"노상","address":"대구광역시 서구 새방로27길 6(상리동)","lat":35.868108,"lng":128.5292601,"totalSpaces":3,"isFree":true,"operatingDays":"평일+토요일+공휴일","weekdayOpen":"00:00","weekdayClose":"23:59","weekendOpen":"00:00","weekendClose":"23:59","holidayOpen":"00:00","holidayClose":"23:59","feeInfo":"무료","phone":"053-663-3034","updatedAt":"2025-09-08","sido":"대구광역시","sigungu":"서구","dong":"상리동"},{"name":"달서천복개도로공영주차장","type":"공영","category":"노상","address":"대구광역시 서구 비산동 3418-1","lat":35.88298938,"lng":128.552069,"totalSpaces":504,"isFree":false,"operatingDays":"평일+토요일+공휴일","weekdayOpen":"08:00","weekdayClose":"20:00","weekendOpen":"00:00","weekendClose":"23:59","holidayOpen":"00:00","holidayClose":"23:59","feeInfo":"기본 30분 400원 / 추가 10분당 300원","phone":"053-663-3034","updatedAt":"2025-09-08","sido":"대구광역시","sigungu":"서구","dong":"비산동"},{"name":"서대구역 2주차장(3광장)","type":"공영","category":"노외","address":"대구광역시 서구 문화로13길 39","lat":35.877987,"lng":128.540653,"totalSpaces":152,"isFree":false,"operatingDays":"평일+토요일+공휴일","weekdayOpen":"00:00","weekdayClose":"23:59","weekendOpen":"00:00","weekendClose":"23:59","holidayOpen":"00:00","holidayClose":"23:59","feeInfo":"기본 20분 0원 / 추가 10분당 200원","phone":"053-603-4064","updatedAt":"2025-08-01","sido":"대구광역시","sigungu":"서구","dong":"이현동"},{"name":"서대구역남편 공영주차장","type":"공영","category":"노외","address":"대구광역시 서구 북비산로 55","lat":35.88050022,"lng":128.5399797,"totalSpaces":143,"isFree":false,"operatingDays":"평일+토요일+공휴일","weekdayOpen":"00:00","weekdayClose":"23:59","weekendOpen":"00:00","weekendClose":"23:59","holidayOpen":"00:00","holidayClose":"23:59","feeInfo":"기본 20분 0원 / 추가 10분당 200원","phone":"053-603-4064","updatedAt":"2025-08-01","sido":"대구광역시","sigungu":"서구","dong":"이현동"},{"name":"서대구역 1주차장(4광장)","type":"공영","category":"노외","address":"대구광역시 서구 북비산로 13길1","lat":35.8796182643,"lng":128.5407805453,"totalSpaces":124,"isFree":false,"operatingDays":"평일+토요일+공휴일","weekdayOpen":"00:00","weekdayClose":"23:59","weekendOpen":"00:00","weekendClose":"23:59","holidayOpen":"00:00","holidayClose":"23:59","feeInfo":"기본 20분 0원 / 추가 10분당 200원","phone":"053-603-4064","updatedAt":"2025-08-01","sido":"대구광역시","sigungu":"서구","dong":"이현동"},{"name":"염색산업단지 제3공영주차장","type":"공영","category":"노외","address":"대구광역시 서구 염색공단천로13길 41","lat":35.88353961,"lng":128.5509995,"totalSpaces":96,"isFree":false,"operatingDays":"평일+토요일+공휴일","weekdayOpen":"00:00","weekdayClose":"23:59","weekendOpen":"00:00","weekendClose":"23:59","holidayOpen":"00:00","holidayClose":"23:59","feeInfo":"기본 10분 100원 / 추가 10분당 100원","phone":"053-603-4064","updatedAt":"2025-08-01","sido":"대구광역시","sigungu":"서구","dong":"비산동"},{"name":"염색산업단지 제2공영주차장","type":"공영","category":"노외","address":"대구광역시 서구 염색공단천로11길 33","lat":35.8877065949,"lng":128.5497455045,"totalSpaces":88,"isFree":false,"operatingDays":"평일+토요일+공휴일","weekdayOpen":"00:00","weekdayClose":"23:59","weekendOpen":"00:00","weekendClose":"23:59","holidayOpen":"00:00","holidayClose":"23:59","feeInfo":"기본 10분 100원 / 추가 10분당 100원","phone":"053-603-4064","updatedAt":"2025-08-01","sido":"대구광역시","sigungu":"서구","dong":"비산동"},{"name":"달서교하부주차장","type":"공영","category":"노외","address":"대구광역시 서구 가르뱅이로6길","lat":35.88088315,"lng":128.5338376,"totalSpaces":80,"isFree":false,"operatingDays":"평일+토요일","weekdayOpen":"00:00","weekdayClose":"23:59","weekendOpen":"00:00","weekendClose":"23:59","holidayOpen":"00:00","holidayClose":"00:00","feeInfo":"기본 120분 1,000원 / 추가 120분당 1,000원","phone":"053-603-4064","updatedAt":"2025-08-01","sido":"대구광역시","sigungu":"서구","dong":"이현동"},{"name":"염색산업단지 제1공영주차장","type":"공영","category":"노외","address":"대구광역시 서구 염색공단천로19길 26","lat":35.88657326,"lng":128.544358,"totalSpaces":67,"isFree":false,"operatingDays":"평일+토요일+공휴일","weekdayOpen":"00:00","weekdayClose":"23:59","weekendOpen":"00:00","weekendClose":"23:59","holidayOpen":"00:00","holidayClose":"23:59","feeInfo":"기본 10분 100원 / 추가 10분당 100원","phone":"053-603-4064","updatedAt":"2025-08-01","sido":"대구광역시","sigungu":"서구","dong":"비산동"},{"name":"만평R남편주차장","type":"공영","category":"노상","address":"대구광역시 서구 서대구로 376","lat":35.8889988,"lng":128.562426,"totalSpaces":58,"isFree":false,"operatingDays":"평일+토요일+공휴일","weekdayOpen":"08:00","weekdayClose":"19:00","weekendOpen":"08:00","weekendClose":"19:00","holidayOpen":"08:00","holidayClose":"19:00","feeInfo":"기본 10분 150원 / 추가 10분당 150원","phone":"053-603-4064","updatedAt":"2025-08-01","sido":"대구광역시","sigungu":"서구","dong":"비산동"},{"name":"비산2.3동복개공영주차장","type":"공영","category":"노상","address":"대구광역시 서구 달성공원로 83","lat":35.87727188,"lng":128.5778452,"totalSpaces":57,"isFree":false,"operatingDays":"평일+토요일+공휴일","weekdayOpen":"08:00","weekdayClose":"20:00","weekendOpen":"00:00","weekendClose":"23:59","holidayOpen":"00:00","holidayClose":"23:59","feeInfo":"기본 30분 1,000원 / 추가 10분당 500원","phone":"053-663-3034","updatedAt":"2025-09-08","sido":"대구광역시","sigungu":"서구","dong":"비산동"},{"name":"대평리시장옆주차장","type":"공영","category":"노상","address":"대구광역시 서구 문화로 217","lat":35.8757472,"lng":128.5562845,"totalSpaces":49,"isFree":false,"operatingDays":"평일","weekdayOpen":"09:00","weekdayClose":"18:00","weekendOpen":"00:00","weekendClose":"00:00","holidayOpen":"00:00","holidayClose":"00:00","feeInfo":"기본 10분 175원 / 추가 10분당 175원","phone":"053-603-4064","updatedAt":"2025-08-01","sido":"대구광역시","sigungu":"서구","dong":"평리동"},{"name":"서부시장 공영주차장","type":"공영","category":"노외","address":"대구광역시 서구 달서로30길 16-19","lat":35.87553864,"lng":128.5729594,"totalSpaces":46,"isFree":false,"operatingDays":"평일+토요일+공휴일","weekdayOpen":"00:00","weekdayClose":"23:59","weekendOpen":"00:00","weekendClose":"23:59","holidayOpen":"00:00","holidayClose":"23:59","feeInfo":"기본 30분 600원 / 추가 10분당 300원","phone":"053-567-1544","updatedAt":"2025-09-08","sido":"대구광역시","sigungu":"서구","dong":"비산동"},{"name":"인동촌시장주차장","type":"공영","category":"노외","address":"대구광역시 서구 북비산로 74길 8","lat":35.87859788,"lng":128.573928,"totalSpaces":41,"isFree":false,"operatingDays":"평일","weekdayOpen":"12:00","weekdayClose":"21:00","weekendOpen":"00:00","weekendClose":"00:00","holidayOpen":"00:00","holidayClose":"00:00","feeInfo":"기본 10분 350원 / 추가 10분당 350원","phone":"053-603-4064","updatedAt":"2025-08-01","sido":"대구광역시","sigungu":"서구","dong":"비산동"},{"name":"신평리시장 공영주차장","type":"공영","category":"노외","address":"대구광역시 서구 통학로17길 24","lat":35.86796443,"lng":128.5609543,"totalSpaces":37,"isFree":false,"operatingDays":"평일+토요일+공휴일","weekdayOpen":"10:00","weekdayClose":"19:00","weekendOpen":"10:00","weekendClose":"17:00","holidayOpen":"00:00","holidayClose":"23:59","feeInfo":"기본 30분 600원 / 추가 10분당 300원","phone":"053-566-4003","updatedAt":"2025-09-08","sido":"대구광역시","sigungu":"서구","dong":"평리동"},{"name":"원고개시장 공영주차장","type":"공영","category":"노외","address":"대구광역시 서구 통학로46길 42-15","lat":35.88018801,"lng":128.5677443,"totalSpaces":32,"isFree":false,"operatingDays":"평일+토요일+공휴일","weekdayOpen":"11:00","weekdayClose":"19:00","weekendOpen":"11:00","weekendClose":"19:00","holidayOpen":"11:00","holidayClose":"19:00","feeInfo":"기본 30분 300원 / 추가 10분당 200원","phone":"053-552-2221","updatedAt":"2025-09-08","sido":"대구광역시","sigungu":"서구","dong":"평리동"},{"name":"반고개무침회","type":"공영","category":"노외","address":"대구광역시 서구 달구벌대로 1879-24(내당동)","lat":35.86248561,"lng":128.5707592,"totalSpaces":32,"isFree":false,"operatingDays":"평일+토요일+공휴일","weekdayOpen":"00:00","weekdayClose":"23:59","weekendOpen":"00:00","weekendClose":"23:59","holidayOpen":"00:00","holidayClose":"23:59","feeInfo":"기본 30분 600원 / 추가 10분당 300원","phone":"053-663-3034","updatedAt":"2025-09-08","sido":"대구광역시","sigungu":"서구","dong":"내당동"},{"name":"비산6동공영주차장","type":"공영","category":"노외","address":"대구광역시 서구 문화로69길 23-2","lat":35.87809316,"lng":128.5701114,"totalSpaces":26,"isFree":false,"operatingDays":"평일+토요일+공휴일","weekdayOpen":"00:00","weekdayClose":"23:59","weekendOpen":"00:00","weekendClose":"23:59","holidayOpen":"00:00","holidayClose":"23:59","feeInfo":"기본 30분 600원 / 추가 10분당 300원","phone":"053-663-3034","updatedAt":"2025-09-08","sido":"대구광역시","sigungu":"서구","dong":"비산동"},{"name":"달성토성","type":"공영","category":"노외","address":"대구광역시 서구 비산동 130-1","lat":35.87519411,"lng":128.5761551,"totalSpaces":26,"isFree":false,"operatingDays":"평일+토요일+공휴일","weekdayOpen":"00:00","weekdayClose":"23:59","weekendOpen":"00:00","weekendClose":"23:59","holidayOpen":"00:00","holidayClose":"23:59","feeInfo":"기본 30분 1,000원 / 추가 10분당 500원","phone":"053-663-3034","updatedAt":"2025-09-08","sido":"대구광역시","sigungu":"서구","dong":"비산동"},{"name":"평리4동공영주차장","type":"공영","category":"노외","address":"대구광역시 서구 평리동 1207-2","lat":35.8684101,"lng":128.5612302,"totalSpaces":24,"isFree":false,"operatingDays":"평일+토요일+공휴일","weekdayOpen":"00:00","weekdayClose":"23:59","weekendOpen":"00:00","weekendClose":"23:59","holidayOpen":"00:00","holidayClose":"23:59","feeInfo":"기본 60분 1,500원 / 추가 30분당 1,000원","phone":"053-663-3034","updatedAt":"2025-09-08","sido":"대구광역시","sigungu":"서구","dong":"평리동"},{"name":"원대신시장공영주차장","type":"공영","category":"노외","address":"대구광역시 서구 원대동3가 1300-36","lat":35.885874,"lng":128.5753391,"totalSpaces":23,"isFree":false,"operatingDays":"평일+토요일+공휴일","weekdayOpen":"09:00","weekdayClose":"20:00","weekendOpen":"09:00","weekendClose":"20:00","holidayOpen":"09:00","holidayClose":"20:00","feeInfo":"기본 60분 1,000원 / 추가 30분당 500원","phone":"053-351-7614","updatedAt":"2025-09-08","sido":"대구광역시","sigungu":"서구","dong":"원대동3가"},{"name":"내당4동공영주차장","type":"공영","category":"노외","address":"대구광역시 서구 내당동 426-3","lat":35.85682079,"lng":128.5458873,"totalSpaces":20,"isFree":false,"operatingDays":"평일+토요일+공휴일","weekdayOpen":"00:00","weekdayClose":"23:59","weekendOpen":"00:00","weekendClose":"23:59","holidayOpen":"00:00","holidayClose":"23:59","feeInfo":"기본 30분 600원 / 추가 10분당 300원","phone":"053-663-3034","updatedAt":"2025-09-08","sido":"대구광역시","sigungu":"서구","dong":"내당동"},{"name":"북비산R서편주차장","type":"공영","category":"노상","address":"대구광역시 서구 북비산로 301","lat":35.87963479,"lng":128.5661795,"totalSpaces":18,"isFree":false,"operatingDays":"평일","weekdayOpen":"09:00","weekdayClose":"18:00","weekendOpen":"00:00","weekendClose":"00:00","holidayOpen":"00:00","holidayClose":"00:00","feeInfo":"기본 10분 350원 / 추가 10분당 350원","phone":"053-603-4064","updatedAt":"2025-08-01","sido":"대구광역시","sigungu":"서구","dong":"평리동"},{"name":"비산1동공영주차장","type":"공영","category":"노외","address":"대구광역시 서구 비산동 716-42","lat":35.88100172,"lng":128.5688019,"totalSpaces":16,"isFree":false,"operatingDays":"평일+토요일+공휴일","weekdayOpen":"00:00","weekdayClose":"23:59","weekendOpen":"00:00","weekendClose":"23:59","holidayOpen":"00:00","holidayClose":"23:59","feeInfo":"기본 30분 600원 / 추가 10분당 300원","phone":"053-663-3034","updatedAt":"2025-09-08","sido":"대구광역시","sigungu":"서구","dong":"비산동"},{"name":"평리1동공영주차장","type":"공영","category":"노외","address":"대구광역시 서구 문화로 303","lat":35.87597604,"lng":128.5660678,"totalSpaces":15,"isFree":false,"operatingDays":"평일+토요일+공휴일","weekdayOpen":"00:00","weekdayClose":"23:59","weekendOpen":"00:00","weekendClose":"23:59","holidayOpen":"00:00","holidayClose":"23:59","feeInfo":"기본 60분 1,000원 / 추가 30분당 300원","phone":"053-663-3034","updatedAt":"2025-09-08","sido":"대구광역시","sigungu":"서구","dong":"평리동"}]}