{"sido":"전라남도","sigungu":"나주시","totalCount":80,"validCount":80,"items":[{"name":"빛가람호수공원주차장","type":"공영","category":"노외","address":"전라남도 나주시 빛가람동 346-1번지","lat":35.013955,"lng":126.7949874,"totalSpaces":302,"isFree":true,"operatingDays":"평일+토요일+공휴일","weekdayOpen":"00:00","weekdayClose":"23:59","weekendOpen":"00:00","weekendClose":"23:59","holidayOpen":"00:00","holidayClose":"23:59","feeInfo":"무료","phone":"061-339-8842","updatedAt":"2025-07-28","sido":"전라남도","sigungu":"나주시","dong":"빛가람동"},{"name":"나주일자리종합지원센터옆주차장","type":"공영","category":"노외","address":"전라남도 나주시 이창동 506-56번지","lat":34.9958789,"lng":126.7091317,"totalSpaces":215,"isFree":true,"operatingDays":"평일+토요일+공휴일","weekdayOpen":"00:00","weekdayClose":"23:59","weekendOpen":"00:00","weekendClose":"23:59","holidayOpen":"00:00","holidayClose":"23:59","feeInfo":"무료","phone":"061-339-8842","updatedAt":"2025-07-28","sido":"전라남도","sigungu":"나주시","dong":"이창동"},{"name":"목사고을시장 제1공영주차장","type":"공영","category":"노외","address":"전라남도 나주시 삼도동 1386-4번지","lat":35.0362462,"lng":126.7237675,"totalSpaces":212,"isFree":true,"operatingDays":"평일+토요일+공휴일","weekdayOpen":"00:00","weekdayClose":"23:59","weekendOpen":"00:00","weekendClose":"23:59","holidayOpen":"00:00","holidayClose":"23:59","feeInfo":"무료","phone":"061-339-8825","updatedAt":"2025-07-28","sido":"전라남도","sigungu":"나주시","dong":"삼도동"},{"name":"목사고을시장앞주차장","type":"공영","category":"노외","address":"전라남도 나주시 삼도동 1385-3번지","lat":35.0377712,"lng":126.7230808,"totalSpaces":160,"isFree":true,"operatingDays":"평일+토요일+공휴일","weekdayOpen":"00:00","weekdayClose":"23:59","weekendOpen":"00:00","weekendClose":"23:59","holidayOpen":"00:00","holidayClose":"23:59","feeInfo":"무료","phone":"061-339-8842","updatedAt":"2025-07-28","sido":"전라남도","sigungu":"나주시","dong":"삼도동"},{"name":"동헌터 공영주차장","type":"공영","category":"노외","address":"전라남도 나주시 금계동 31-2번지","lat":35.0311787,"lng":126.7149402,"totalSpaces":110,"isFree":true,"operatingDays":"평일+토요일+공휴일","weekdayOpen":"00:00","weekdayClose":"23:59","weekendOpen":"00:00","weekendClose":"23:59","holidayOpen":"00:00","holidayClose":"23:59","feeInfo":"무료","phone":"061-339-8842","updatedAt":"2025-07-28","sido":"전라남도","sigungu":"나주시","dong":"금계동"},{"name":"금성관서측주차장","type":"공영","category":"노외","address":"전라남도 나주시 과원동 134-1번지","lat":35.033311,"lng":126.7158845,"totalSpaces":110,"isFree":true,"operatingDays":"평일+토요일+공휴일","weekdayOpen":"00:00","weekdayClose":"23:59","weekendOpen":"00:00","weekendClose":"23:59","holidayOpen":"00:00","holidayClose":"23:59","feeInfo":"무료","phone":"061-339-8842","updatedAt":"2025-07-28","sido":"전라남도","sigungu":"나주시","dong":"과원동"},{"name":"나주금빛상점가주차장","type":"공영","category":"노외","address":"전라남도 나주시 성북동 207번지","lat":35.033561,"lng":126.7188087,"totalSpaces":93,"isFree":true,"operatingDays":"평일+토요일+공휴일","weekdayOpen":"00:00","weekdayClose":"23:59","weekendOpen":"00:00","weekendClose":"23:59","holidayOpen":"00:00","holidayClose":"23:59","feeInfo":"무료","phone":"061-339-8842","updatedAt":"2025-07-28","sido":"전라남도","sigungu":"나주시","dong":"성북동"},{"name":"금성관뒤주차장","type":"공영","category":"노외","address":"전라남도 나주시 과원동 81-2번지","lat":35.033988,"lng":126.715857,"totalSpaces":88,"isFree":true,"operatingDays":"평일+토요일+공휴일","weekdayOpen":"00:00","weekdayClose":"23:59","weekendOpen":"00:00","weekendClose":"23:59","holidayOpen":"00:00","holidayClose":"23:59","feeInfo":"무료","phone":"061-339-8842","updatedAt":"2025-07-28","sido":"전라남도","sigungu":"나주시","dong":"과원동"},{"name":"남평읍행정복지센터앞주차장","type":"공영","category":"노외","address":"전라남도 나주시 남평읍 남평리 66번지","lat":35.0450776,"lng":126.8410844,"totalSpaces":83,"isFree":true,"operatingDays":"평일+토요일+공휴일","weekdayOpen":"00:00","weekdayClose":"23:59","weekendOpen":"00:00","weekendClose":"23:59","holidayOpen":"00:00","holidayClose":"23:59","feeInfo":"무료","phone":"061-339-8842","updatedAt":"2025-07-28","sido":"전라남도","sigungu":"나주시","dong":"남평읍"},{"name":"우정사업정보센터옆주차장","type":"공영","category":"노외","address":"전라남도 나주시 빛가람동 891-2번지","lat":35.025853,"lng":126.7970162,"totalSpaces":78,"isFree":true,"operatingDays":"평일+토요일+공휴일","weekdayOpen":"00:00","weekdayClose":"23:59","weekendOpen":"00:00","weekendClose":"23:59","holidayOpen":"00:00","holidayClose":"23:59","feeInfo":"무료","phone":"061-339-8842","updatedAt":"2025-07-28","sido":"전라남도","sigungu":"나주시","dong":"빛가람동"},{"name":"영산포풍물시장인근주차장","type":"공영","category":"노외","address":"전라남도 나주시 이창동 731-2번지","lat":34.9928553,"lng":126.7069056,"totalSpaces":76,"isFree":true,"operatingDays":"평일+토요일+공휴일","weekdayOpen":"00:00","weekdayClose":"23:59","weekendOpen":"00:00","weekendClose":"23:59","holidayOpen":"00:00","holidayClose":"23:59","feeInfo":"무료","phone":"061-339-8842","updatedAt":"2025-07-28","sido":"전라남도","sigungu":"나주시","dong":"이창동"},{"name":"남평왕손짜장뒤편주차장","type":"공영","category":"노외","address":"전라남도 나주시 남평읍 남평리 193-2번지","lat":35.047051,"lng":126.8385909,"totalSpaces":75,"isFree":true,"operatingDays":"평일+토요일+공휴일","weekdayOpen":"00:00","weekdayClose":"23:59","weekendOpen":"00:00","weekendClose":"23:59","holidayOpen":"00:00","holidayClose":"23:59","feeInfo":"무료","phone":"061-339-8842","updatedAt":"2025-07-28","sido":"전라남도","sigungu":"나주시","dong":"남평읍"},{"name":"성북동행정복지센터주차장","type":"공영","category":"노외","address":"전라남도 나주시 성북동 145-6번지","lat":35.0351101,"lng":126.719272,"totalSpaces":70,"isFree":true,"operatingDays":"평일+토요일+공휴일","weekdayOpen":"00:00","weekdayClose":"23:59","weekendOpen":"00:00","weekendClose":"23:59","holidayOpen":"00:00","holidayClose":"23:59","feeInfo":"무료","phone":"061-339-8842","updatedAt":"2025-07-28","sido":"전라남도","sigungu":"나주시","dong":"성북동"},{"name":"나주고등학교앞주차장","type":"공영","category":"노외","address":"전라남도 나주시 교동 76-3번지","lat":35.0310186,"lng":126.7123118,"totalSpaces":68,"isFree":true,"operatingDays":"평일+토요일+공휴일","weekdayOpen":"00:00","weekdayClose":"23:59","weekendOpen":"00:00","weekendClose":"23:59","holidayOpen":"00:00","holidayClose":"23:59","feeInfo":"무료","phone":"061-339-8842","updatedAt":"2025-07-28","sido":"전라남도","sigungu":"나주시","dong":"교동"},{"name":"나주 원도심 생태주차장 1","type":"공영","category":"노외","address":"전라남도 나주시 산정동 38-1번지","lat":35.0356526,"lng":126.7148794,"totalSpaces":67,"isFree":true,"operatingDays":"평일+토요일+공휴일","weekdayOpen":"00:00","weekdayClose":"23:59","weekendOpen":"00:00","weekendClose":"23:59","holidayOpen":"00:00","holidayClose":"23:59","feeInfo":"무료","phone":"061-339-8842","updatedAt":"2025-07-28","sido":"전라남도","sigungu":"나주시","dong":"산정동"},{"name":"(구)매일시장앞주차장","type":"공영","category":"노외","address":"전라남도 나주시 금계동 33-8번지","lat":35.0316565,"lng":126.7156288,"totalSpaces":65,"isFree":true,"operatingDays":"평일+토요일+공휴일","weekdayOpen":"00:00","weekdayClose":"23:59","weekendOpen":"00:00","weekendClose":"23:59","holidayOpen":"00:00","holidayClose":"23:59","feeInfo":"무료","phone":"061-339-8842","updatedAt":"2025-07-28","sido":"전라남도","sigungu":"나주시","dong":"금계동"},{"name":"성북동행정복지센터앞주차장","type":"공영","category":"노외","address":"전라남도 나주시 성북동 167-2번지","lat":35.0340877,"lng":126.7194928,"totalSpaces":65,"isFree":true,"operatingDays":"평일+토요일+공휴일","weekdayOpen":"00:00","weekdayClose":"23:59","weekendOpen":"00:00","weekendClose":"23:59","holidayOpen":"00:00","holidayClose":"23:59","feeInfo":"무료","phone":"061-339-8842","updatedAt":"2025-07-28","sido":"전라남도","sigungu":"나주시","dong":"성북동"},{"name":"남평교회주차장","type":"공영","category":"노외","address":"전라남도 나주시 남평읍 대교리 5번지","lat":35.045911,"lng":126.8438861,"totalSpaces":62,"isFree":true,"operatingDays":"평일+토요일+공휴일","weekdayOpen":"00:00","weekdayClose":"23:59","weekendOpen":"00:00","weekendClose":"23:59","holidayOpen":"00:00","holidayClose":"23:59","feeInfo":"무료","phone":"061-339-8842","updatedAt":"2025-07-28","sido":"전라남도","sigungu":"나주시","dong":"남평읍"},{"name":"나주 원도심 생태주차장 2","type":"공영","category":"노외","address":"전라남도 나주시 서내동 70번지","lat":35.0339661,"lng":126.7132146,"totalSpaces":62,"isFree":true,"operatingDays":"평일+토요일+공휴일","weekdayOpen":"00:00","weekdayClose":"23:59","weekendOpen":"00:00","weekendClose":"23:59","holidayOpen":"00:00","holidayClose":"23:59","feeInfo":"무료","phone":"061-339-8842","updatedAt":"2025-07-28","sido":"전라남도","sigungu":"나주시","dong":"서내동"},{"name":"나주역앞주차장","type":"공영","category":"노외","address":"전라남도 나주시 송월동 1472번지","lat":35.0153822,"lng":126.715173,"totalSpaces":60,"isFree":true,"operatingDays":"평일+토요일+공휴일","weekdayOpen":"00:00","weekdayClose":"23:59","weekendOpen":"00:00","weekendClose":"23:59","holidayOpen":"00:00","holidayClose":"23:59","feeInfo":"무료","phone":"061-339-8842","updatedAt":"2025-07-28","sido":"전라남도","sigungu":"나주시","dong":"송월동"},{"name":"영산강둔치공원주차장","type":"공영","category":"노외","address":"전라남도 나주시 삼영동 117-1번지","lat":35.002511,"lng":126.709096,"totalSpaces":60,"isFree":true,"operatingDays":"평일+토요일+공휴일","weekdayOpen":"00:00","weekdayClose":"23:59","weekendOpen":"00:00","weekendClose":"23:59","holidayOpen":"00:00","holidayClose":"23:59","feeInfo":"무료","phone":"061-339-8842","updatedAt":"2025-07-28","sido":"전라남도","sigungu":"나주시","dong":"삼영동"},{"name":"남산주차장","type":"공영","category":"노외","address":"전라남도 나주시 남내동 7-4번지","lat":35.0320166,"lng":126.7205145,"totalSpaces":60,"isFree":true,"operatingDays":"평일+토요일+공휴일","weekdayOpen":"00:00","weekdayClose":"23:59","weekendOpen":"00:00","weekendClose":"23:59","holidayOpen":"00:00","holidayClose":"23:59","feeInfo":"무료","phone":"061-339-8842","updatedAt":"2025-07-28","sido":"전라남도","sigungu":"나주시","dong":"남내동"},{"name":"노안면행정복지센터앞주차장","type":"공영","category":"노외","address":"전라남도 나주시 노안면 금동리 191-16번지","lat":35.0753187,"lng":126.7310916,"totalSpaces":56,"isFree":true,"operatingDays":"평일+토요일+공휴일","weekdayOpen":"00:00","weekdayClose":"23:59","weekendOpen":"00:00","weekendClose":"23:59","holidayOpen":"00:00","holidayClose":"23:59","feeInfo":"무료","phone":"061-339-8842","updatedAt":"2025-07-28","sido":"전라남도","sigungu":"나주시","dong":"노안면"},{"name":"삼성아파트앞주차장","type":"공영","category":"노외","address":"전라남도 나주시 죽림동 42-5번지","lat":35.032014,"lng":126.7263244,"totalSpaces":56,"isFree":true,"operatingDays":"평일+토요일+공휴일","weekdayOpen":"00:00","weekdayClose":"23:59","weekendOpen":"00:00","weekendClose":"23:59","holidayOpen":"00:00","holidayClose":"23:59","feeInfo":"무료","phone":"061-339-8842","updatedAt":"2025-07-28","sido":"전라남도","sigungu":"나주시","dong":"죽림동"},{"name":"나주 원도심 생태주차장 3","type":"공영","category":"노외","address":"전라남도 나주시 금성동 30-18번지","lat":35.0296301,"lng":126.7171657,"totalSpaces":54,"isFree":true,"operatingDays":"평일+토요일+공휴일","weekdayOpen":"00:00","weekdayClose":"23:59","weekendOpen":"00:00","weekendClose":"23:59","holidayOpen":"00:00","holidayClose":"23:59","feeInfo":"무료","phone":"061-339-8842","updatedAt":"2025-07-28","sido":"전라남도","sigungu":"나주시","dong":"금성동"},{"name":"영강동대지회관옆주차장","type":"공영","category":"노외","address":"전라남도 나주시 삼영동 160-17번지","lat":35.004211,"lng":126.708237,"totalSpaces":52,"isFree":true,"operatingDays":"평일+토요일+공휴일","weekdayOpen":"00:00","weekdayClose":"23:59","weekendOpen":"00:00","weekendClose":"23:59","holidayOpen":"00:00","holidayClose":"23:59","feeInfo":"무료","phone":"061-339-8842","updatedAt":"2025-07-28","sido":"전라남도","sigungu":"나주시","dong":"삼영동"},{"name":"공산면 공영주차장","type":"공영","category":"노외","address":"전라남도 나주시 공산면 금곡리 728-6번지","lat":34.9413711,"lng":126.6107542,"totalSpaces":50,"isFree":true,"operatingDays":"평일+토요일+공휴일","weekdayOpen":"00:00","weekdayClose":"23:59","weekendOpen":"00:00","weekendClose":"23:59","holidayOpen":"00:00","holidayClose":"23:59","feeInfo":"무료","phone":"061-339-8842","updatedAt":"2025-07-28","sido":"전라남도","sigungu":"나주시","dong":"공산면"},{"name":"풍물시장주차장","type":"공영","category":"노외","address":"전라남도 나주시 이창동 761-8번지","lat":34.992661,"lng":126.7080788,"totalSpaces":50,"isFree":true,"operatingDays":"평일+토요일+공휴일","weekdayOpen":"00:00","weekdayClose":"23:59","weekendOpen":"00:00","weekendClose":"23:59","holidayOpen":"00:00","holidayClose":"23:59","feeInfo":"무료","phone":"061-339-8842","updatedAt":"2025-07-28","sido":"전라남도","sigungu":"나주시","dong":"이창동"},{"name":"남평교회주변주차장","type":"공영","category":"노외","address":"전라남도 나주시 남평읍 남평리 22-3번지","lat":35.0461483,"lng":126.8437201,"totalSpaces":49,"isFree":true,"operatingDays":"평일+토요일+공휴일","weekdayOpen":"00:00","weekdayClose":"23:59","weekendOpen":"00:00","weekendClose":"23:59","holidayOpen":"00:00","holidayClose":"23:59","feeInfo":"무료","phone":"061-339-8842","updatedAt":"2025-07-28","sido":"전라남도","sigungu":"나주시","dong":"남평읍"},{"name":"남고문인근주차장","type":"공영","category":"노외","address":"전라남도 나주시 남내동 68번지","lat":35.029731,"lng":126.7192034,"totalSpaces":49,"isFree":true,"operatingDays":"평일+토요일+공휴일","weekdayOpen":"00:00","weekdayClose":"23:59","weekendOpen":"00:00","weekendClose":"23:59","holidayOpen":"00:00","holidayClose":"23:59","feeInfo":"무료","phone":"061-339-8842","updatedAt":"2025-07-28","sido":"전라남도","sigungu":"나주시","dong":"남내동"},{"name":"금성파출소옆주차장","type":"공영","category":"노외","address":"전라남도 나주시 남외동 61-2번지","lat":35.028411,"lng":126.7207793,"totalSpaces":46,"isFree":true,"operatingDays":"평일+토요일+공휴일","weekdayOpen":"00:00","weekdayClose":"23:59","weekendOpen":"00:00","weekendClose":"23:59","holidayOpen":"00:00","holidayClose":"23:59","feeInfo":"무료","phone":"061-339-8842","updatedAt":"2025-07-28","sido":"전라남도","sigungu":"나주시","dong":"남외동"},{"name":"명성각모텔앞주차장","type":"공영","category":"노외","address":"전라남도 나주시 이창동 517-9번지","lat":34.9970546,"lng":126.7088822,"totalSpaces":44,"isFree":true,"operatingDays":"평일+토요일+공휴일","weekdayOpen":"00:00","weekdayClose":"23:59","weekendOpen":"00:00","weekendClose":"23:59","holidayOpen":"00:00","holidayClose":"23:59","feeInfo":"무료","phone":"061-339-8842","updatedAt":"2025-07-28","sido":"전라남도","sigungu":"나주시","dong":"이창동"},{"name":"풍물시장 제4공영주차장","type":"공영","category":"노외","address":"전라남도 나주시 이창동 764번지","lat":34.992111,"lng":126.7072901,"totalSpaces":41,"isFree":true,"operatingDays":"평일+토요일+공휴일","weekdayOpen":"00:00","weekdayClose":"23:59","weekendOpen":"00:00","weekendClose":"23:59","holidayOpen":"00:00","holidayClose":"23:59","feeInfo":"무료","phone":"061-339-8825","updatedAt":"2025-07-28","sido":"전라남도","sigungu":"나주시","dong":"이창동"},{"name":"송월주공아파트앞주차장","type":"공영","category":"노외","address":"전라남도 나주시 송월동 650-5번지","lat":35.026576,"lng":126.715568,"totalSpaces":40,"isFree":true,"operatingDays":"평일+토요일+공휴일","weekdayOpen":"00:00","weekdayClose":"23:59","weekendOpen":"00:00","weekendClose":"23:59","holidayOpen":"00:00","holidayClose":"23:59","feeInfo":"무료","phone":"061-339-8842","updatedAt":"2025-07-28","sido":"전라남도","sigungu":"나주시","dong":"송월동"},{"name":"이창사거리인근주차장","type":"공영","category":"노외","address":"전라남도 나주시 이창동 160-1번지","lat":34.9961559,"lng":126.7135964,"totalSpaces":37,"isFree":true,"operatingDays":"평일+토요일+공휴일","weekdayOpen":"00:00","weekdayClose":"23:59","weekendOpen":"00:00","weekendClose":"23:59","holidayOpen":"00:00","holidayClose":"23:59","feeInfo":"무료","phone":"061-339-8842","updatedAt":"2025-07-28","sido":"전라남도","sigungu":"나주시","dong":"이창동"},{"name":"M-STAY 호텔뒤편주차장","type":"공영","category":"노외","address":"전라남도 나주시 송월동 1499번지","lat":35.015768,"lng":126.717762,"totalSpaces":36,"isFree":true,"operatingDays":"평일+토요일+공휴일","weekdayOpen":"00:00","weekdayClose":"23:59","weekendOpen":"00:00","weekendClose":"23:59","holidayOpen":"00:00","holidayClose":"23:59","feeInfo":"무료","phone":"061-339-8842","updatedAt":"2025-07-28","sido":"전라남도","sigungu":"나주시","dong":"송월동"},{"name":"빛가람동행정복지센터주차장","type":"공영","category":"노외","address":"전라남도 나주시 빛가람동 202번지","lat":35.0222063,"lng":126.7906417,"totalSpaces":36,"isFree":true,"operatingDays":"평일+토요일+공휴일","weekdayOpen":"00:00","weekdayClose":"23:59","weekendOpen":"00:00","weekendClose":"23:59","holidayOpen":"00:00","holidayClose":"23:59","feeInfo":"무료","phone":"061-339-8842","updatedAt":"2025-07-28","sido":"전라남도","sigungu":"나주시","dong":"빛가람동"},{"name":"영산포공영터미널뒤주차장","type":"공영","category":"노외","address":"전라남도 나주시 이창동 751-2번지","lat":34.994857,"lng":126.7115691,"totalSpaces":36,"isFree":true,"operatingDays":"평일+토요일+공휴일","weekdayOpen":"00:00","weekdayClose":"23:59","weekendOpen":"00:00","weekendClose":"23:59","holidayOpen":"00:00","holidayClose":"23:59","feeInfo":"무료","phone":"061-339-8842","updatedAt":"2025-07-28","sido":"전라남도","sigungu":"나주시","dong":"이창동"},{"name":"남고문인근주차장","type":"공영","category":"노외","address":"전라남도 나주시 남외동 61-2번지","lat":35.028411,"lng":126.7207793,"totalSpaces":35,"isFree":true,"operatingDays":"평일+토요일+공휴일","weekdayOpen":"00:00","weekdayClose":"23:59","weekendOpen":"00:00","weekendClose":"23:59","holidayOpen":"00:00","holidayClose":"23:59","feeInfo":"무료","phone":"061-339-8842","updatedAt":"2025-07-28","sido":"전라남도","sigungu":"나주시","dong":"남외동"},{"name":"탁구회관 옆 공영주차장","type":"공영","category":"노외","address":"전라남도 나주시 과원동 48번지","lat":35.0350798,"lng":126.7165955,"totalSpaces":34,"isFree":true,"operatingDays":"평일+토요일+공휴일","weekdayOpen":"00:00","weekdayClose":"23:59","weekendOpen":"00:00","weekendClose":"23:59","holidayOpen":"00:00","holidayClose":"23:59","feeInfo":"무료","phone":"061-339-8842","updatedAt":"2025-07-28","sido":"전라남도","sigungu":"나주시","dong":"과원동"},{"name":"봉황면행정복지센터앞주차장","type":"공영","category":"노외","address":"전라남도 나주시 봉황면 죽석리 552번지","lat":34.9577632,"lng":126.7839423,"totalSpaces":34,"isFree":true,"operatingDays":"평일+토요일+공휴일","weekdayOpen":"00:00","weekdayClose":"23:59","weekendOpen":"00:00","weekendClose":"23:59","holidayOpen":"00:00","holidayClose":"23:59","feeInfo":"무료","phone":"061-339-8842","updatedAt":"2025-07-28","sido":"전라남도","sigungu":"나주시","dong":"봉황면"},{"name":"남평광촌분교건너편주차장","type":"공영","category":"노외","address":"전라남도 나주시 남평읍 광촌리 694-4번지","lat":35.0540074,"lng":126.868426,"totalSpaces":34,"isFree":true,"operatingDays":"평일+토요일+공휴일","weekdayOpen":"00:00","weekdayClose":"23:59","weekendOpen":"00:00","weekendClose":"23:59","holidayOpen":"00:00","holidayClose":"23:59","feeInfo":"무료","phone":"061-339-8842","updatedAt":"2025-07-28","sido":"전라남도","sigungu":"나주시","dong":"남평읍"},{"name":"이창동행정복지센터앞주차장","type":"공영","category":"노외","address":"전라남도 나주시 이창동 511-9번지","lat":34.9971654,"lng":126.7101547,"totalSpaces":34,"isFree":true,"operatingDays":"평일+토요일+공휴일","weekdayOpen":"00:00","weekdayClose":"23:59","weekendOpen":"00:00","weekendClose":"23:59","holidayOpen":"00:00","holidayClose":"23:59","feeInfo":"무료","phone":"061-339-8842","updatedAt":"2025-07-28","sido":"전라남도","sigungu":"나주시","dong":"이창동"},{"name":"송월주공아파트인근주차장","type":"공영","category":"노외","address":"전라남도 나주시 송월동 648-3번지","lat":35.026857,"lng":126.7154701,"totalSpaces":33,"isFree":true,"operatingDays":"평일+토요일+공휴일","weekdayOpen":"00:00","weekdayClose":"23:59","weekendOpen":"00:00","weekendClose":"23:59","holidayOpen":"00:00","holidayClose":"23:59","feeInfo":"무료","phone":"061-339-8842","updatedAt":"2025-07-28","sido":"전라남도","sigungu":"나주시","dong":"송월동"},{"name":"영산포버스터미널건너편주차장","type":"공영","category":"노외","address":"전라남도 나주시 이창동 186-1번지","lat":34.994246,"lng":126.7133047,"totalSpaces":32,"isFree":true,"operatingDays":"평일+토요일+공휴일","weekdayOpen":"00:00","weekdayClose":"23:59","weekendOpen":"00:00","weekendClose":"23:59","holidayOpen":"00:00","holidayClose":"23:59","feeInfo":"무료","phone":"061-339-8842","updatedAt":"2025-07-28","sido":"전라남도","sigungu":"나주시","dong":"이창동"},{"name":"다시초등학교옆주차장","type":"공영","category":"노외","address":"전라남도 나주시 다시면 월태리 574번지","lat":35.017311,"lng":126.6388959,"totalSpaces":31,"isFree":true,"operatingDays":"평일+토요일+공휴일","weekdayOpen":"00:00","weekdayClose":"23:59","weekendOpen":"00:00","weekendClose":"23:59","holidayOpen":"00:00","holidayClose":"23:59","feeInfo":"무료","phone":"061-339-8842","updatedAt":"2025-07-28","sido":"전라남도","sigungu":"나주시","dong":"다시면"},{"name":"풍물시장 제1공영주차장","type":"공영","category":"노외","address":"전라남도 나주시 이창동 731-2번지","lat":34.9928553,"lng":126.7069056,"totalSpaces":29,"isFree":true,"operatingDays":"평일+토요일+공휴일","weekdayOpen":"00:00","weekdayClose":"23:59","weekendOpen":"00:00","weekendClose":"23:59","holidayOpen":"00:00","holidayClose":"23:59","feeInfo":"무료","phone":"061-339-8825","updatedAt":"2025-07-28","sido":"전라남도","sigungu":"나주시","dong":"이창동"},{"name":"풍물시장 제3공영주차장","type":"공영","category":"노외","address":"전라남도 나주시 이창동 763-4번지","lat":34.9918469,"lng":126.7080227,"totalSpaces":28,"isFree":true,"operatingDays":"평일+토요일+공휴일","weekdayOpen":"00:00","weekdayClose":"23:59","weekendOpen":"00:00","weekendClose":"23:59","holidayOpen":"00:00","holidayClose":"23:59","feeInfo":"무료","phone":"061-339-8825","updatedAt":"2025-07-28","sido":"전라남도","sigungu":"나주시","dong":"이창동"},{"name":"동강농협앞주차장","type":"공영","category":"노외","address":"전라남도 나주시 동강면 월양리 198-1번지","lat":34.936671,"lng":126.564551,"totalSpaces":22,"isFree":true,"operatingDays":"평일+토요일+공휴일","weekdayOpen":"00:00","weekdayClose":"23:59","weekendOpen":"00:00","weekendClose":"23:59","holidayOpen":"00:00","holidayClose":"23:59","feeInfo":"무료","phone":"061-339-8842","updatedAt":"2025-07-28","sido":"전라남도","sigungu":"나주시","dong":"동강면"},{"name":"남평읍 동사리 양우내안애 1차 앞 공영주차장","type":"공영","category":"노외","address":"전라남도 나주시 남평읍 동사리 352-1번지","lat":35.0405071,"lng":126.8504655,"totalSpaces":20,"isFree":true,"operatingDays":"평일+토요일+공휴일","weekdayOpen":"00:00","weekdayClose":"23:59","weekendOpen":"00:00","weekendClose":"23:59","holidayOpen":"00:00","holidayClose":"23:59","feeInfo":"무료","phone":"061-339-8842","updatedAt":"2025-07-28","sido":"전라남도","sigungu":"나주시","dong":"남평읍"},{"name":"동강면행정복지센터앞주차장","type":"공영","category":"노외","address":"전라남도 나주시 동강면 인동리 368-7번지","lat":34.9391615,"lng":126.563489,"totalSpaces":20,"isFree":true,"operatingDays":"평일+토요일+공휴일","weekdayOpen":"00:00","weekdayClose":"23:59","weekendOpen":"00:00","weekendClose":"23:59","holidayOpen":"00:00","holidayClose":"23:59","feeInfo":"무료","phone":"061-339-8842","updatedAt":"2025-07-28","sido":"전라남도","sigungu":"나주시","dong":"동강면"},{"name":"(구)송월동행정복지센터앞주차장","type":"공영","category":"노외","address":"전라남도 나주시 토계동 616번지","lat":35.0168451,"lng":126.7250069,"totalSpaces":20,"isFree":true,"operatingDays":"평일+토요일+공휴일","weekdayOpen":"00:00","weekdayClose":"23:59","weekendOpen":"00:00","weekendClose":"23:59","holidayOpen":"00:00","holidayClose":"23:59","feeInfo":"무료","phone":"061-339-8842","updatedAt":"2025-07-28","sido":"전라남도","sigungu":"나주시","dong":"토계동"},{"name":"반남면행정복지센터앞주차장","type":"공영","category":"노외","address":"전라남도 나주시 반남면 흥덕리 28-7번지","lat":34.9033623,"lng":126.6520153,"totalSpaces":20,"isFree":true,"operatingDays":"평일+토요일+공휴일","weekdayOpen":"00:00","weekdayClose":"23:59","weekendOpen":"00:00","weekendClose":"23:59","holidayOpen":"00:00","holidayClose":"23:59","feeInfo":"무료","phone":"061-339-8842","updatedAt":"2025-07-28","sido":"전라남도","sigungu":"나주시","dong":"반남면"},{"name":"나주장례식장건너편주차장","type":"공영","category":"노외","address":"전라남도 나주시 대호동 1028-2번지","lat":35.042712,"lng":126.7159746,"totalSpaces":20,"isFree":true,"operatingDays":"평일+토요일+공휴일","weekdayOpen":"00:00","weekdayClose":"23:59","weekendOpen":"00:00","weekendClose":"23:59","holidayOpen":"00:00","holidayClose":"23:59","feeInfo":"무료","phone":"061-339-8842","updatedAt":"2025-07-28","sido":"전라남도","sigungu":"나주시","dong":"대호동"},{"name":"남평읍행정복지센터앞주차장","type":"공영","category":"노외","address":"전라남도 나주시 남평읍 남평리 21-7번지","lat":35.0463846,"lng":126.8441206,"totalSpaces":20,"isFree":true,"operatingDays":"평일+토요일+공휴일","weekdayOpen":"00:00","weekdayClose":"23:59","weekendOpen":"00:00","weekendClose":"23:59","holidayOpen":"00:00","holidayClose":"23:59","feeInfo":"무료","phone":"061-339-8842","updatedAt":"2025-07-28","sido":"전라남도","sigungu":"나주시","dong":"남평읍"},{"name":"영산동행정복지센터앞주차장","type":"공영","category":"노외","address":"전라남도 나주시 영산동 17-4번지","lat":34.999635,"lng":126.7142659,"totalSpaces":20,"isFree":true,"operatingDays":"평일+토요일+공휴일","weekdayOpen":"00:00","weekdayClose":"23:59","weekendOpen":"00:00","weekendClose":"23:59","holidayOpen":"00:00","holidayClose":"23:59","feeInfo":"무료","phone":"061-339-8842","updatedAt":"2025-07-28","sido":"전라남도","sigungu":"나주시","dong":"영산동"},{"name":"풍물시장 제2공영주차장","type":"공영","category":"노외","address":"전라남도 나주시 이창동 763-1번지","lat":34.9925601,"lng":126.7072777,"totalSpaces":19,"isFree":true,"operatingDays":"평일+토요일+공휴일","weekdayOpen":"00:00","weekdayClose":"23:59","weekendOpen":"00:00","weekendClose":"23:59","holidayOpen":"00:00","holidayClose":"23:59","feeInfo":"무료","phone":"061-339-8825","updatedAt":"2025-07-28","sido":"전라남도","sigungu":"나주시","dong":"이창동"},{"name":"북망문인근주차장","type":"공영","category":"노외","address":"전라남도 나주시 산정동 19-12번지","lat":35.0377332,"lng":126.7155336,"totalSpaces":18,"isFree":true,"operatingDays":"평일+토요일+공휴일","weekdayOpen":"00:00","weekdayClose":"23:59","weekendOpen":"00:00","weekendClose":"23:59","holidayOpen":"00:00","holidayClose":"23:59","feeInfo":"무료","phone":"061-339-8842","updatedAt":"2025-07-28","sido":"전라남도","sigungu":"나주시","dong":"산정동"},{"name":"왕곡면행정복지센터앞주차장","type":"공영","category":"노외","address":"전라남도 나주시 왕곡면 덕산리 590-138번지","lat":34.967789,"lng":126.6701892,"totalSpaces":18,"isFree":true,"operatingDays":"평일+토요일+공휴일","weekdayOpen":"00:00","weekdayClose":"23:59","weekendOpen":"00:00","weekendClose":"23:59","holidayOpen":"00:00","holidayClose":"23:59","feeInfo":"무료","phone":"061-339-8842","updatedAt":"2025-07-28","sido":"전라남도","sigungu":"나주시","dong":"왕곡면"},{"name":"왕곡면 본양리 마을주차장","type":"공영","category":"노외","address":"전라남도 나주시 왕곡면 본양리 134-26번지","lat":34.9687626,"lng":126.6683294,"totalSpaces":17,"isFree":true,"operatingDays":"평일+토요일+공휴일","weekdayOpen":"00:00","weekdayClose":"23:59","weekendOpen":"00:00","weekendClose":"23:59","holidayOpen":"00:00","holidayClose":"23:59","feeInfo":"무료","phone":"061-339-8842","updatedAt":"2025-07-28","sido":"전라남도","sigungu":"나주시","dong":"왕곡면"},{"name":"남평읍 동사리 중우하나린 정문 앞 공영주차장","type":"공영","category":"노외","address":"전라남도 나주시 남평읍 동사리 360-3번지","lat":35.0405071,"lng":126.8514528,"totalSpaces":16,"isFree":true,"operatingDays":"평일+토요일+공휴일","weekdayOpen":"00:00","weekdayClose":"23:59","weekendOpen":"00:00","weekendClose":"23:59","holidayOpen":"00:00","holidayClose":"23:59","feeInfo":"무료","phone":"061-339-8842","updatedAt":"2025-07-28","sido":"전라남도","sigungu":"나주시","dong":"남평읍"},{"name":"남평읍 동사리 중우하나린 공영주차장","type":"공영","category":"노외","address":"전라남도 나주시 남평읍 동사리 359-2번지","lat":35.0409472,"lng":126.8504655,"totalSpaces":16,"isFree":true,"operatingDays":"평일+토요일+공휴일","weekdayOpen":"00:00","weekdayClose":"23:59","weekendOpen":"00:00","weekendClose":"23:59","holidayOpen":"00:00","holidayClose":"23:59","feeInfo":"무료","phone":"061-339-8842","updatedAt":"2025-07-28","sido":"전라남도","sigungu":"나주시","dong":"남평읍"},{"name":"공산면행정복지센터앞주차장","type":"공영","category":"노외","address":"전라남도 나주시 공산면 금곡리 865-6번지","lat":34.9428674,"lng":126.6087176,"totalSpaces":16,"isFree":true,"operatingDays":"평일+토요일+공휴일","weekdayOpen":"00:00","weekdayClose":"23:59","weekendOpen":"00:00","weekendClose":"23:59","holidayOpen":"00:00","holidayClose":"23:59","feeInfo":"무료","phone":"061-339-8842","updatedAt":"2025-07-28","sido":"전라남도","sigungu":"나주시","dong":"공산면"},{"name":"이창동제일교회주차장","type":"공영","category":"노외","address":"전라남도 나주시 이창동 108-25번지","lat":34.9965925,"lng":126.7150826,"totalSpaces":15,"isFree":true,"operatingDays":"평일+토요일+공휴일","weekdayOpen":"00:00","weekdayClose":"23:59","weekendOpen":"00:00","weekendClose":"23:59","holidayOpen":"00:00","holidayClose":"23:59","feeInfo":"무료","phone":"061-339-8842","updatedAt":"2025-07-28","sido":"전라남도","sigungu":"나주시","dong":"이창동"},{"name":"다시샛골시장 제1공영주차장","type":"공영","category":"노외","address":"전라남도 나주시 다시면 동곡리 39-46번지","lat":35.0157449,"lng":126.6356572,"totalSpaces":14,"isFree":true,"operatingDays":"평일+토요일+공휴일","weekdayOpen":"00:00","weekdayClose":"23:59","weekendOpen":"00:00","weekendClose":"23:59","holidayOpen":"00:00","holidayClose":"23:59","feeInfo":"무료","phone":"061-339-8825","updatedAt":"2025-07-28","sido":"전라남도","sigungu":"나주시","dong":"다시면"},{"name":"다도농촌지도소앞주차장","type":"공영","category":"노외","address":"전라남도 나주시 다도면 신동리 313-9번지","lat":34.9461458,"lng":126.826944,"totalSpaces":14,"isFree":true,"operatingDays":"평일+토요일+공휴일","weekdayOpen":"00:00","weekdayClose":"23:59","weekendOpen":"00:00","weekendClose":"23:59","holidayOpen":"00:00","holidayClose":"23:59","feeInfo":"무료","phone":"061-339-8842","updatedAt":"2025-07-28","sido":"전라남도","sigungu":"나주시","dong":"다도면"},{"name":"영산홍가옆주차장","type":"공영","category":"노외","address":"전라남도 나주시 영산동 266-2번지","lat":34.9985659,"lng":126.7100641,"totalSpaces":12,"isFree":true,"operatingDays":"평일+토요일+공휴일","weekdayOpen":"00:00","weekdayClose":"23:59","weekendOpen":"00:00","weekendClose":"23:59","holidayOpen":"00:00","holidayClose":"23:59","feeInfo":"무료","phone":"061-339-8842","updatedAt":"2025-07-28","sido":"전라남도","sigungu":"나주시","dong":"영산동"},{"name":"나주초교앞주차장","type":"공영","category":"노외","address":"전라남도 나주시 남외동 128-5번지","lat":35.0278932,"lng":126.719996,"totalSpaces":12,"isFree":true,"operatingDays":"평일+토요일+공휴일","weekdayOpen":"00:00","weekdayClose":"23:59","weekendOpen":"00:00","weekendClose":"23:59","holidayOpen":"00:00","holidayClose":"23:59","feeInfo":"무료","phone":"061-339-8842","updatedAt":"2025-07-28","sido":"전라남도","sigungu":"나주시","dong":"남외동"},{"name":"영산포우체국주차장","type":"공영","category":"노외","address":"전라남도 나주시 영산동 260번지","lat":34.9986307,"lng":126.7094474,"totalSpaces":12,"isFree":true,"operatingDays":"평일","weekdayOpen":"00:00","weekdayClose":"23:59","weekendOpen":"00:00","weekendClose":"00:00","holidayOpen":"00:00","holidayClose":"00:00","feeInfo":"무료","phone":"061-339-8842","updatedAt":"2025-07-28","sido":"전라남도","sigungu":"나주시","dong":"영산동"},{"name":"송월동남양휴튼옆주차장","type":"공영","category":"노외","address":"전라남도 나주시 송월동 678-1번지","lat":35.0263805,"lng":126.7147172,"totalSpaces":10,"isFree":true,"operatingDays":"평일+토요일+공휴일","weekdayOpen":"00:00","weekdayClose":"23:59","weekendOpen":"00:00","weekendClose":"23:59","holidayOpen":"00:00","holidayClose":"23:59","feeInfo":"무료","phone":"061-339-8842","updatedAt":"2025-07-28","sido":"전라남도","sigungu":"나주시","dong":"송월동"},{"name":"노안현애원마을회관앞주차장","type":"공영","category":"노외","address":"전라남도 나주시 노안면 유곡리 산 33번지","lat":35.1034414,"lng":126.7402263,"totalSpaces":10,"isFree":true,"operatingDays":"평일+토요일+공휴일","weekdayOpen":"00:00","weekdayClose":"23:59","weekendOpen":"00:00","weekendClose":"23:59","holidayOpen":"00:00","holidayClose":"23:59","feeInfo":"무료","phone":"061-339-8842","updatedAt":"2025-07-28","sido":"전라남도","sigungu":"나주시","dong":"노안면"},{"name":"문평면소재지삼거리주차장","type":"공영","category":"노외","address":"전라남도 나주시 문평면 안곡리 62-4번지","lat":35.0573887,"lng":126.6029373,"totalSpaces":10,"isFree":true,"operatingDays":"평일+토요일+공휴일","weekdayOpen":"00:00","weekdayClose":"23:59","weekendOpen":"00:00","weekendClose":"23:59","holidayOpen":"00:00","holidayClose":"23:59","feeInfo":"무료","phone":"061-339-8842","updatedAt":"2025-07-28","sido":"전라남도","sigungu":"나주시","dong":"문평면"},{"name":"왕곡장산촌곡회관옆주차장","type":"공영","category":"노외","address":"전라남도 나주시 왕곡면 장산리 570-3번지","lat":34.9753642,"lng":126.7050689,"totalSpaces":10,"isFree":true,"operatingDays":"평일+토요일+공휴일","weekdayOpen":"00:00","weekdayClose":"23:59","weekendOpen":"00:00","weekendClose":"23:59","holidayOpen":"00:00","holidayClose":"23:59","feeInfo":"무료","phone":"061-339-8842","updatedAt":"2025-07-28","sido":"전라남도","sigungu":"나주시","dong":"왕곡면"},{"name":"세왕아파트앞주차장","type":"공영","category":"노외","address":"전라남도 나주시 중앙동 87-3번지","lat":35.0328076,"lng":126.7205263,"totalSpaces":10,"isFree":true,"operatingDays":"평일+토요일+공휴일","weekdayOpen":"00:00","weekdayClose":"23:59","weekendOpen":"00:00","weekendClose":"23:59","holidayOpen":"00:00","holidayClose":"23:59","feeInfo":"무료","phone":"061-339-8842","updatedAt":"2025-07-28","sido":"전라남도","sigungu":"나주시","dong":"중앙동"},{"name":"영산포여자중학교앞주차장","type":"공영","category":"노외","address":"전라남도 나주시 이창동 153-8번지","lat":34.9956382,"lng":126.7121249,"totalSpaces":10,"isFree":true,"operatingDays":"평일+토요일+공휴일","weekdayOpen":"00:00","weekdayClose":"23:59","weekendOpen":"00:00","weekendClose":"23:59","holidayOpen":"00:00","holidayClose":"23:59","feeInfo":"무료","phone":"061-339-8842","updatedAt":"2025-07-28","sido":"전라남도","sigungu":"나주시","dong":"이창동"},{"name":"노안면 유곡리 감정마을 공영주차장","type":"공영","category":"노외","address":"전라남도 나주시 노안면 유곡리 59번지","lat":34.9687626,"lng":126.6683294,"totalSpaces":8,"isFree":true,"operatingDays":"평일+토요일+공휴일","weekdayOpen":"00:00","weekdayClose":"23:59","weekendOpen":"00:00","weekendClose":"23:59","holidayOpen":"00:00","holidayClose":"23:59","feeInfo":"무료","phone":"061-339-8842","updatedAt":"2025-07-28","sido":"전라남도","sigungu":"나주시","dong":"노안면"},{"name":"대호동대방2차옆주차장","type":"공영","category":"노외","address":"전라남도 나주시 대호동 1034-5번지","lat":35.042309,"lng":126.717164,"totalSpaces":8,"isFree":true,"operatingDays":"평일+토요일+공휴일","weekdayOpen":"00:00","weekdayClose":"23:59","weekendOpen":"00:00","weekendClose":"23:59","holidayOpen":"00:00","holidayClose":"23:59","feeInfo":"무료","phone":"061-339-8842","updatedAt":"2025-07-28","sido":"전라남도","sigungu":"나주시","dong":"대호동"},{"name":"남평하남마을회관주차장","type":"공영","category":"노외","address":"전라남도 나주시 남평읍 남석리 807-2번지","lat":35.017868,"lng":126.858023,"totalSpaces":7,"isFree":true,"operatingDays":"평일+토요일+공휴일","weekdayOpen":"00:00","weekdayClose":"23:59","weekendOpen":"00:00","weekendClose":"23:59","holidayOpen":"00:00","holidayClose":"23:59","feeInfo":"무료","phone":"061-339-8842","updatedAt":"2025-07-28","sido":"전라남도","sigungu":"나주시","dong":"남평읍"},{"name":"영산나루카페앞주차장","type":"공영","category":"노외","address":"전라남도 나주시 영산동 306-30번지","lat":34.9978281,"lng":126.7059283,"totalSpaces":6,"isFree":true,"operatingDays":"평일+토요일+공휴일","weekdayOpen":"00:00","weekdayClose":"23:59","weekendOpen":"00:00","weekendClose":"23:59","holidayOpen":"00:00","holidayClose":"23:59","feeInfo":"무료","phone":"061-339-8842","updatedAt":"2025-07-28","sido":"전라남도","sigungu":"나주시","dong":"영산동"},{"name":"영강동행정복지센터앞주차장","type":"공영","category":"노외","address":"전라남도 나주시 삼영동 154-10번지","lat":35.0035756,"lng":126.707165,"totalSpaces":6,"isFree":true,"operatingDays":"평일+토요일+공휴일","weekdayOpen":"00:00","weekdayClose":"23:59","weekendOpen":"00:00","weekendClose":"23:59","holidayOpen":"00:00","holidayClose":"23:59","feeInfo":"무료","phone":"061-339-8842","updatedAt":"2025-07-28","sido":"전라남도","sigungu":"나주시","dong":"삼영동"}]}