{"sido":"전라남도","sigungu":"여수시","totalCount":37,"validCount":37,"items":[{"name":"웅천 친수공원","type":"공영","category":"노외","address":"전라남도 여수시 웅천동 1691","lat":34.74801493,"lng":127.6685427,"totalSpaces":517,"isFree":false,"operatingDays":"평일+토요일+공휴일","weekdayOpen":"08:00","weekdayClose":"23:00","weekendOpen":"08:00","weekendClose":"23:00","holidayOpen":"08:00","holidayClose":"23:00","feeInfo":"기본 10분 200원 / 추가 10분당 200원","phone":"061-681-4364","updatedAt":"2024-06-03","sido":"전라남도","sigungu":"여수시","dong":"웅천동"},{"name":"화장동","type":"공영","category":"노외","address":"전라남도 여수시 성산1길 16(화장동)","lat":34.7762566,"lng":127.6483408,"totalSpaces":295,"isFree":false,"operatingDays":"평일+토요일+공휴일","weekdayOpen":"08:00","weekdayClose":"23:00","weekendOpen":"08:00","weekendClose":"23:00","holidayOpen":"08:00","holidayClose":"23:00","feeInfo":"기본 10분 200원 / 추가 10분당 200원","phone":"061-681-4364","updatedAt":"2024-06-03","sido":"전라남도","sigungu":"여수시","dong":"화장동"},{"name":"여문공원","type":"공영","category":"노외","address":"전라남도 여수시 문수로 53-32","lat":34.7542288,"lng":127.7010727,"totalSpaces":253,"isFree":false,"operatingDays":"평일+토요일+공휴일","weekdayOpen":"08:00","weekdayClose":"23:00","weekendOpen":"08:00","weekendClose":"23:00","holidayOpen":"08:00","holidayClose":"23:00","feeInfo":"기본 10분 200원 / 추가 10분당 200원","phone":"061-643-5972","updatedAt":"2024-06-03","sido":"전라남도","sigungu":"여수시","dong":"문수동"},{"name":"돌산공원","type":"공영","category":"노외","address":"전라남도 여수시 돌산읍 우두리 799-76","lat":34.73083861,"lng":127.7401881,"totalSpaces":249,"isFree":false,"operatingDays":"평일+토요일+공휴일","weekdayOpen":"08:00","weekdayClose":"23:00","weekendOpen":"08:00","weekendClose":"23:00","holidayOpen":"08:00","holidayClose":"23:00","feeInfo":"기본 10분 200원 / 추가 10분당 200원","phone":"061-643-5972","updatedAt":"2024-06-03","sido":"전라남도","sigungu":"여수시","dong":"돌산읍"},{"name":"오동도","type":"공영","category":"노외","address":"전라남도 여수시 오동도로 116","lat":34.74095303,"lng":127.7537041,"totalSpaces":246,"isFree":false,"operatingDays":"평일+토요일+공휴일","weekdayOpen":"08:00","weekdayClose":"23:00","weekendOpen":"08:00","weekendClose":"23:00","holidayOpen":"08:00","holidayClose":"23:00","feeInfo":"기본 10분 200원 / 추가 10분당 200원","phone":"061-643-5972","updatedAt":"2024-06-03","sido":"전라남도","sigungu":"여수시","dong":"수정동"},{"name":"서교동","type":"공영","category":"노외","address":"전라남도 여수시 진남로 9-1","lat":34.74318367,"lng":127.7291173,"totalSpaces":241,"isFree":false,"operatingDays":"평일+토요일+공휴일","weekdayOpen":"08:00","weekdayClose":"23:00","weekendOpen":"08:00","weekendClose":"23:00","holidayOpen":"08:00","holidayClose":"23:00","feeInfo":"기본 10분 200원 / 추가 10분당 200원","phone":"061-643-5972","updatedAt":"2024-06-03","sido":"전라남도","sigungu":"여수시","dong":"서교동"},{"name":"학동선소상가 1","type":"공영","category":"노외","address":"전라남도 여수시 시청동3길 31(학동)","lat":34.75752965,"lng":127.664567,"totalSpaces":238,"isFree":false,"operatingDays":"평일+토요일+공휴일","weekdayOpen":"08:00","weekdayClose":"23:00","weekendOpen":"08:00","weekendClose":"23:00","holidayOpen":"08:00","holidayClose":"23:00","feeInfo":"기본 10분 200원 / 추가 10분당 200원","phone":"061-681-4364","updatedAt":"2024-06-03","sido":"전라남도","sigungu":"여수시","dong":"학동"},{"name":"흥국체육관","type":"공영","category":"노외","address":"전라남도 여수시 선소로87(학동)","lat":34.760568,"lng":127.6679636,"totalSpaces":221,"isFree":false,"operatingDays":"평일+토요일+공휴일","weekdayOpen":"08:00","weekdayClose":"23:00","weekendOpen":"08:00","weekendClose":"23:00","holidayOpen":"08:00","holidayClose":"23:00","feeInfo":"기본 10분 200원 / 추가 10분당 200원","phone":"061-681-4364","updatedAt":"2024-06-03","sido":"전라남도","sigungu":"여수시","dong":"학동"},{"name":"선소","type":"공영","category":"노외","address":"전라남도 여수시 선소마을길 33(시전동)","lat":34.7549774,"lng":127.6621943,"totalSpaces":217,"isFree":false,"operatingDays":"평일+토요일+공휴일","weekdayOpen":"08:00","weekdayClose":"23:00","weekendOpen":"08:00","weekendClose":"23:00","holidayOpen":"08:00","holidayClose":"23:00","feeInfo":"기본 10분 200원 / 추가 10분당 200원","phone":"061-681-4364","updatedAt":"2024-06-03","sido":"전라남도","sigungu":"여수시","dong":"시전동"},{"name":"여문","type":"공영","category":"노외","address":"전라남도 여수시 여문2로 183(여서동)","lat":34.7506818,"lng":127.7030646,"totalSpaces":163,"isFree":false,"operatingDays":"평일+토요일+공휴일","weekdayOpen":"08:00","weekdayClose":"23:00","weekendOpen":"08:00","weekendClose":"23:00","holidayOpen":"08:00","holidayClose":"23:00","feeInfo":"기본 10분 200원 / 추가 10분당 200원","phone":"061-643-5972","updatedAt":"2024-06-03","sido":"전라남도","sigungu":"여수시","dong":"여서동"},{"name":"백야항","type":"공영","category":"노외","address":"전라남도 여수시 화정면 백야리 58-11","lat":34.62048587,"lng":127.6411598,"totalSpaces":160,"isFree":false,"operatingDays":"평일+토요일+공휴일","weekdayOpen":"08:00","weekdayClose":"23:00","weekendOpen":"08:00","weekendClose":"23:00","holidayOpen":"08:00","holidayClose":"23:00","feeInfo":"기본 10분 200원 / 추가 10분당 200원","phone":"061-681-4364","updatedAt":"2024-06-03","sido":"전라남도","sigungu":"여수시","dong":"화정면"},{"name":"수산시장3","type":"공영","category":"노외","address":"전라남도 여수시 남산동 1165","lat":34.73840114,"lng":127.7295502,"totalSpaces":148,"isFree":false,"operatingDays":"평일+토요일+공휴일","weekdayOpen":"08:00","weekdayClose":"23:00","weekendOpen":"08:00","weekendClose":"23:00","holidayOpen":"08:00","holidayClose":"23:00","feeInfo":"기본 10분 200원 / 추가 10분당 200원","phone":"061-643-5972","updatedAt":"2024-06-03","sido":"전라남도","sigungu":"여수시","dong":"남산동"},{"name":"선원동","type":"공영","category":"노외","address":"전라남도 여수시 무선8길 18(선원동)","lat":34.77570458,"lng":127.6508227,"totalSpaces":122,"isFree":false,"operatingDays":"평일+토요일+공휴일","weekdayOpen":"08:00","weekdayClose":"23:00","weekendOpen":"08:00","weekendClose":"23:00","holidayOpen":"08:00","holidayClose":"23:00","feeInfo":"기본 10분 200원 / 추가 10분당 200원","phone":"061-681-4364","updatedAt":"2024-06-03","sido":"전라남도","sigungu":"여수시","dong":"선원동"},{"name":"서교연등천","type":"공영","category":"노외","address":"전라남도 여수시 연등1길 23-1(연등동)","lat":34.7486941,"lng":127.728693,"totalSpaces":114,"isFree":false,"operatingDays":"평일+토요일+공휴일","weekdayOpen":"08:00","weekdayClose":"23:00","weekendOpen":"08:00","weekendClose":"23:00","holidayOpen":"08:00","holidayClose":"23:00","feeInfo":"기본 10분 200원 / 추가 10분당 200원","phone":"061-643-5972","updatedAt":"2024-06-03","sido":"전라남도","sigungu":"여수시","dong":"연등동"},{"name":"동백","type":"공영","category":"노외","address":"전라남도 여수시 오동도로 98","lat":34.74191359,"lng":127.751642,"totalSpaces":112,"isFree":false,"operatingDays":"평일+토요일+공휴일","weekdayOpen":"08:00","weekdayClose":"23:00","weekendOpen":"08:00","weekendClose":"23:00","holidayOpen":"08:00","holidayClose":"23:00","feeInfo":"기본 10분 200원 / 추가 10분당 200원","phone":"061-643-5972","updatedAt":"2024-06-03","sido":"전라남도","sigungu":"여수시","dong":"수정동"},{"name":"이순신광장","type":"공영","category":"노외","address":"전라남도 여수시 선어시장길 5(중앙동)","lat":34.7395329,"lng":127.7366921,"totalSpaces":103,"isFree":false,"operatingDays":"평일+토요일+공휴일","weekdayOpen":"08:00","weekdayClose":"23:00","weekendOpen":"08:00","weekendClose":"23:00","holidayOpen":"08:00","holidayClose":"23:00","feeInfo":"기본 10분 200원 / 추가 10분당 200원","phone":"061-643-5972","updatedAt":"2024-06-03","sido":"전라남도","sigungu":"여수시","dong":"중앙동"},{"name":"진남관","type":"공영","category":"노외","address":"전라남도 여수시 동문로 11(군자동)","lat":34.7413383,"lng":127.7365704,"totalSpaces":102,"isFree":false,"operatingDays":"평일+토요일+공휴일","weekdayOpen":"08:00","weekdayClose":"23:00","weekendOpen":"08:00","weekendClose":"23:00","holidayOpen":"08:00","holidayClose":"23:00","feeInfo":"기본 10분 200원 / 추가 10분당 200원","phone":"061-643-5972","updatedAt":"2024-06-03","sido":"전라남도","sigungu":"여수시","dong":"중앙동"},{"name":"학동선소상가 3","type":"공영","category":"노외","address":"전라남도 여수시 시청동3길 10(학동)","lat":34.7592661,"lng":127.6655631,"totalSpaces":102,"isFree":false,"operatingDays":"평일+토요일+공휴일","weekdayOpen":"08:00","weekdayClose":"23:00","weekendOpen":"08:00","weekendClose":"23:00","holidayOpen":"08:00","holidayClose":"23:00","feeInfo":"기본 10분 200원 / 추가 10분당 200원","phone":"061-681-4364","updatedAt":"2024-06-03","sido":"전라남도","sigungu":"여수시","dong":"학동"},{"name":"진남상가","type":"공영","category":"노외","address":"전라남도 여수시 교동 221","lat":34.74144005,"lng":127.7350333,"totalSpaces":99,"isFree":false,"operatingDays":"평일+토요일+공휴일","weekdayOpen":"08:00","weekdayClose":"23:00","weekendOpen":"08:00","weekendClose":"23:00","holidayOpen":"08:00","holidayClose":"23:00","feeInfo":"기본 10분 200원 / 추가 10분당 200원","phone":"061-643-5972","updatedAt":"2024-06-03","sido":"전라남도","sigungu":"여수시","dong":"교동"},{"name":"시청로터리","type":"공영","category":"노외","address":"전라남도 여수시 학동 158","lat":34.761462,"lng":127.6641705,"totalSpaces":90,"isFree":false,"operatingDays":"평일+토요일+공휴일","weekdayOpen":"08:00","weekdayClose":"23:00","weekendOpen":"08:00","weekendClose":"23:00","holidayOpen":"08:00","holidayClose":"23:00","feeInfo":"기본 10분 200원 / 추가 10분당 200원","phone":"061-681-4364","updatedAt":"2024-06-03","sido":"전라남도","sigungu":"여수시","dong":"학동"},{"name":"박람회장 정문 앞","type":"공영","category":"노외","address":"전라남도 여수시 동문로 141(공화동)","lat":34.74858537,"lng":127.744773,"totalSpaces":87,"isFree":false,"operatingDays":"평일+토요일+공휴일","weekdayOpen":"08:00","weekdayClose":"23:00","weekendOpen":"08:00","weekendClose":"23:00","holidayOpen":"08:00","holidayClose":"23:00","feeInfo":"기본 10분 200원 / 추가 10분당 200원","phone":"061-681-4364","updatedAt":"2024-06-03","sido":"전라남도","sigungu":"여수시","dong":"공화동"},{"name":"용기공원","type":"공영","category":"노외","address":"전라남도 여수시 시청서1길 54-3(학동)","lat":34.75736177,"lng":127.6596333,"totalSpaces":83,"isFree":false,"operatingDays":"평일+토요일+공휴일","weekdayOpen":"08:00","weekdayClose":"23:00","weekendOpen":"08:00","weekendClose":"23:00","holidayOpen":"08:00","holidayClose":"23:00","feeInfo":"기본 10분 200원 / 추가 10분당 200원","phone":"061-681-4364","updatedAt":"2024-06-03","sido":"전라남도","sigungu":"여수시","dong":"학동"},{"name":"향일암","type":"공영","category":"노외","address":"전라남도 여수시 돌산읍 향일암로 70-4","lat":34.5942698,"lng":127.804355,"totalSpaces":83,"isFree":false,"operatingDays":"평일+토요일+공휴일","weekdayOpen":"08:00","weekdayClose":"23:00","weekendOpen":"08:00","weekendClose":"23:00","holidayOpen":"08:00","holidayClose":"23:00","feeInfo":"기본 10분 200원 / 추가 10분당 200원","phone":"061-643-5972","updatedAt":"2024-06-03","sido":"전라남도","sigungu":"여수시","dong":"돌산읍"},{"name":"여서동로타리","type":"공영","category":"노외","address":"전라남도 여수시 여서1로 9(여서동)","lat":34.7495164,"lng":127.7005171,"totalSpaces":83,"isFree":false,"operatingDays":"평일+토요일+공휴일","weekdayOpen":"08:00","weekdayClose":"23:00","weekendOpen":"08:00","weekendClose":"23:00","holidayOpen":"08:00","holidayClose":"23:00","feeInfo":"기본 10분 200원 / 추가 10분당 200원","phone":"061-643-5972","updatedAt":"2024-06-03","sido":"전라남도","sigungu":"여수시","dong":"여서동"},{"name":"수산시장 1","type":"공영","category":"노외","address":"전라남도 여수시 남산남1길 13-1(남산동)","lat":34.73044104,"lng":127.7324282,"totalSpaces":81,"isFree":false,"operatingDays":"평일+토요일+공휴일","weekdayOpen":"08:00","weekdayClose":"23:00","weekendOpen":"08:00","weekendClose":"23:00","holidayOpen":"08:00","holidayClose":"23:00","feeInfo":"기본 10분 200원 / 추가 10분당 200원","phone":"061-643-5972","updatedAt":"2024-06-03","sido":"전라남도","sigungu":"여수시","dong":"남산동"},{"name":"소호요트마리나","type":"공영","category":"노외","address":"전라남도 여수시 소호로 392","lat":34.73879444,"lng":127.6508592,"totalSpaces":70,"isFree":false,"operatingDays":"평일+토요일+공휴일","weekdayOpen":"08:00","weekdayClose":"23:00","weekendOpen":"08:00","weekendClose":"23:00","holidayOpen":"08:00","holidayClose":"23:00","feeInfo":"기본 10분 200원 / 추가 10분당 200원","phone":"061-681-4364","updatedAt":"2024-06-03","sido":"전라남도","sigungu":"여수시","dong":"소호동"},{"name":"덕충동 엑스포타운","type":"공영","category":"노외","address":"전라남도 여수시 덕충동 2036","lat":34.7532792546,"lng":127.7451132072,"totalSpaces":69,"isFree":false,"operatingDays":"평일+토요일+공휴일","weekdayOpen":"08:00","weekdayClose":"23:00","weekendOpen":"08:00","weekendClose":"23:00","holidayOpen":"08:00","holidayClose":"23:00","feeInfo":"기본 10분 200원 / 추가 10분당 200원","phone":"061-643-5972","updatedAt":"2024-06-03","sido":"전라남도","sigungu":"여수시","dong":"덕충동"},{"name":"학동선소상가 4","type":"공영","category":"노외","address":"전라남도 여수시 선소로 5(학동)","lat":34.7572628,"lng":127.6625918,"totalSpaces":67,"isFree":false,"operatingDays":"평일+토요일+공휴일","weekdayOpen":"08:00","weekdayClose":"23:00","weekendOpen":"08:00","weekendClose":"23:00","holidayOpen":"08:00","holidayClose":"23:00","feeInfo":"기본 10분 200원 / 추가 10분당 200원","phone":"061-681-4364","updatedAt":"2024-06-03","sido":"전라남도","sigungu":"여수시","dong":"학동"},{"name":"이순신광장로(3)","type":"공영","category":"노상","address":"전라남도 여수시 이순신광장로 159(중앙동)","lat":34.7373365,"lng":127.7413272,"totalSpaces":56,"isFree":false,"operatingDays":"평일","weekdayOpen":"08:00","weekdayClose":"20:00","weekendOpen":"00:00","weekendClose":"00:00","holidayOpen":"00:00","holidayClose":"00:00","feeInfo":"기본 30분 500원 / 추가 30분당 500원","phone":"061-643-5972","updatedAt":"2024-06-03","sido":"전라남도","sigungu":"여수시","dong":"중앙동"},{"name":"흥국로","type":"공영","category":"노상","address":"전라남도 여수시 흥국로 24(학동)","lat":34.76253197,"lng":127.6651055,"totalSpaces":55,"isFree":false,"operatingDays":"평일+토요일+공휴일","weekdayOpen":"08:00","weekdayClose":"21:00","weekendOpen":"08:00","weekendClose":"21:00","holidayOpen":"08:00","holidayClose":"21:00","feeInfo":"기본 30분 500원 / 추가 30분당 500원","phone":"061-681-4364","updatedAt":"2024-06-03","sido":"전라남도","sigungu":"여수시","dong":"학동"},{"name":"이순신광장로(1)","type":"공영","category":"노상","address":"전라남도 여수시 이순신광장로 41(교동)","lat":34.73943764,"lng":127.7335165,"totalSpaces":42,"isFree":false,"operatingDays":"평일+토요일+공휴일","weekdayOpen":"08:00","weekdayClose":"21:00","weekendOpen":"08:00","weekendClose":"21:00","holidayOpen":"08:00","holidayClose":"21:00","feeInfo":"기본 30분 500원 / 추가 30분당 500원","phone":"061-643-5972","updatedAt":"2024-06-03","sido":"전라남도","sigungu":"여수시","dong":"교동"},{"name":"학동선소상가 2","type":"공영","category":"노외","address":"전라남도 여수시 시청동5길 20(학동)","lat":34.75800854,"lng":127.6658085,"totalSpaces":42,"isFree":false,"operatingDays":"평일+토요일+공휴일","weekdayOpen":"08:00","weekdayClose":"23:00","weekendOpen":"08:00","weekendClose":"23:00","holidayOpen":"08:00","holidayClose":"23:00","feeInfo":"기본 10분 200원 / 추가 10분당 200원","phone":"061-681-4364","updatedAt":"2024-06-03","sido":"전라남도","sigungu":"여수시","dong":"학동"},{"name":"오림동","type":"공영","category":"노외","address":"전라남도 여수시 오림동 380-2","lat":34.7592137,"lng":127.717496,"totalSpaces":28,"isFree":false,"operatingDays":"평일+토요일+공휴일","weekdayOpen":"08:00","weekdayClose":"23:00","weekendOpen":"08:00","weekendClose":"23:00","holidayOpen":"08:00","holidayClose":"23:00","feeInfo":"기본 10분 200원 / 추가 10분당 200원","phone":"061-643-5972","updatedAt":"2024-06-03","sido":"전라남도","sigungu":"여수시","dong":"오림동"},{"name":"종화동(무인정산)","type":"공영","category":"노상","address":"전라남도 여수시 종화동 1020","lat":34.73653739,"lng":127.7494945,"totalSpaces":27,"isFree":false,"operatingDays":"평일+토요일+공휴일","weekdayOpen":"08:00","weekdayClose":"17:00","weekendOpen":"08:00","weekendClose":"17:00","holidayOpen":"08:00","holidayClose":"17:00","feeInfo":"기본 30분 500원 / 추가 30분당 500원","phone":"061-659-4148","updatedAt":"2024-06-03","sido":"전라남도","sigungu":"여수시","dong":"종화동"},{"name":"이순신광장로(2)","type":"공영","category":"노상","address":"전라남도 여수시 이순신광장로 93(중앙동)","lat":34.73922874,"lng":127.7364673,"totalSpaces":24,"isFree":false,"operatingDays":"평일","weekdayOpen":"08:00","weekdayClose":"20:00","weekendOpen":"00:00","weekendClose":"00:00","holidayOpen":"00:00","holidayClose":"00:00","feeInfo":"기본 30분 500원 / 추가 30분당 500원","phone":"061-643-5972","updatedAt":"2024-06-03","sido":"전라남도","sigungu":"여수시","dong":"중앙동"},{"name":"수산시장 2","type":"공영","category":"노외","address":"전라남도 여수시 남산동 493","lat":34.73694054,"lng":127.7318364,"totalSpaces":21,"isFree":false,"operatingDays":"평일","weekdayOpen":"08:00","weekdayClose":"17:00","weekendOpen":"00:00","weekendClose":"00:00","holidayOpen":"00:00","holidayClose":"00:00","feeInfo":"기본 10분 200원 / 추가 10분당 200원","phone":"061-643-5972","updatedAt":"2024-06-03","sido":"전라남도","sigungu":"여수시","dong":"남산동"},{"name":"중앙로","type":"공영","category":"노상","address":"전라남도 여수시 군자2길 26(충무동)","lat":34.74477332,"lng":127.7320113,"totalSpaces":15,"isFree":false,"operatingDays":"평일","weekdayOpen":"08:00","weekdayClose":"20:00","weekendOpen":"00:00","weekendClose":"00:00","holidayOpen":"00:00","holidayClose":"00:00","feeInfo":"기본 30분 500원 / 추가 30분당 500원","phone":"061-643-5972","updatedAt":"2024-06-03","sido":"전라남도","sigungu":"여수시","dong":"충무동"}]}