{"sido":"전라남도","sigungu":"영암군","totalCount":49,"validCount":49,"items":[{"name":"기찬랜드","type":"공영","category":"노외","address":"전라남도 영암군 영암읍 회문리 417-2","lat":34.79321808,"lng":126.685283,"totalSpaces":557,"isFree":true,"operatingDays":"평일+토요일+공휴일","weekdayOpen":"00:00","weekdayClose":"23:59","weekendOpen":"00:00","weekendClose":"23:59","holidayOpen":"00:00","holidayClose":"23:59","feeInfo":"무료","phone":"","updatedAt":"2024-11-12","sido":"전라남도","sigungu":"영암군","dong":"영암읍"},{"name":"왕인박사","type":"공영","category":"노외","address":"전라남도 영암군 군서면 왕인로 440","lat":34.75653201,"lng":126.6291224,"totalSpaces":550,"isFree":true,"operatingDays":"평일+토요일+공휴일","weekdayOpen":"08:00","weekdayClose":"18:00","weekendOpen":"08:00","weekendClose":"18:00","holidayOpen":"08:00","holidayClose":"18:00","feeInfo":"무료","phone":"","updatedAt":"2024-11-12","sido":"전라남도","sigungu":"영암군","dong":"군서면"},{"name":"월출산 천황사 주차장","type":"민영","category":"노외","address":"전라남도 영암군 영암읍 개신리 484-47","lat":34.77763888,"lng":126.722181,"totalSpaces":250,"isFree":true,"operatingDays":"평일+토요일+공휴일","weekdayOpen":"08:00","weekdayClose":"17:00","weekendOpen":"08:00","weekendClose":"17:00","holidayOpen":"08:00","holidayClose":"17:00","feeInfo":"무료","phone":"","updatedAt":"2024-11-12","sido":"전라남도","sigungu":"영암군","dong":"영암읍"},{"name":"학산독천먹거리","type":"공영","category":"노외","address":"전라남도 영암군 학산면 독천리 1268-6","lat":34.72562385,"lng":126.5656447,"totalSpaces":200,"isFree":true,"operatingDays":"평일+토요일+공휴일","weekdayOpen":"00:00","weekdayClose":"23:59","weekendOpen":"00:00","weekendClose":"23:59","holidayOpen":"00:00","holidayClose":"23:59","feeInfo":"무료","phone":"","updatedAt":"2024-11-12","sido":"전라남도","sigungu":"영암군","dong":"학산면"},{"name":"종합스포츠타운(종합운동장)","type":"공영","category":"노외","address":"전라남도 영암군 영암읍 역리 139-2","lat":34.804227,"lng":126.7025689,"totalSpaces":200,"isFree":true,"operatingDays":"평일+토요일+공휴일","weekdayOpen":"00:00","weekdayClose":"23:59","weekendOpen":"00:00","weekendClose":"23:59","holidayOpen":"00:00","holidayClose":"23:59","feeInfo":"무료","phone":"","updatedAt":"2024-11-12","sido":"전라남도","sigungu":"영암군","dong":"영암읍"},{"name":"시종중학교~터미널","type":"공영","category":"노상","address":"전라남도 영암군 시종면 만수리 943-4","lat":34.86678738,"lng":126.609012,"totalSpaces":195,"isFree":true,"operatingDays":"평일+토요일+공휴일","weekdayOpen":"00:00","weekdayClose":"23:59","weekendOpen":"00:00","weekendClose":"23:59","holidayOpen":"00:00","holidayClose":"23:59","feeInfo":"무료","phone":"","updatedAt":"2024-11-12","sido":"전라남도","sigungu":"영암군","dong":"시종면"},{"name":"영암우체국~구터미널","type":"공영","category":"노상","address":"전라남도 영암군 영암읍 남문로 13","lat":34.79793115,"lng":126.6979549,"totalSpaces":180,"isFree":true,"operatingDays":"평일+토요일+공휴일","weekdayOpen":"00:00","weekdayClose":"23:59","weekendOpen":"00:00","weekendClose":"23:59","holidayOpen":"00:00","holidayClose":"23:59","feeInfo":"무료","phone":"","updatedAt":"2024-11-12","sido":"전라남도","sigungu":"영암군","dong":"영암읍"},{"name":"성기동군민관광지","type":"공영","category":"노외","address":"전라남도 영암군 군서면 왕인로 440","lat":34.75653201,"lng":126.6291224,"totalSpaces":163,"isFree":true,"operatingDays":"평일+토요일+공휴일","weekdayOpen":"08:00","weekdayClose":"18:00","weekendOpen":"08:00","weekendClose":"18:00","holidayOpen":"08:00","holidayClose":"18:00","feeInfo":"무료","phone":"","updatedAt":"2024-11-12","sido":"전라남도","sigungu":"영암군","dong":"군서면"},{"name":"실내체육관","type":"공영","category":"노외","address":"전라남도 영암군 영암읍 영암로 1527","lat":34.79496133,"lng":126.6969599,"totalSpaces":155,"isFree":true,"operatingDays":"평일+토요일+공휴일","weekdayOpen":"00:00","weekdayClose":"23:59","weekendOpen":"00:00","weekendClose":"23:59","holidayOpen":"00:00","holidayClose":"23:59","feeInfo":"무료","phone":"","updatedAt":"2024-11-12","sido":"전라남도","sigungu":"영암군","dong":"영암읍"},{"name":"종합스포츠타운(인조잔디축구장)","type":"공영","category":"노외","address":"전라남도 영암군 영암읍 낭주로 202-1","lat":34.806348,"lng":126.702588,"totalSpaces":151,"isFree":true,"operatingDays":"평일+토요일+공휴일","weekdayOpen":"00:00","weekdayClose":"23:59","weekendOpen":"00:00","weekendClose":"23:59","holidayOpen":"00:00","holidayClose":"23:59","feeInfo":"무료","phone":"","updatedAt":"2024-11-12","sido":"전라남도","sigungu":"영암군","dong":"영암읍"},{"name":"도갑사","type":"민영","category":"노외","address":"전라남도 영암군 군서면 도갑리 52-2","lat":34.753385,"lng":126.6594212,"totalSpaces":150,"isFree":true,"operatingDays":"평일+토요일+공휴일","weekdayOpen":"08:00","weekdayClose":"17:00","weekendOpen":"08:00","weekendClose":"17:00","holidayOpen":"08:00","holidayClose":"17:00","feeInfo":"무료","phone":"","updatedAt":"2024-11-12","sido":"전라남도","sigungu":"영암군","dong":"군서면"},{"name":"영암읍 공영주차타워","type":"공영","category":"노외","address":"전라남도 영암군 영암읍 서문안길 6","lat":34.79914356,"lng":126.695488,"totalSpaces":135,"isFree":true,"operatingDays":"평일+토요일+공휴일","weekdayOpen":"00:00","weekdayClose":"23:59","weekendOpen":"00:00","weekendClose":"23:59","holidayOpen":"00:00","holidayClose":"23:59","feeInfo":"무료","phone":"","updatedAt":"2024-11-12","sido":"전라남도","sigungu":"영암군","dong":"영암읍"},{"name":"내동천","type":"공영","category":"노외","address":"전라남도 영암군 시종면 만수리 산120-3","lat":34.869335,"lng":126.610323,"totalSpaces":130,"isFree":true,"operatingDays":"평일+토요일+공휴일","weekdayOpen":"00:00","weekdayClose":"23:59","weekendOpen":"00:00","weekendClose":"23:59","holidayOpen":"00:00","holidayClose":"23:59","feeInfo":"무료","phone":"","updatedAt":"2024-11-12","sido":"전라남도","sigungu":"영암군","dong":"시종면"},{"name":"농업박물관앞","type":"공영","category":"노외","address":"전라남도 영암군 삼호읍 녹색로 653-7","lat":34.77579115,"lng":126.4574519,"totalSpaces":130,"isFree":true,"operatingDays":"평일+토요일+공휴일","weekdayOpen":"00:00","weekdayClose":"23:59","weekendOpen":"00:00","weekendClose":"23:59","holidayOpen":"00:00","holidayClose":"23:59","feeInfo":"무료","phone":"","updatedAt":"2024-11-12","sido":"전라남도","sigungu":"영암군","dong":"삼호읍"},{"name":"영암읍성 공영주차타워","type":"공영","category":"노외","address":"전라남도 영암군 영암읍 중앙로 40","lat":34.79968037,"lng":126.6981496,"totalSpaces":128,"isFree":true,"operatingDays":"평일+토요일+공휴일","weekdayOpen":"00:00","weekdayClose":"23:59","weekendOpen":"00:00","weekendClose":"23:59","holidayOpen":"00:00","holidayClose":"23:59","feeInfo":"무료","phone":"","updatedAt":"2024-11-12","sido":"전라남도","sigungu":"영암군","dong":"영암읍"},{"name":"신북파출소~우체국","type":"공영","category":"노상","address":"전라남도 영암군 신북면 간은정로 35","lat":34.890545,"lng":126.692852,"totalSpaces":120,"isFree":true,"operatingDays":"평일+토요일+공휴일","weekdayOpen":"00:00","weekdayClose":"23:59","weekendOpen":"00:00","weekendClose":"23:59","holidayOpen":"00:00","holidayClose":"23:59","feeInfo":"무료","phone":"","updatedAt":"2024-11-12","sido":"전라남도","sigungu":"영암군","dong":"신북면"},{"name":"군청","type":"공영","category":"노외","address":"전라남도 영암군 영암읍 군청로 1","lat":34.800133,"lng":126.6968885,"totalSpaces":120,"isFree":true,"operatingDays":"평일+토요일+공휴일","weekdayOpen":"00:00","weekdayClose":"23:59","weekendOpen":"00:00","weekendClose":"23:59","holidayOpen":"00:00","holidayClose":"23:59","feeInfo":"무료","phone":"","updatedAt":"2024-11-12","sido":"전라남도","sigungu":"영암군","dong":"영암읍"},{"name":"종합스포츠타운(야구장)","type":"공영","category":"노외","address":"전라남도 영암군 영암읍 낭주로 202-2","lat":34.80724914,"lng":126.7012957,"totalSpaces":95,"isFree":true,"operatingDays":"평일+토요일+공휴일","weekdayOpen":"00:00","weekdayClose":"23:59","weekendOpen":"00:00","weekendClose":"23:59","holidayOpen":"00:00","holidayClose":"23:59","feeInfo":"무료","phone":"","updatedAt":"2024-11-12","sido":"전라남도","sigungu":"영암군","dong":"영암읍"},{"name":"군청앞","type":"공영","category":"노상","address":"전라남도 영암군 영암읍 군청로 1","lat":34.800133,"lng":126.696889,"totalSpaces":90,"isFree":true,"operatingDays":"평일+토요일+공휴일","weekdayOpen":"00:00","weekdayClose":"23:59","weekendOpen":"00:00","weekendClose":"23:59","holidayOpen":"00:00","holidayClose":"23:59","feeInfo":"무료","phone":"","updatedAt":"2024-11-12","sido":"전라남도","sigungu":"영암군","dong":"영암읍"},{"name":"종합스포츠타운(테니스장)","type":"공영","category":"노외","address":"전라남도 영암군 영암읍 낭주로 202-3","lat":34.80761586,"lng":126.7023348,"totalSpaces":88,"isFree":true,"operatingDays":"평일+토요일+공휴일","weekdayOpen":"00:00","weekdayClose":"23:59","weekendOpen":"00:00","weekendClose":"23:59","holidayOpen":"00:00","holidayClose":"23:59","feeInfo":"무료","phone":"","updatedAt":"2024-11-12","sido":"전라남도","sigungu":"영암군","dong":"영암읍"},{"name":"군서오일장터","type":"공영","category":"노외","address":"전라남도 영암군 군서면 도갑사로 21","lat":34.76273614,"lng":126.6346915,"totalSpaces":85,"isFree":true,"operatingDays":"평일+토요일+공휴일","weekdayOpen":"00:00","weekdayClose":"23:59","weekendOpen":"00:00","weekendClose":"23:59","holidayOpen":"00:00","holidayClose":"23:59","feeInfo":"무료","phone":"","updatedAt":"2024-11-12","sido":"전라남도","sigungu":"영암군","dong":"군서면"},{"name":"삼호읍사무소","type":"공영","category":"노외","address":"전라남도 영암군 삼호읍 중앙촌길 32","lat":34.745963,"lng":126.469251,"totalSpaces":85,"isFree":true,"operatingDays":"평일+토요일+공휴일","weekdayOpen":"00:00","weekdayClose":"23:59","weekendOpen":"00:00","weekendClose":"23:59","holidayOpen":"00:00","holidayClose":"23:59","feeInfo":"무료","phone":"","updatedAt":"2024-11-12","sido":"전라남도","sigungu":"영암군","dong":"삼호읍"},{"name":"삼호종합문화체육센터","type":"공영","category":"노외","address":"전라남도 영암군 삼호읍 방아제로 66","lat":34.75352132,"lng":126.4702054,"totalSpaces":78,"isFree":true,"operatingDays":"평일+토요일+공휴일","weekdayOpen":"00:00","weekdayClose":"23:59","weekendOpen":"00:00","weekendClose":"23:59","holidayOpen":"00:00","holidayClose":"23:59","feeInfo":"무료","phone":"","updatedAt":"2024-11-12","sido":"전라남도","sigungu":"영암군","dong":"삼호읍"},{"name":"동무리 임시주차장","type":"공영","category":"노외","address":"전라남도 영암군 영암읍 열무정로 27","lat":34.80004413,"lng":126.6994421,"totalSpaces":70,"isFree":true,"operatingDays":"평일+토요일+공휴일","weekdayOpen":"00:00","weekdayClose":"23:59","weekendOpen":"00:00","weekendClose":"23:59","holidayOpen":"00:00","holidayClose":"23:59","feeInfo":"무료","phone":"","updatedAt":"2024-11-12","sido":"전라남도","sigungu":"영암군","dong":"영암읍"},{"name":"삼포천","type":"공영","category":"노외","address":"전라남도 영암군 신북면 월평리 146-1","lat":34.889349,"lng":126.6911445,"totalSpaces":64,"isFree":true,"operatingDays":"평일+토요일+공휴일","weekdayOpen":"00:00","weekdayClose":"23:59","weekendOpen":"00:00","weekendClose":"23:59","holidayOpen":"00:00","holidayClose":"23:59","feeInfo":"무료","phone":"","updatedAt":"2024-11-12","sido":"전라남도","sigungu":"영암군","dong":"신북면"},{"name":"영암읍 5일시장 주차장","type":"공영","category":"노외","address":"전라남도 영암군 영암읍 동무리 39","lat":34.80073528,"lng":126.7003973,"totalSpaces":60,"isFree":true,"operatingDays":"평일+토요일+공휴일","weekdayOpen":"00:00","weekdayClose":"23:59","weekendOpen":"00:00","weekendClose":"23:59","holidayOpen":"00:00","holidayClose":"23:59","feeInfo":"무료","phone":"","updatedAt":"2024-11-12","sido":"전라남도","sigungu":"영암군","dong":"영암읍"},{"name":"종합스포츠타운(궁도장)","type":"공영","category":"노외","address":"전라남도 영암군 영암읍 낭주로 202","lat":34.80613178,"lng":126.701489,"totalSpaces":58,"isFree":true,"operatingDays":"평일+토요일+공휴일","weekdayOpen":"00:00","weekdayClose":"23:59","weekendOpen":"00:00","weekendClose":"23:59","holidayOpen":"00:00","holidayClose":"23:59","feeInfo":"무료","phone":"","updatedAt":"2024-11-12","sido":"전라남도","sigungu":"영암군","dong":"영암읍"},{"name":"정신약국~구교육청","type":"공영","category":"노상","address":"전라남도 영암군 영암읍 중앙로 28","lat":34.798806,"lng":126.6970992,"totalSpaces":51,"isFree":true,"operatingDays":"평일+토요일+공휴일","weekdayOpen":"00:00","weekdayClose":"23:59","weekendOpen":"00:00","weekendClose":"23:59","holidayOpen":"00:00","holidayClose":"23:59","feeInfo":"무료","phone":"","updatedAt":"2024-11-12","sido":"전라남도","sigungu":"영암군","dong":"영암읍"},{"name":"영산강기념탑","type":"공영","category":"노외","address":"전라남도 영암군 삼호읍 녹색로 592","lat":34.77879587,"lng":126.452476,"totalSpaces":50,"isFree":true,"operatingDays":"평일+토요일+공휴일","weekdayOpen":"00:00","weekdayClose":"23:59","weekendOpen":"00:00","weekendClose":"23:59","holidayOpen":"00:00","holidayClose":"23:59","feeInfo":"무료","phone":"","updatedAt":"2024-11-12","sido":"전라남도","sigungu":"영암군","dong":"삼호읍"},{"name":"영암국민체육센터","type":"공영","category":"노외","address":"전라남도 영암군 영암읍 여운재로 33","lat":34.80535349,"lng":126.7031429,"totalSpaces":46,"isFree":true,"operatingDays":"평일+토요일+공휴일","weekdayOpen":"00:00","weekdayClose":"23:59","weekendOpen":"00:00","weekendClose":"23:59","holidayOpen":"00:00","holidayClose":"23:59","feeInfo":"무료","phone":"","updatedAt":"2024-11-12","sido":"전라남도","sigungu":"영암군","dong":"영암읍"},{"name":"공중목욕장","type":"민영","category":"노외","address":"전라남도 영암군 시종면 태간로 15","lat":34.8678592,"lng":126.610763,"totalSpaces":40,"isFree":true,"operatingDays":"평일+토요일+공휴일","weekdayOpen":"00:00","weekdayClose":"23:59","weekendOpen":"00:00","weekendClose":"23:59","holidayOpen":"00:00","holidayClose":"23:59","feeInfo":"무료","phone":"","updatedAt":"2024-11-12","sido":"전라남도","sigungu":"영암군","dong":"시종면"},{"name":"시종면사무소","type":"공영","category":"노외","address":"전라남도 영암군 시종면 내동중앙로 41","lat":34.868583,"lng":126.607068,"totalSpaces":40,"isFree":true,"operatingDays":"평일+토요일+공휴일","weekdayOpen":"00:00","weekdayClose":"23:59","weekendOpen":"00:00","weekendClose":"23:59","holidayOpen":"00:00","holidayClose":"23:59","feeInfo":"무료","phone":"","updatedAt":"2024-11-12","sido":"전라남도","sigungu":"영암군","dong":"시종면"},{"name":"영암여객자동차터미널","type":"민영","category":"노외","address":"전라남도 영암군 영암읍 동문로 8","lat":34.79676029,"lng":126.7027454,"totalSpaces":39,"isFree":true,"operatingDays":"평일+토요일+공휴일","weekdayOpen":"00:00","weekdayClose":"23:59","weekendOpen":"00:00","weekendClose":"23:59","holidayOpen":"00:00","holidayClose":"23:59","feeInfo":"무료","phone":"","updatedAt":"2024-11-12","sido":"전라남도","sigungu":"영암군","dong":"영암읍"},{"name":"영암읍 매일시장 주차장","type":"공영","category":"노외","address":"전라남도 영암군 영암읍 동무리 154-1","lat":34.80060862,"lng":126.698056,"totalSpaces":32,"isFree":true,"operatingDays":"평일+토요일+공휴일","weekdayOpen":"00:00","weekdayClose":"23:59","weekendOpen":"00:00","weekendClose":"23:59","holidayOpen":"00:00","holidayClose":"23:59","feeInfo":"무료","phone":"","updatedAt":"2024-11-12","sido":"전라남도","sigungu":"영암군","dong":"영암읍"},{"name":"시종파출소 앞","type":"공영","category":"노외","address":"전라남도 영암군 시종면 만수리 912-4","lat":34.86863013,"lng":126.6109777,"totalSpaces":30,"isFree":true,"operatingDays":"평일+토요일+공휴일","weekdayOpen":"00:00","weekdayClose":"23:59","weekendOpen":"00:00","weekendClose":"23:59","holidayOpen":"00:00","holidayClose":"23:59","feeInfo":"무료","phone":"","updatedAt":"2024-11-12","sido":"전라남도","sigungu":"영암군","dong":"시종면"},{"name":"게이트볼장","type":"공영","category":"노외","address":"전라남도 영암군 시종면 고분로 10-7","lat":34.86828549,"lng":126.6113263,"totalSpaces":30,"isFree":true,"operatingDays":"평일+토요일+공휴일","weekdayOpen":"00:00","weekdayClose":"23:59","weekendOpen":"00:00","weekendClose":"23:59","holidayOpen":"00:00","holidayClose":"23:59","feeInfo":"무료","phone":"","updatedAt":"2024-11-12","sido":"전라남도","sigungu":"영암군","dong":"시종면"},{"name":"공영주차장","type":"공영","category":"노상","address":"전라남도 영암군 금정면 용흥리 1208-1","lat":34.86503787,"lng":126.748904,"totalSpaces":30,"isFree":true,"operatingDays":"평일+토요일+공휴일","weekdayOpen":"00:00","weekdayClose":"23:59","weekendOpen":"00:00","weekendClose":"23:59","holidayOpen":"00:00","holidayClose":"23:59","feeInfo":"무료","phone":"","updatedAt":"2024-11-12","sido":"전라남도","sigungu":"영암군","dong":"금정면"},{"name":"서남리 임시주차장","type":"공영","category":"노외","address":"전라남도 영암군 영암읍 열무정로 21-3","lat":34.79907696,"lng":126.699096,"totalSpaces":30,"isFree":true,"operatingDays":"평일+토요일+공휴일","weekdayOpen":"00:00","weekdayClose":"23:59","weekendOpen":"00:00","weekendClose":"23:59","holidayOpen":"00:00","holidayClose":"23:59","feeInfo":"무료","phone":"","updatedAt":"2024-11-12","sido":"전라남도","sigungu":"영암군","dong":"영암읍"},{"name":"기찬맷길주차장","type":"공영","category":"노외","address":"전라남도 영암군 영암읍 교동리 77-1","lat":34.79377036,"lng":126.6974387,"totalSpaces":30,"isFree":true,"operatingDays":"평일+토요일+공휴일","weekdayOpen":"00:00","weekdayClose":"23:59","weekendOpen":"00:00","weekendClose":"23:59","holidayOpen":"00:00","holidayClose":"23:59","feeInfo":"무료","phone":"","updatedAt":"2024-11-12","sido":"전라남도","sigungu":"영암군","dong":"영암읍"},{"name":"영암농협군지부","type":"민영","category":"노외","address":"전라남도 영암군 영암읍 중앙로 43","lat":34.800242,"lng":126.6976928,"totalSpaces":30,"isFree":true,"operatingDays":"평일+토요일+공휴일","weekdayOpen":"00:00","weekdayClose":"23:59","weekendOpen":"00:00","weekendClose":"23:59","holidayOpen":"00:00","holidayClose":"23:59","feeInfo":"무료","phone":"","updatedAt":"2024-11-12","sido":"전라남도","sigungu":"영암군","dong":"영암읍"},{"name":"학산면사무소","type":"공영","category":"노외","address":"전라남도 영암군 학산면 독천로 193-1","lat":34.72642556,"lng":126.570108,"totalSpaces":25,"isFree":true,"operatingDays":"평일+토요일+공휴일","weekdayOpen":"00:00","weekdayClose":"23:59","weekendOpen":"00:00","weekendClose":"23:59","holidayOpen":"00:00","holidayClose":"23:59","feeInfo":"무료","phone":"","updatedAt":"2024-11-12","sido":"전라남도","sigungu":"영암군","dong":"학산면"},{"name":"망월천변","type":"공영","category":"노외","address":"전라남도 영암군 미암면 채지리 127-1","lat":34.72434198,"lng":126.570245,"totalSpaces":22,"isFree":true,"operatingDays":"평일+토요일+공휴일","weekdayOpen":"00:00","weekdayClose":"23:59","weekendOpen":"00:00","weekendClose":"23:59","holidayOpen":"00:00","holidayClose":"23:59","feeInfo":"무료","phone":"","updatedAt":"2024-11-12","sido":"전라남도","sigungu":"영암군","dong":"미암면"},{"name":"시종면 복지회관","type":"공영","category":"노외","address":"전라남도 영암군 시종면 만수리 928-1","lat":34.869433,"lng":126.607846,"totalSpaces":20,"isFree":true,"operatingDays":"평일+토요일+공휴일","weekdayOpen":"00:00","weekdayClose":"23:59","weekendOpen":"00:00","weekendClose":"23:59","holidayOpen":"00:00","holidayClose":"23:59","feeInfo":"무료","phone":"","updatedAt":"2024-11-12","sido":"전라남도","sigungu":"영암군","dong":"시종면"},{"name":"망월천변","type":"공영","category":"노외","address":"전라남도 영암군 미암면 채지리 131-1","lat":34.724234,"lng":126.568679,"totalSpaces":20,"isFree":true,"operatingDays":"평일+토요일+공휴일","weekdayOpen":"00:00","weekdayClose":"23:59","weekendOpen":"00:00","weekendClose":"23:59","holidayOpen":"00:00","holidayClose":"23:59","feeInfo":"무료","phone":"","updatedAt":"2024-11-12","sido":"전라남도","sigungu":"영암군","dong":"미암면"},{"name":"신북면사무소","type":"공영","category":"노외","address":"전라남도 영암군 신북면 간은정로 29","lat":34.8902703,"lng":126.6926245,"totalSpaces":20,"isFree":true,"operatingDays":"평일+토요일+공휴일","weekdayOpen":"00:00","weekdayClose":"23:59","weekendOpen":"00:00","weekendClose":"23:59","holidayOpen":"00:00","holidayClose":"23:59","feeInfo":"무료","phone":"","updatedAt":"2024-11-12","sido":"전라남도","sigungu":"영암군","dong":"신북면"},{"name":"한국국토정보공사 영암군지사","type":"공영","category":"노외","address":"전라남도 영암군 영암읍 열무정로 11","lat":34.798958,"lng":126.6982921,"totalSpaces":20,"isFree":true,"operatingDays":"평일+토요일+공휴일","weekdayOpen":"00:00","weekdayClose":"23:59","weekendOpen":"00:00","weekendClose":"23:59","holidayOpen":"00:00","holidayClose":"23:59","feeInfo":"무료","phone":"","updatedAt":"2024-11-12","sido":"전라남도","sigungu":"영암군","dong":"영암읍"},{"name":"도포면사무소","type":"공영","category":"노외","address":"전라남도 영암군 도포면 호산로 43","lat":34.84544674,"lng":126.6435982,"totalSpaces":16,"isFree":true,"operatingDays":"평일+토요일+공휴일","weekdayOpen":"00:00","weekdayClose":"23:59","weekendOpen":"00:00","weekendClose":"23:59","holidayOpen":"00:00","holidayClose":"23:59","feeInfo":"무료","phone":"","updatedAt":"2024-11-12","sido":"전라남도","sigungu":"영암군","dong":"도포면"},{"name":"신북농협","type":"민영","category":"노외","address":"전라남도 영암군 신북면 간은정로 32","lat":34.889985,"lng":126.693292,"totalSpaces":12,"isFree":true,"operatingDays":"평일+토요일+공휴일","weekdayOpen":"00:00","weekdayClose":"23:59","weekendOpen":"00:00","weekendClose":"23:59","holidayOpen":"00:00","holidayClose":"23:59","feeInfo":"무료","phone":"","updatedAt":"2024-11-12","sido":"전라남도","sigungu":"영암군","dong":"신북면"},{"name":"한국통신앞","type":"민영","category":"노상","address":"전라남도 영암군 영암읍 서남역로 2","lat":34.79810401,"lng":126.6949776,"totalSpaces":10,"isFree":true,"operatingDays":"평일+토요일+공휴일","weekdayOpen":"00:00","weekdayClose":"23:59","weekendOpen":"00:00","weekendClose":"23:59","holidayOpen":"00:00","holidayClose":"23:59","feeInfo":"무료","phone":"","updatedAt":"2024-11-12","sido":"전라남도","sigungu":"영암군","dong":"영암읍"}]}