{"sido":"전라남도","sigungu":"해남군","totalCount":43,"validCount":43,"items":[{"name":"문내면 공영주차장(우수영중학교 옆)","type":"공영","category":"노외","address":"전라남도 해남군 문내면 동외리 884-2","lat":34.59622398,"lng":126.3119827,"totalSpaces":128,"isFree":true,"operatingDays":"평일+토요일+공휴일","weekdayOpen":"00:00","weekdayClose":"23:59","weekendOpen":"00:00","weekendClose":"23:59","holidayOpen":"00:00","holidayClose":"23:59","feeInfo":"무료","phone":"061-530-5645","updatedAt":"2025-12-05","sido":"전라남도","sigungu":"해남군","dong":"문내면"},{"name":"남동 공영주차장(남외리사무소 부근)","type":"공영","category":"노외","address":"전라남도 해남군 해남읍 남동리 6","lat":34.57095367,"lng":126.5975883,"totalSpaces":90,"isFree":true,"operatingDays":"평일+토요일+공휴일","weekdayOpen":"00:00","weekdayClose":"23:59","weekendOpen":"00:00","weekendClose":"23:59","holidayOpen":"00:00","holidayClose":"23:59","feeInfo":"무료","phone":"061-530-5645","updatedAt":"2025-12-05","sido":"전라남도","sigungu":"해남군","dong":"해남읍"},{"name":"옥천면 공영주차장(옥천면사무소 앞)","type":"공영","category":"노외","address":"전라남도 해남군 옥천면 영춘리 526","lat":34.56650806,"lng":126.6475451,"totalSpaces":80,"isFree":true,"operatingDays":"평일+토요일+공휴일","weekdayOpen":"00:00","weekdayClose":"23:59","weekendOpen":"00:00","weekendClose":"23:59","holidayOpen":"00:00","holidayClose":"23:59","feeInfo":"무료","phone":"061-530-5645","updatedAt":"2025-12-05","sido":"전라남도","sigungu":"해남군","dong":"옥천면"},{"name":"해리2 공영주차장(광남그린빌라 옆)","type":"공영","category":"노외","address":"전라남도 해남군 해남읍 해리 589-2","lat":34.57240271,"lng":126.6025571,"totalSpaces":73,"isFree":true,"operatingDays":"평일+토요일+공휴일","weekdayOpen":"00:00","weekdayClose":"23:59","weekendOpen":"00:00","weekendClose":"23:59","holidayOpen":"00:00","holidayClose":"23:59","feeInfo":"무료","phone":"061-530-5645","updatedAt":"2025-12-05","sido":"전라남도","sigungu":"해남군","dong":"해남읍"},{"name":"해남고등학교 앞","type":"공영","category":"노외","address":"전라남도 해남군 해남읍 수성리 223","lat":34.5759175908,"lng":126.5959275479,"totalSpaces":70,"isFree":true,"operatingDays":"평일+토요일+공휴일","weekdayOpen":"00:00","weekdayClose":"23:59","weekendOpen":"00:00","weekendClose":"23:59","holidayOpen":"00:00","holidayClose":"23:59","feeInfo":"무료","phone":"061-530-5645","updatedAt":"2025-12-05","sido":"전라남도","sigungu":"해남군","dong":"해남읍"},{"name":"수성 공영주차장(군청옆 금영아파트 뒤)","type":"공영","category":"노외","address":"전라남도 해남군 해남읍 수성리 184-2","lat":34.57410446,"lng":126.5978202,"totalSpaces":68,"isFree":true,"operatingDays":"평일+토요일+공휴일","weekdayOpen":"00:00","weekdayClose":"23:59","weekendOpen":"00:00","weekendClose":"23:59","holidayOpen":"00:00","holidayClose":"23:59","feeInfo":"무료","phone":"061-530-5645","updatedAt":"2025-12-05","sido":"전라남도","sigungu":"해남군","dong":"해남읍"},{"name":"해리 공영주차장(해담은1차아파트)","type":"공영","category":"노외","address":"전라남도 해남군 해남읍 해리 439-3","lat":34.57130904,"lng":126.6058425,"totalSpaces":66,"isFree":true,"operatingDays":"평일+토요일+공휴일","weekdayOpen":"00:00","weekdayClose":"23:59","weekendOpen":"00:00","weekendClose":"23:59","holidayOpen":"00:00","holidayClose":"23:59","feeInfo":"무료","phone":"061-530-5645","updatedAt":"2025-12-05","sido":"전라남도","sigungu":"해남군","dong":"해남읍"},{"name":"해남 구교리(우진아트빌 옆)","type":"공영","category":"노외","address":"전라남도 해남군 해남읍 구교리 587","lat":34.57830697,"lng":126.5909272,"totalSpaces":60,"isFree":true,"operatingDays":"평일+토요일+공휴일","weekdayOpen":"00:00","weekdayClose":"23:59","weekendOpen":"00:00","weekendClose":"23:59","holidayOpen":"00:00","holidayClose":"23:59","feeInfo":"무료","phone":"061-530-5645","updatedAt":"2025-12-05","sido":"전라남도","sigungu":"해남군","dong":"해남읍"},{"name":"황산면 공영주차장(황산 시등교회 앞)","type":"공영","category":"노외","address":"전라남도 해남군 황산면 우항리 492","lat":34.57635952,"lng":126.4330732,"totalSpaces":57,"isFree":true,"operatingDays":"평일+토요일+공휴일","weekdayOpen":"00:00","weekdayClose":"23:59","weekendOpen":"00:00","weekendClose":"23:59","holidayOpen":"00:00","holidayClose":"23:59","feeInfo":"무료","phone":"061-530-5645","updatedAt":"2025-12-05","sido":"전라남도","sigungu":"해남군","dong":"황산면"},{"name":"화원면 공영주차장(화원터미널 앞)","type":"공영","category":"노외","address":"전라남도 해남군 화원면 청용리 554","lat":34.66779599,"lng":126.3299898,"totalSpaces":53,"isFree":true,"operatingDays":"평일+토요일+공휴일","weekdayOpen":"00:00","weekdayClose":"23:59","weekendOpen":"00:00","weekendClose":"23:59","holidayOpen":"00:00","holidayClose":"23:59","feeInfo":"무료","phone":"061-530-5645","updatedAt":"2025-12-05","sido":"전라남도","sigungu":"해남군","dong":"화원면"},{"name":"홍교 공영주차장","type":"공영","category":"노외","address":"전라남도 해남군 해남읍 평동리 135","lat":34.56936504,"lng":126.5989937,"totalSpaces":51,"isFree":true,"operatingDays":"평일+토요일+공휴일","weekdayOpen":"00:00","weekdayClose":"23:59","weekendOpen":"00:00","weekendClose":"23:59","holidayOpen":"00:00","holidayClose":"23:59","feeInfo":"무료","phone":"061-530-5645","updatedAt":"2025-12-05","sido":"전라남도","sigungu":"해남군","dong":"해남읍"},{"name":"해리4 공영주차장(구 보건소 뒤편)","type":"공영","category":"노외","address":"전라남도 해남군 해남읍 해리 416-26","lat":34.57035073,"lng":126.6037897,"totalSpaces":44,"isFree":true,"operatingDays":"평일+토요일+공휴일","weekdayOpen":"00:00","weekdayClose":"23:59","weekendOpen":"00:00","weekendClose":"23:59","holidayOpen":"00:00","holidayClose":"23:59","feeInfo":"무료","phone":"061-530-5645","updatedAt":"2025-12-05","sido":"전라남도","sigungu":"해남군","dong":"해남읍"},{"name":"버스터미널인근","type":"공영","category":"노외","address":"전라남도 해남군 해남읍 해리 458-5","lat":34.5714071985,"lng":126.6075306778,"totalSpaces":44,"isFree":true,"operatingDays":"평일+토요일+공휴일","weekdayOpen":"00:00","weekdayClose":"23:59","weekendOpen":"00:00","weekendClose":"23:59","holidayOpen":"00:00","holidayClose":"23:59","feeInfo":"무료","phone":"061-530-5645","updatedAt":"2025-12-05","sido":"전라남도","sigungu":"해남군","dong":"해남읍"},{"name":"해남종합터미널 뒤","type":"공영","category":"노외","address":"전라남도 해남군 해남읍 해리 678-10","lat":34.56990491,"lng":126.6080662,"totalSpaces":44,"isFree":true,"operatingDays":"평일+토요일+공휴일","weekdayOpen":"00:00","weekdayClose":"23:59","weekendOpen":"00:00","weekendClose":"23:59","holidayOpen":"00:00","holidayClose":"23:59","feeInfo":"무료","phone":"061-530-5645","updatedAt":"2025-12-05","sido":"전라남도","sigungu":"해남군","dong":"해남읍"},{"name":"현산면 공영주차장(현산면사무소 앞)","type":"공영","category":"노외","address":"전라남도 해남군 현산면 현산북평로 93","lat":34.45925772,"lng":126.5541957,"totalSpaces":42,"isFree":true,"operatingDays":"평일+토요일+공휴일","weekdayOpen":"00:00","weekdayClose":"23:59","weekendOpen":"00:00","weekendClose":"23:59","holidayOpen":"00:00","holidayClose":"23:59","feeInfo":"무료","phone":"061-530-5645","updatedAt":"2025-12-05","sido":"전라남도","sigungu":"해남군","dong":"현산면"},{"name":"평동 공영주차장(평동오거리)","type":"공영","category":"노외","address":"전라남도 해남군 해남읍 홍교로 86","lat":34.56775587,"lng":126.6007491,"totalSpaces":41,"isFree":true,"operatingDays":"평일+토요일+공휴일","weekdayOpen":"00:00","weekdayClose":"23:59","weekendOpen":"00:00","weekendClose":"23:59","holidayOpen":"00:00","holidayClose":"23:59","feeInfo":"무료","phone":"061-530-5645","updatedAt":"2025-12-05","sido":"전라남도","sigungu":"해남군","dong":"해남읍"},{"name":"황산 시등 공영주차장","type":"공영","category":"노외","address":"전라남도 해남군 황산면 남리리 53-2","lat":34.5752494529,"lng":126.4296676232,"totalSpaces":38,"isFree":true,"operatingDays":"평일+토요일+공휴일","weekdayOpen":"00:00","weekdayClose":"23:59","weekendOpen":"00:00","weekendClose":"23:59","holidayOpen":"00:00","holidayClose":"23:59","feeInfo":"무료","phone":"061-530-5645","updatedAt":"2025-12-05","sido":"전라남도","sigungu":"해남군","dong":"황산면"},{"name":"황산면2 공영주차장(황산면사무소 옆)","type":"공영","category":"노외","address":"전라남도 해남군 황산면 우항리 417-1","lat":34.57655535,"lng":126.4351958,"totalSpaces":37,"isFree":true,"operatingDays":"평일+토요일+공휴일","weekdayOpen":"00:00","weekdayClose":"23:59","weekendOpen":"00:00","weekendClose":"23:59","holidayOpen":"00:00","holidayClose":"23:59","feeInfo":"무료","phone":"061-530-5645","updatedAt":"2025-12-05","sido":"전라남도","sigungu":"해남군","dong":"황산면"},{"name":"읍내 공영주차장(거빈식당 앞)","type":"공영","category":"노외","address":"전라남도 해남군 해남읍 읍내리 16-4","lat":34.5708726,"lng":126.5998641,"totalSpaces":36,"isFree":true,"operatingDays":"평일+토요일+공휴일","weekdayOpen":"00:00","weekdayClose":"23:59","weekendOpen":"00:00","weekendClose":"23:59","holidayOpen":"00:00","holidayClose":"23:59","feeInfo":"무료","phone":"061-530-5645","updatedAt":"2025-12-05","sido":"전라남도","sigungu":"해남군","dong":"해남읍"},{"name":"성민교회 옆","type":"공영","category":"노외","address":"전라남도 해남군 해남읍 남외리 142","lat":34.56778009,"lng":126.5926218,"totalSpaces":36,"isFree":true,"operatingDays":"평일+토요일+공휴일","weekdayOpen":"00:00","weekdayClose":"23:59","weekendOpen":"00:00","weekendClose":"23:59","holidayOpen":"00:00","holidayClose":"23:59","feeInfo":"무료","phone":"061-530-5645","updatedAt":"2025-12-05","sido":"전라남도","sigungu":"해남군","dong":"해남읍"},{"name":"해남 새순교회","type":"공영","category":"노외","address":"전라남도 해남군 해남읍 구교리 107","lat":34.5780630437,"lng":126.5955115863,"totalSpaces":35,"isFree":true,"operatingDays":"평일+토요일+공휴일","weekdayOpen":"00:00","weekdayClose":"23:59","weekendOpen":"00:00","weekendClose":"23:59","holidayOpen":"00:00","holidayClose":"23:59","feeInfo":"무료","phone":"061-530-5645","updatedAt":"2025-12-05","sido":"전라남도","sigungu":"해남군","dong":"해남읍"},{"name":"읍사무소 옆","type":"공영","category":"노외","address":"전라남도 해남군 해남읍 읍사무소길 39","lat":34.56572754,"lng":126.5998523,"totalSpaces":35,"isFree":true,"operatingDays":"평일+토요일+공휴일","weekdayOpen":"00:00","weekdayClose":"23:59","weekendOpen":"00:00","weekendClose":"23:59","holidayOpen":"00:00","holidayClose":"23:59","feeInfo":"무료","phone":"061-530-5645","updatedAt":"2025-12-05","sido":"전라남도","sigungu":"해남군","dong":"해남읍"},{"name":"송지면 공영주차장(산정우체국 앞)","type":"공영","category":"노외","address":"전라남도 해남군 송지면 산정리 755-3","lat":34.37038956,"lng":126.5208425,"totalSpaces":34,"isFree":true,"operatingDays":"평일+토요일+공휴일","weekdayOpen":"00:00","weekdayClose":"23:59","weekendOpen":"00:00","weekendClose":"23:59","holidayOpen":"00:00","holidayClose":"23:59","feeInfo":"무료","phone":"061-530-5645","updatedAt":"2025-12-05","sido":"전라남도","sigungu":"해남군","dong":"송지면"},{"name":"신동백아파트 뒤","type":"공영","category":"노외","address":"전라남도 해남군 해남읍 해리 657-66","lat":34.57391589,"lng":126.6071614,"totalSpaces":28,"isFree":true,"operatingDays":"평일+토요일+공휴일","weekdayOpen":"00:00","weekdayClose":"23:59","weekendOpen":"00:00","weekendClose":"23:59","holidayOpen":"00:00","holidayClose":"23:59","feeInfo":"무료","phone":"061-530-5645","updatedAt":"2025-12-05","sido":"전라남도","sigungu":"해남군","dong":"해남읍"},{"name":"미암사거리","type":"공영","category":"노외","address":"전라남도 해남군 해남읍 해리 524-2","lat":34.57386093,"lng":126.6042423,"totalSpaces":28,"isFree":true,"operatingDays":"평일+토요일+공휴일","weekdayOpen":"00:00","weekdayClose":"23:59","weekendOpen":"00:00","weekendClose":"23:59","holidayOpen":"00:00","holidayClose":"23:59","feeInfo":"무료","phone":"061-530-5645","updatedAt":"2025-12-05","sido":"전라남도","sigungu":"해남군","dong":"해남읍"},{"name":"수성3 공영주차장(문화예술회관 부근)","type":"공영","category":"노외","address":"전라남도 해남군 해남읍 수성리 80-1","lat":34.57422312,"lng":126.6006127,"totalSpaces":26,"isFree":true,"operatingDays":"평일+토요일+공휴일","weekdayOpen":"00:00","weekdayClose":"23:59","weekendOpen":"00:00","weekendClose":"23:59","holidayOpen":"00:00","holidayClose":"23:59","feeInfo":"무료","phone":"061-530-5645","updatedAt":"2025-12-05","sido":"전라남도","sigungu":"해남군","dong":"해남읍"},{"name":"수성2 공영주차장(수성2리사무소 부근)","type":"공영","category":"노외","address":"전라남도 해남군 해남읍 수성리 202-1","lat":34.57549889,"lng":126.5985778,"totalSpaces":20,"isFree":true,"operatingDays":"평일+토요일+공휴일","weekdayOpen":"00:00","weekdayClose":"23:59","weekendOpen":"00:00","weekendClose":"23:59","holidayOpen":"00:00","holidayClose":"23:59","feeInfo":"무료","phone":"061-530-5645","updatedAt":"2025-12-05","sido":"전라남도","sigungu":"해남군","dong":"해남읍"},{"name":"중부교회 옆","type":"공영","category":"노외","address":"전라남도 해남군 해남읍 해리 645-2","lat":34.56743807,"lng":126.6024055,"totalSpaces":20,"isFree":true,"operatingDays":"평일+토요일+공휴일","weekdayOpen":"00:00","weekdayClose":"23:59","weekendOpen":"00:00","weekendClose":"23:59","holidayOpen":"00:00","holidayClose":"23:59","feeInfo":"무료","phone":"061-530-5645","updatedAt":"2025-12-05","sido":"전라남도","sigungu":"해남군","dong":"해남읍"},{"name":"복음내과 앞","type":"공영","category":"노외","address":"전라남도 해남군 해남읍 해리 463","lat":34.5718206125,"lng":126.6072085476,"totalSpaces":20,"isFree":true,"operatingDays":"평일+토요일+공휴일","weekdayOpen":"00:00","weekdayClose":"23:59","weekendOpen":"00:00","weekendClose":"23:59","holidayOpen":"00:00","holidayClose":"23:59","feeInfo":"무료","phone":"061-530-5645","updatedAt":"2025-12-05","sido":"전라남도","sigungu":"해남군","dong":"해남읍"},{"name":"제일자동차 옆","type":"공영","category":"노외","address":"전라남도 해남군 해남읍 남외리 446-4","lat":34.57401929,"lng":126.5912847,"totalSpaces":20,"isFree":true,"operatingDays":"평일+토요일+공휴일","weekdayOpen":"00:00","weekdayClose":"23:59","weekendOpen":"00:00","weekendClose":"23:59","holidayOpen":"00:00","holidayClose":"23:59","feeInfo":"무료","phone":"061-530-5645","updatedAt":"2025-12-05","sido":"전라남도","sigungu":"해남군","dong":"해남읍"},{"name":"성내 공영주차장(해남군민광장 옆)","type":"공영","category":"노외","address":"전라남도 해남군 해남읍 성내리 13-5","lat":34.57235741,"lng":126.5998423,"totalSpaces":18,"isFree":true,"operatingDays":"평일+토요일+공휴일","weekdayOpen":"00:00","weekdayClose":"23:59","weekendOpen":"00:00","weekendClose":"23:59","holidayOpen":"00:00","holidayClose":"23:59","feeInfo":"무료","phone":"061-530-5645","updatedAt":"2025-12-05","sido":"전라남도","sigungu":"해남군","dong":"해남읍"},{"name":"문화원 맞은편","type":"공영","category":"노외","address":"전라남도 해남군 해남읍 수성리 77-1","lat":34.57361978,"lng":126.6010525,"totalSpaces":18,"isFree":true,"operatingDays":"평일+토요일+공휴일","weekdayOpen":"00:00","weekdayClose":"23:59","weekendOpen":"00:00","weekendClose":"23:59","holidayOpen":"00:00","holidayClose":"23:59","feeInfo":"무료","phone":"061-530-5645","updatedAt":"2025-12-05","sido":"전라남도","sigungu":"해남군","dong":"해남읍"},{"name":"황산면 우항리 공영주차장","type":"공영","category":"노외","address":"전라남도 해남군 황산면 우항리 486-3","lat":34.575832485,"lng":126.4337585881,"totalSpaces":17,"isFree":true,"operatingDays":"평일+토요일+공휴일","weekdayOpen":"00:00","weekdayClose":"23:59","weekendOpen":"00:00","weekendClose":"23:59","holidayOpen":"00:00","holidayClose":"23:59","feeInfo":"무료","phone":"061-530-5645","updatedAt":"2025-12-05","sido":"전라남도","sigungu":"해남군","dong":"황산면"},{"name":"유신교 공영주차장","type":"공영","category":"노외","address":"전라남도 해남군 해남읍 평동리 4","lat":34.57048546,"lng":126.6003008,"totalSpaces":16,"isFree":true,"operatingDays":"평일+토요일+공휴일","weekdayOpen":"00:00","weekdayClose":"23:59","weekendOpen":"00:00","weekendClose":"23:59","holidayOpen":"00:00","holidayClose":"23:59","feeInfo":"무료","phone":"061-530-5645","updatedAt":"2025-12-05","sido":"전라남도","sigungu":"해남군","dong":"해남읍"},{"name":"남외 공영주차장(구 영림몰딩)","type":"공영","category":"노외","address":"전라남도 해남군 해남읍 중앙1로 202","lat":34.57248722,"lng":126.596394,"totalSpaces":13,"isFree":true,"operatingDays":"평일+토요일+공휴일","weekdayOpen":"00:00","weekdayClose":"23:59","weekendOpen":"00:00","weekendClose":"23:59","holidayOpen":"00:00","holidayClose":"23:59","feeInfo":"무료","phone":"061-530-5645","updatedAt":"2025-12-05","sido":"전라남도","sigungu":"해남군","dong":"해남읍"},{"name":"화산면 공영주차장(화산면사무소 옆)","type":"공영","category":"노외","address":"전라남도 해남군 화산면 방축리 383-7","lat":34.49117409,"lng":126.5155081,"totalSpaces":13,"isFree":true,"operatingDays":"평일+토요일+공휴일","weekdayOpen":"00:00","weekdayClose":"23:59","weekendOpen":"00:00","weekendClose":"23:59","holidayOpen":"00:00","holidayClose":"23:59","feeInfo":"무료","phone":"061-530-5645","updatedAt":"2025-12-05","sido":"전라남도","sigungu":"해남군","dong":"화산면"},{"name":"남외 공영주차장(본가아파트 부근)","type":"공영","category":"노외","address":"전라남도 해남군 해남읍 남외리 94-1","lat":34.57019047,"lng":126.5937448,"totalSpaces":12,"isFree":true,"operatingDays":"평일+토요일+공휴일","weekdayOpen":"00:00","weekdayClose":"23:59","weekendOpen":"00:00","weekendClose":"23:59","holidayOpen":"00:00","holidayClose":"23:59","feeInfo":"무료","phone":"061-530-5645","updatedAt":"2025-12-05","sido":"전라남도","sigungu":"해남군","dong":"해남읍"},{"name":"옥천면2 공영주차장(옥천보건지소 옆)","type":"공영","category":"노외","address":"전라남도 해남군 옥천면 영춘리 951-4","lat":34.56703184,"lng":126.6500593,"totalSpaces":10,"isFree":true,"operatingDays":"평일+토요일+공휴일","weekdayOpen":"00:00","weekdayClose":"23:59","weekendOpen":"00:00","weekendClose":"23:59","holidayOpen":"00:00","holidayClose":"23:59","feeInfo":"무료","phone":"061-530-5645","updatedAt":"2025-12-05","sido":"전라남도","sigungu":"해남군","dong":"옥천면"},{"name":"해남축협 앞","type":"공영","category":"노외","address":"전라남도 해남군 해남읍 평동리 19","lat":34.56884964,"lng":126.6006255,"totalSpaces":10,"isFree":true,"operatingDays":"평일+토요일+공휴일","weekdayOpen":"00:00","weekdayClose":"23:59","weekendOpen":"00:00","weekendClose":"23:59","holidayOpen":"00:00","holidayClose":"23:59","feeInfo":"무료","phone":"061-530-5645","updatedAt":"2025-12-05","sido":"전라남도","sigungu":"해남군","dong":"해남읍"},{"name":"해남관광호텔 옆","type":"공영","category":"노외","address":"전라남도 해남군 해남읍 서초길 60","lat":34.56980533,"lng":126.5955276,"totalSpaces":10,"isFree":true,"operatingDays":"평일+토요일+공휴일","weekdayOpen":"00:00","weekdayClose":"23:59","weekendOpen":"00:00","weekendClose":"23:59","holidayOpen":"00:00","holidayClose":"23:59","feeInfo":"무료","phone":"061-530-5645","updatedAt":"2025-12-05","sido":"전라남도","sigungu":"해남군","dong":"해남읍"},{"name":"수성4 공영주차장(평화의집 앞)","type":"공영","category":"노외","address":"전라남도 해남군 해남읍 수성리 245-33","lat":34.57182885,"lng":126.6013967,"totalSpaces":8,"isFree":true,"operatingDays":"평일+토요일+공휴일","weekdayOpen":"00:00","weekdayClose":"23:59","weekendOpen":"00:00","weekendClose":"23:59","holidayOpen":"00:00","holidayClose":"23:59","feeInfo":"무료","phone":"061-530-5645","updatedAt":"2025-12-05","sido":"전라남도","sigungu":"해남군","dong":"해남읍"},{"name":"해리3 공영주차장(해남세무서 옆)","type":"공영","category":"노외","address":"전라남도 해남군 해남읍 중앙1로 14","lat":34.57148535,"lng":126.6068439,"totalSpaces":62,"isFree":false,"operatingDays":"평일+토요일+공휴일","weekdayOpen":"00:00","weekdayClose":"23:59","weekendOpen":"00:00","weekendClose":"23:59","holidayOpen":"00:00","holidayClose":"23:59","feeInfo":"기본 0분 0원 / 추가 30분당 500원","phone":"061-530-5645","updatedAt":"2025-12-05","sido":"전라남도","sigungu":"해남군","dong":"해남읍"},{"name":"남외2 공영주차장(구 인산제재소)","type":"공영","category":"노외","address":"전라남도 해남군 해남읍 남외리 3-2","lat":34.5720902134,"lng":126.5962653206,"totalSpaces":53,"isFree":false,"operatingDays":"평일+토요일+공휴일","weekdayOpen":"00:00","weekdayClose":"23:59","weekendOpen":"00:00","weekendClose":"23:59","holidayOpen":"00:00","holidayClose":"23:59","feeInfo":"기본 0분 0원 / 추가 30분당 500원","phone":"061-530-5645","updatedAt":"2025-12-05","sido":"전라남도","sigungu":"해남군","dong":"해남읍"}]}