{"sido":"인천광역시","sigungu":"강화군","totalCount":41,"validCount":36,"items":[{"name":"마니산주차장","type":"공영","category":"노외","address":"인천광역시 강화군 화도면 상방리 401-1","lat":37.63352591,"lng":126.4236374,"totalSpaces":450,"isFree":true,"operatingDays":"평일+토요일+공휴일","weekdayOpen":"00:00","weekdayClose":"23:59","weekendOpen":"00:00","weekendClose":"23:59","holidayOpen":"00:00","holidayClose":"23:59","feeInfo":"무료","phone":"032-930-3355","updatedAt":"2025-04-17","sido":"인천광역시","sigungu":"강화군","dong":"화도면"},{"name":"함허동천주차장","type":"공영","category":"노외","address":"인천광역시 강화군 화도면 사기리 301-2","lat":37.61047321,"lng":126.4572598,"totalSpaces":285,"isFree":true,"operatingDays":"평일+토요일+공휴일","weekdayOpen":"00:00","weekdayClose":"23:59","weekendOpen":"00:00","weekendClose":"23:59","holidayOpen":"00:00","holidayClose":"23:59","feeInfo":"무료","phone":"032-930-3355","updatedAt":"2025-04-17","sido":"인천광역시","sigungu":"강화군","dong":"화도면"},{"name":"선원면 창리 제1공영주차장","type":"공영","category":"노외","address":"인천광역시 강화군 선원면 창리 665-2","lat":37.72375593,"lng":126.4782043,"totalSpaces":175,"isFree":true,"operatingDays":"평일+토요일+공휴일","weekdayOpen":"00:00","weekdayClose":"23:59","weekendOpen":"00:00","weekendClose":"23:59","holidayOpen":"00:00","holidayClose":"23:59","feeInfo":"무료","phone":"032-930-3355","updatedAt":"2025-04-17","sido":"인천광역시","sigungu":"강화군","dong":"선원면"},{"name":"강화읍 갑곳 제1공영주차장","type":"공영","category":"노외","address":"인천광역시 강화군 강화읍 갑곳리 643","lat":37.7393849,"lng":126.5068141,"totalSpaces":119,"isFree":true,"operatingDays":"평일+토요일+공휴일","weekdayOpen":"00:00","weekdayClose":"23:59","weekendOpen":"00:00","weekendClose":"23:59","holidayOpen":"00:00","holidayClose":"23:59","feeInfo":"무료","phone":"032-930-3355","updatedAt":"2025-04-17","sido":"인천광역시","sigungu":"강화군","dong":"강화읍"},{"name":"석포리 선착장주차장","type":"공영","category":"노외","address":"인천광역시 강화군 삼산면 삼산북로 11-1","lat":37.692933,"lng":126.3668904,"totalSpaces":97,"isFree":true,"operatingDays":"평일+토요일+공휴일","weekdayOpen":"00:00","weekdayClose":"23:59","weekendOpen":"00:00","weekendClose":"23:59","holidayOpen":"00:00","holidayClose":"23:59","feeInfo":"무료","phone":"032-930-3355","updatedAt":"2025-04-17","sido":"인천광역시","sigungu":"강화군","dong":"삼산면"},{"name":"갑곳 공영주차장","type":"공영","category":"노외","address":"인천광역시 강화군 강화읍 갑곳리 462-3","lat":37.74309451,"lng":126.5048107,"totalSpaces":90,"isFree":true,"operatingDays":"평일+토요일+공휴일","weekdayOpen":"00:00","weekdayClose":"23:59","weekendOpen":"00:00","weekendClose":"23:59","holidayOpen":"00:00","holidayClose":"23:59","feeInfo":"무료","phone":"032-930-3355","updatedAt":"2025-04-17","sido":"인천광역시","sigungu":"강화군","dong":"강화읍"},{"name":"양사면 교산리 공영주차장","type":"공영","category":"노외","address":"인천광역시 강화군 양사면 교산리 860","lat":37.79820844,"lng":126.4071274,"totalSpaces":90,"isFree":true,"operatingDays":"평일+토요일+공휴일","weekdayOpen":"00:00","weekdayClose":"23:59","weekendOpen":"00:00","weekendClose":"23:59","holidayOpen":"00:00","holidayClose":"23:59","feeInfo":"무료","phone":"032-930-3355","updatedAt":"2025-04-17","sido":"인천광역시","sigungu":"강화군","dong":"양사면"},{"name":"강화역사관주차장","type":"공영","category":"노외","address":"인천광역시 강화군 강화읍 갑곳리 1007-1","lat":37.7343652,"lng":126.5152773,"totalSpaces":88,"isFree":true,"operatingDays":"평일+토요일+공휴일","weekdayOpen":"00:00","weekdayClose":"23:59","weekendOpen":"00:00","weekendClose":"23:59","holidayOpen":"00:00","holidayClose":"23:59","feeInfo":"무료","phone":"032-930-3355","updatedAt":"2025-04-17","sido":"인천광역시","sigungu":"강화군","dong":"강화읍"},{"name":"창리 제2공영주차장","type":"공영","category":"노외","address":"인천광역시 강화군 선원면 창리 606-10","lat":37.72363378,"lng":126.4833962,"totalSpaces":81,"isFree":true,"operatingDays":"평일+토요일+공휴일","weekdayOpen":"00:00","weekdayClose":"23:59","weekendOpen":"00:00","weekendClose":"23:59","holidayOpen":"00:00","holidayClose":"23:59","feeInfo":"무료","phone":"032-930-3355","updatedAt":"2025-04-17","sido":"인천광역시","sigungu":"강화군","dong":"선원면"},{"name":"고인돌주차장","type":"공영","category":"노외","address":"인천광역시 강화군 하점면 부근리 330-1","lat":37.7753738,"lng":126.4363326,"totalSpaces":80,"isFree":true,"operatingDays":"평일+토요일+공휴일","weekdayOpen":"00:00","weekdayClose":"23:59","weekendOpen":"00:00","weekendClose":"23:59","holidayOpen":"00:00","holidayClose":"23:59","feeInfo":"무료","phone":"032-930-3355","updatedAt":"2025-04-17","sido":"인천광역시","sigungu":"강화군","dong":"하점면"},{"name":"용흥궁공원주차장","type":"공영","category":"노외","address":"인천광역시 강화군 강화읍 관청리 405","lat":37.74956564,"lng":126.4847556,"totalSpaces":80,"isFree":true,"operatingDays":"평일+토요일+공휴일","weekdayOpen":"00:00","weekdayClose":"23:59","weekendOpen":"00:00","weekendClose":"23:59","holidayOpen":"00:00","holidayClose":"23:59","feeInfo":"무료","phone":"032-930-3355","updatedAt":"2025-04-17","sido":"인천광역시","sigungu":"강화군","dong":"강화읍"},{"name":"신문리공영주차장","type":"공영","category":"노외","address":"인천광역시 강화군 강화읍 향나무길 20","lat":37.7465337,"lng":126.4791545,"totalSpaces":80,"isFree":true,"operatingDays":"평일+토요일+공휴일","weekdayOpen":"00:00","weekdayClose":"23:59","weekendOpen":"00:00","weekendClose":"23:59","holidayOpen":"00:00","holidayClose":"23:59","feeInfo":"무료","phone":"032-930-3355","updatedAt":"2025-04-17","sido":"인천광역시","sigungu":"강화군","dong":"강화읍"},{"name":"광성보주차장","type":"공영","category":"노외","address":"인천광역시 강화군 불은면 덕성리 35-1","lat":37.66541644,"lng":126.5281189,"totalSpaces":75,"isFree":true,"operatingDays":"평일+토요일+공휴일","weekdayOpen":"00:00","weekdayClose":"23:59","weekendOpen":"00:00","weekendClose":"23:59","holidayOpen":"00:00","holidayClose":"23:59","feeInfo":"무료","phone":"032-930-3355","updatedAt":"2025-04-17","sido":"인천광역시","sigungu":"강화군","dong":"불은면"},{"name":"관청 제1공영주차장","type":"공영","category":"노외","address":"인천광역시 강화군 강화읍 관청리 931","lat":37.75244838,"lng":126.4787282,"totalSpaces":75,"isFree":true,"operatingDays":"평일+토요일+공휴일","weekdayOpen":"00:00","weekdayClose":"23:59","weekendOpen":"00:00","weekendClose":"23:59","holidayOpen":"00:00","holidayClose":"23:59","feeInfo":"무료","phone":"032-930-3355","updatedAt":"2025-04-17","sido":"인천광역시","sigungu":"강화군","dong":"강화읍"},{"name":"강화평화전망대주차장","type":"공영","category":"노외","address":"인천광역시 강화군 양사면 전망대로 797","lat":37.826436,"lng":126.4330222,"totalSpaces":71,"isFree":true,"operatingDays":"평일+토요일+공휴일","weekdayOpen":"00:00","weekdayClose":"23:59","weekendOpen":"00:00","weekendClose":"23:59","holidayOpen":"00:00","holidayClose":"23:59","feeInfo":"무료","phone":"032-930-3355","updatedAt":"2025-04-17","sido":"인천광역시","sigungu":"강화군","dong":"양사면"},{"name":"온수리 주차장","type":"공영","category":"노외","address":"인천광역시 강화군 길상면 온수리 480-7","lat":37.64170656,"lng":126.4891856,"totalSpaces":70,"isFree":true,"operatingDays":"평일+토요일+공휴일","weekdayOpen":"00:00","weekdayClose":"23:59","weekendOpen":"00:00","weekendClose":"23:59","holidayOpen":"00:00","holidayClose":"23:59","feeInfo":"무료","phone":"032-930-3355","updatedAt":"2025-04-17","sido":"인천광역시","sigungu":"강화군","dong":"길상면"},{"name":"동막해수욕장주차장","type":"공영","category":"노상","address":"인천광역시 강화군 화도면 해안남로 1481","lat":37.592743,"lng":126.4581114,"totalSpaces":68,"isFree":true,"operatingDays":"평일+토요일+공휴일","weekdayOpen":"00:00","weekdayClose":"23:59","weekendOpen":"00:00","weekendClose":"23:59","holidayOpen":"00:00","holidayClose":"23:59","feeInfo":"무료","phone":"032-930-3355","updatedAt":"2025-04-17","sido":"인천광역시","sigungu":"강화군","dong":"화도면"},{"name":"온수리 제2공영주차장","type":"공영","category":"노외","address":"인천광역시 강화군 길상면 온수리 546-34","lat":37.64006428,"lng":126.492379,"totalSpaces":56,"isFree":true,"operatingDays":"평일+토요일+공휴일","weekdayOpen":"00:00","weekdayClose":"23:59","weekendOpen":"00:00","weekendClose":"23:59","holidayOpen":"00:00","holidayClose":"23:59","feeInfo":"무료","phone":"032-930-3355","updatedAt":"2025-04-17","sido":"인천광역시","sigungu":"강화군","dong":"길상면"},{"name":"덕진진주차장","type":"공영","category":"노외","address":"인천광역시 강화군 불은면 덕진로 34","lat":37.64971395,"lng":126.5237942,"totalSpaces":45,"isFree":true,"operatingDays":"평일+토요일+공휴일","weekdayOpen":"00:00","weekdayClose":"23:59","weekendOpen":"00:00","weekendClose":"23:59","holidayOpen":"00:00","holidayClose":"23:59","feeInfo":"무료","phone":"032-930-3355","updatedAt":"2025-04-17","sido":"인천광역시","sigungu":"강화군","dong":"불은면"},{"name":"초지진주차장","type":"공영","category":"노외","address":"인천광역시 강화군 길상면 해안동로 58","lat":37.6326099,"lng":126.5322629,"totalSpaces":34,"isFree":true,"operatingDays":"평일+토요일+공휴일","weekdayOpen":"00:00","weekdayClose":"23:59","weekendOpen":"00:00","weekendClose":"23:59","holidayOpen":"00:00","holidayClose":"23:59","feeInfo":"무료","phone":"032-930-3355","updatedAt":"2025-04-17","sido":"인천광역시","sigungu":"강화군","dong":"길상면"},{"name":"강화읍 갑곳 제2공영주차장","type":"공영","category":"노외","address":"인천광역시 강화군 강화읍 갑곳리 350","lat":37.74187205,"lng":126.4991309,"totalSpaces":34,"isFree":true,"operatingDays":"평일+토요일+공휴일","weekdayOpen":"00:00","weekdayClose":"23:59","weekendOpen":"00:00","weekendClose":"23:59","holidayOpen":"00:00","holidayClose":"23:59","feeInfo":"무료","phone":"032-930-3355","updatedAt":"2025-04-17","sido":"인천광역시","sigungu":"강화군","dong":"강화읍"},{"name":"대룡리공영주차장","type":"공영","category":"노외","address":"인천광역시 강화군 교동면 대룡리 466-19","lat":37.78170318,"lng":126.2791555,"totalSpaces":28,"isFree":true,"operatingDays":"평일+토요일+공휴일","weekdayOpen":"00:00","weekdayClose":"23:59","weekendOpen":"00:00","weekendClose":"23:59","holidayOpen":"00:00","holidayClose":"23:59","feeInfo":"무료","phone":"032-930-3355","updatedAt":"2025-04-17","sido":"인천광역시","sigungu":"강화군","dong":"교동면"},{"name":"신문 공영주차장","type":"공영","category":"노외","address":"인천광역시 강화군 강화읍 신문리 540","lat":37.74460503,"lng":126.4798356,"totalSpaces":26,"isFree":true,"operatingDays":"평일+토요일+공휴일","weekdayOpen":"00:00","weekdayClose":"23:59","weekendOpen":"00:00","weekendClose":"23:59","holidayOpen":"00:00","holidayClose":"23:59","feeInfo":"무료","phone":"032-930-3355","updatedAt":"2025-04-17","sido":"인천광역시","sigungu":"강화군","dong":"강화읍"},{"name":"관청 제2공영주차장","type":"공영","category":"노외","address":"인천광역시 강화군 강화읍 관청리 813-1","lat":37.7532887,"lng":126.479583,"totalSpaces":24,"isFree":true,"operatingDays":"평일+토요일+공휴일","weekdayOpen":"00:00","weekdayClose":"23:59","weekendOpen":"00:00","weekendClose":"23:59","holidayOpen":"00:00","holidayClose":"23:59","feeInfo":"무료","phone":"032-930-3355","updatedAt":"2025-04-17","sido":"인천광역시","sigungu":"강화군","dong":"강화읍"},{"name":"동문안 공영주차장","type":"공영","category":"노외","address":"인천광역시 강화군 강화읍 동문안길40번길 7","lat":37.74786849,"lng":126.4891837,"totalSpaces":15,"isFree":true,"operatingDays":"평일+토요일+공휴일","weekdayOpen":"00:00","weekdayClose":"23:59","weekendOpen":"00:00","weekendClose":"23:59","holidayOpen":"00:00","holidayClose":"23:59","feeInfo":"무료","phone":"032-930-3355","updatedAt":"2025-04-17","sido":"인천광역시","sigungu":"강화군","dong":"강화읍"},{"name":"화문석문화관주차장","type":"공영","category":"노외","address":"인천광역시 강화군 송해면 장정양오길 413","lat":37.79571134,"lng":126.4547784,"totalSpaces":12,"isFree":true,"operatingDays":"평일+토요일+공휴일","weekdayOpen":"00:00","weekdayClose":"23:59","weekendOpen":"00:00","weekendClose":"23:59","holidayOpen":"00:00","holidayClose":"23:59","feeInfo":"무료","phone":"032-930-3355","updatedAt":"2025-04-17","sido":"인천광역시","sigungu":"강화군","dong":"송해면"},{"name":"풍물시장주차장","type":"공영","category":"노외","address":"인천광역시 강화군 강화읍 중앙로 17-9","lat":37.741421,"lng":126.4928674,"totalSpaces":264,"isFree":false,"operatingDays":"평일+토요일+공휴일","weekdayOpen":"00:00","weekdayClose":"23:59","weekendOpen":"00:00","weekendClose":"23:59","holidayOpen":"00:00","holidayClose":"23:59","feeInfo":"기본 30분 600원 / 추가 15분당 300원","phone":"032-930-3355","updatedAt":"2025-04-17","sido":"인천광역시","sigungu":"강화군","dong":"강화읍"},{"name":"남문 공영주차장","type":"공영","category":"노외","address":"인천광역시 강화군 강화읍 신문리 4-1","lat":37.74508761,"lng":126.4864718,"totalSpaces":164,"isFree":false,"operatingDays":"평일+토요일+공휴일","weekdayOpen":"00:00","weekdayClose":"23:59","weekendOpen":"00:00","weekendClose":"23:59","holidayOpen":"00:00","holidayClose":"23:59","feeInfo":"기본 30분 600원 / 추가 15분당 300원","phone":"032-930-3355","updatedAt":"2025-04-17","sido":"인천광역시","sigungu":"강화군","dong":"강화읍"},{"name":"매음 제1공영주차장","type":"공영","category":"노외","address":"인천광역시 강화군 삼산면 매음리 641-10","lat":37.68519739,"lng":126.3163775,"totalSpaces":151,"isFree":false,"operatingDays":"토요일+공휴일","weekdayOpen":"00:00","weekdayClose":"00:00","weekendOpen":"00:00","weekendClose":"23:59","holidayOpen":"00:00","holidayClose":"23:59","feeInfo":"기본 60분 2,000원","phone":"032-930-3355","updatedAt":"2025-04-17","sido":"인천광역시","sigungu":"강화군","dong":"삼산면"},{"name":"중앙로주차장","type":"공영","category":"노상","address":"인천광역시 강화군 강화읍 관청리 1015-1","lat":37.74639133,"lng":126.4865968,"totalSpaces":120,"isFree":false,"operatingDays":"평일+토요일+공휴일","weekdayOpen":"00:00","weekdayClose":"23:59","weekendOpen":"00:00","weekendClose":"23:59","holidayOpen":"00:00","holidayClose":"23:59","feeInfo":"기본 30분 600원 / 추가 15분당 300원","phone":"032-930-3355","updatedAt":"2025-04-17","sido":"인천광역시","sigungu":"강화군","dong":"강화읍"},{"name":"동막해변 공영주차장","type":"공영","category":"노외","address":"인천광역시 강화군 화도면 동막리 60-1","lat":37.59516055,"lng":126.4564131,"totalSpaces":94,"isFree":false,"operatingDays":"평일+토요일+공휴일","weekdayOpen":"00:00","weekdayClose":"23:59","weekendOpen":"00:00","weekendClose":"23:59","holidayOpen":"00:00","holidayClose":"23:59","feeInfo":"기본 60분 2,000원","phone":"032-930-3355","updatedAt":"2025-04-17","sido":"인천광역시","sigungu":"강화군","dong":"화도면"},{"name":"신문리주차장","type":"공영","category":"노외","address":"인천광역시 강화군 강화읍 신문리 230","lat":37.74740587,"lng":126.4826999579,"totalSpaces":89,"isFree":false,"operatingDays":"평일+토요일+공휴일","weekdayOpen":"00:00","weekdayClose":"23:59","weekendOpen":"00:00","weekendClose":"23:59","holidayOpen":"00:00","holidayClose":"23:59","feeInfo":"기본 30분 600원 / 추가 15분당 300원","phone":"032-930-3355","updatedAt":"2025-04-17","sido":"인천광역시","sigungu":"강화군","dong":"강화읍"},{"name":"남산리(구.풍물시장)주차장","type":"공영","category":"노외","address":"인천광역시 강화군 강화읍 남산리 572-3","lat":37.74272649,"lng":126.4901309,"totalSpaces":82,"isFree":false,"operatingDays":"평일+토요일+공휴일","weekdayOpen":"00:00","weekdayClose":"23:59","weekendOpen":"00:00","weekendClose":"23:59","holidayOpen":"00:00","holidayClose":"23:59","feeInfo":"기본 30분 600원 / 추가 15분당 300원","phone":"032-930-3355","updatedAt":"2025-04-17","sido":"인천광역시","sigungu":"강화군","dong":"강화읍"},{"name":"강화종합전시관(구.토산품센터)주차장","type":"공영","category":"노외","address":"인천광역시 강화군 강화읍 남산리 14-5","lat":37.74318299,"lng":126.4875812,"totalSpaces":78,"isFree":false,"operatingDays":"평일+토요일+공휴일","weekdayOpen":"00:00","weekdayClose":"23:59","weekendOpen":"00:00","weekendClose":"23:59","holidayOpen":"00:00","holidayClose":"23:59","feeInfo":"기본 30분 600원 / 추가 15분당 300원","phone":"032-930-3355","updatedAt":"2025-04-17","sido":"인천광역시","sigungu":"강화군","dong":"강화읍"},{"name":"관청리주차장","type":"공영","category":"노외","address":"인천광역시 강화군 강화읍 관청리 523-1","lat":37.74880011,"lng":126.4835818,"totalSpaces":72,"isFree":false,"operatingDays":"평일+토요일+공휴일","weekdayOpen":"00:00","weekdayClose":"23:59","weekendOpen":"00:00","weekendClose":"23:59","holidayOpen":"00:00","holidayClose":"23:59","feeInfo":"기본 30분 600원 / 추가 15분당 300원","phone":"032-930-3355","updatedAt":"2025-04-17","sido":"인천광역시","sigungu":"강화군","dong":"강화읍"},{"name":"강화읍 신문 제1공영주차장","type":"공영","category":"노외","address":"인천광역시 강화군 강화읍 신문리 509-2","lat":37.74319511,"lng":126.4793285,"totalSpaces":59,"isFree":false,"operatingDays":"평일+토요일+공휴일","weekdayOpen":"00:00","weekdayClose":"23:59","weekendOpen":"00:00","weekendClose":"23:59","holidayOpen":"00:00","holidayClose":"23:59","feeInfo":"기본 30분 600원 / 추가 15분당 300원","phone":"032-930-3355","updatedAt":"2025-04-17","sido":"인천광역시","sigungu":"강화군","dong":"강화읍"}]}