{"sido":"인천광역시","sigungu":"계양구","totalCount":113,"validCount":113,"items":[{"name":"다남공원1","type":"공영","category":"노외","address":"인천광역시 계양구 장기동 115-340","lat":37.5744393968,"lng":126.736265986,"totalSpaces":35,"isFree":true,"operatingDays":"평일+토요일+공휴일","weekdayOpen":"00:00","weekdayClose":"23:59","weekendOpen":"00:00","weekendClose":"23:59","holidayOpen":"00:00","holidayClose":"23:59","feeInfo":"무료","phone":"032-262-7715","updatedAt":"2025-05-15","sido":"인천광역시","sigungu":"계양구","dong":"장기동"},{"name":"모텡이공원","type":"공영","category":"노외","address":"인천광역시 계양구 동양동 607-1","lat":37.561891,"lng":126.754894,"totalSpaces":30,"isFree":true,"operatingDays":"평일+토요일+공휴일","weekdayOpen":"00:00","weekdayClose":"00:00","weekendOpen":"00:00","weekendClose":"00:00","holidayOpen":"00:00","holidayClose":"00:00","feeInfo":"무료","phone":"032-262-7715","updatedAt":"2020-09-07","sido":"인천광역시","sigungu":"계양구","dong":"동양동"},{"name":"모텡이공원주차장","type":"공영","category":"노외","address":"인천광역시 계양구 동양동 607-1","lat":37.561891,"lng":126.754894,"totalSpaces":30,"isFree":true,"operatingDays":"평일+토요일+공휴일","weekdayOpen":"00:00","weekdayClose":"23:59","weekendOpen":"00:00","weekendClose":"23:59","holidayOpen":"00:00","holidayClose":"23:59","feeInfo":"무료","phone":"032-262-7715","updatedAt":"2025-05-15","sido":"인천광역시","sigungu":"계양구","dong":"동양동"},{"name":"황어장터","type":"공영","category":"노외","address":"인천광역시 계양구 장기동 139","lat":37.579207,"lng":126.735238,"totalSpaces":26,"isFree":true,"operatingDays":"평일+토요일+공휴일","weekdayOpen":"00:00","weekdayClose":"00:00","weekendOpen":"00:00","weekendClose":"00:00","holidayOpen":"00:00","holidayClose":"00:00","feeInfo":"무료","phone":"032-262-7715","updatedAt":"2020-09-07","sido":"인천광역시","sigungu":"계양구","dong":"장기동"},{"name":"황어장터주차장","type":"공영","category":"노외","address":"인천광역시 계양구 장기동 139","lat":37.578711,"lng":126.735566,"totalSpaces":26,"isFree":true,"operatingDays":"평일+토요일+공휴일","weekdayOpen":"00:00","weekdayClose":"23:59","weekendOpen":"00:00","weekendClose":"23:59","holidayOpen":"00:00","holidayClose":"23:59","feeInfo":"무료","phone":"032-262-7715","updatedAt":"2025-05-15","sido":"인천광역시","sigungu":"계양구","dong":"장기동"},{"name":"효성동 81주차장","type":"공영","category":"노외","address":"인천광역시 계양구 안남로553번길 11-1","lat":37.532373,"lng":126.709421,"totalSpaces":24,"isFree":true,"operatingDays":"평일+토요일+공휴일","weekdayOpen":"00:00","weekdayClose":"23:59","weekendOpen":"00:00","weekendClose":"23:59","holidayOpen":"00:00","holidayClose":"23:59","feeInfo":"무료","phone":"032-262-7715","updatedAt":"2025-05-15","sido":"인천광역시","sigungu":"계양구","dong":"효성동"},{"name":"임학공원","type":"공영","category":"노외","address":"인천광역시 계양구 화산로 3","lat":37.548351,"lng":126.7334118,"totalSpaces":21,"isFree":true,"operatingDays":"평일+토요일+공휴일","weekdayOpen":"00:00","weekdayClose":"00:00","weekendOpen":"00:00","weekendClose":"00:00","holidayOpen":"00:00","holidayClose":"00:00","feeInfo":"무료","phone":"032-262-7715","updatedAt":"2020-09-07","sido":"인천광역시","sigungu":"계양구","dong":""},{"name":"살나리공원","type":"공영","category":"노외","address":"인천광역시 계양구 서운동 185","lat":37.536257,"lng":126.746095,"totalSpaces":20,"isFree":true,"operatingDays":"평일+토요일+공휴일","weekdayOpen":"00:00","weekdayClose":"00:00","weekendOpen":"00:00","weekendClose":"00:00","holidayOpen":"00:00","holidayClose":"00:00","feeInfo":"무료","phone":"032-262-7715","updatedAt":"2020-09-07","sido":"인천광역시","sigungu":"계양구","dong":"서운동"},{"name":"살나리공원주차장","type":"공영","category":"노외","address":"인천광역시 계양구 서운동 185","lat":37.536483,"lng":126.746095,"totalSpaces":20,"isFree":true,"operatingDays":"평일+토요일+공휴일","weekdayOpen":"00:00","weekdayClose":"23:59","weekendOpen":"00:00","weekendClose":"23:59","holidayOpen":"00:00","holidayClose":"23:59","feeInfo":"무료","phone":"032-262-7715","updatedAt":"2025-05-15","sido":"인천광역시","sigungu":"계양구","dong":"서운동"},{"name":"효성동 681(효성도서관 옆)주차장","type":"공영","category":"노외","address":"인천광역시 계양구 효성동 681","lat":37.52882,"lng":126.714977,"totalSpaces":19,"isFree":true,"operatingDays":"평일+토요일+공휴일","weekdayOpen":"00:00","weekdayClose":"23:59","weekendOpen":"00:00","weekendClose":"23:59","holidayOpen":"00:00","holidayClose":"23:59","feeInfo":"무료","phone":"032-262-7715","updatedAt":"2025-05-15","sido":"인천광역시","sigungu":"계양구","dong":"효성동"},{"name":"마장로","type":"공영","category":"노외","address":"인천광역시 계양구 효성동 186-1","lat":37.529013,"lng":126.705403,"totalSpaces":18,"isFree":true,"operatingDays":"평일+토요일+공휴일","weekdayOpen":"00:00","weekdayClose":"00:00","weekendOpen":"00:00","weekendClose":"00:00","holidayOpen":"00:00","holidayClose":"00:00","feeInfo":"무료","phone":"032-262-7715","updatedAt":"2020-09-07","sido":"인천광역시","sigungu":"계양구","dong":"효성동"},{"name":"마장로주차장","type":"공영","category":"노외","address":"인천광역시 계양구 효성동 186-1","lat":37.528813,"lng":126.705387,"totalSpaces":18,"isFree":true,"operatingDays":"평일+토요일+공휴일","weekdayOpen":"00:00","weekdayClose":"23:59","weekendOpen":"00:00","weekendClose":"23:59","holidayOpen":"00:00","holidayClose":"23:59","feeInfo":"무료","phone":"032-262-7715","updatedAt":"2025-05-15","sido":"인천광역시","sigungu":"계양구","dong":"효성동"},{"name":"서녁공원","type":"공영","category":"노외","address":"인천광역시 계양구 당미3길 22","lat":37.5605467,"lng":126.7579285,"totalSpaces":17,"isFree":true,"operatingDays":"평일+토요일+공휴일","weekdayOpen":"00:00","weekdayClose":"00:00","weekendOpen":"00:00","weekendClose":"00:00","holidayOpen":"00:00","holidayClose":"00:00","feeInfo":"무료","phone":"032-262-7715","updatedAt":"2020-09-07","sido":"인천광역시","sigungu":"계양구","dong":"동양동"},{"name":"굴재공원","type":"공영","category":"노외","address":"인천광역시 계양구 귤현동 499-5","lat":37.568414,"lng":126.749062,"totalSpaces":17,"isFree":true,"operatingDays":"평일+토요일+공휴일","weekdayOpen":"00:00","weekdayClose":"00:00","weekendOpen":"00:00","weekendClose":"00:00","holidayOpen":"00:00","holidayClose":"00:00","feeInfo":"무료","phone":"032-262-7715","updatedAt":"2020-09-07","sido":"인천광역시","sigungu":"계양구","dong":"귤현동"},{"name":"서녁공원주차장","type":"공영","category":"노외","address":"인천광역시 계양구 당미3길 22","lat":37.560547,"lng":126.757929,"totalSpaces":17,"isFree":true,"operatingDays":"평일+토요일+공휴일","weekdayOpen":"00:00","weekdayClose":"23:59","weekendOpen":"00:00","weekendClose":"23:59","holidayOpen":"00:00","holidayClose":"23:59","feeInfo":"무료","phone":"032-262-7715","updatedAt":"2025-05-15","sido":"인천광역시","sigungu":"계양구","dong":"동양동"},{"name":"굴재공원주차장","type":"공영","category":"노외","address":"인천광역시 계양구 귤현동 499-5","lat":37.56821,"lng":126.749062,"totalSpaces":17,"isFree":true,"operatingDays":"평일+토요일+공휴일","weekdayOpen":"00:00","weekdayClose":"23:59","weekendOpen":"00:00","weekendClose":"23:59","holidayOpen":"00:00","holidayClose":"23:59","feeInfo":"무료","phone":"032-262-7715","updatedAt":"2025-05-15","sido":"인천광역시","sigungu":"계양구","dong":"귤현동"},{"name":"장터공원","type":"공영","category":"노외","address":"인천광역시 계양구 장기동 144-3","lat":37.579757,"lng":126.737463,"totalSpaces":16,"isFree":true,"operatingDays":"평일+토요일+공휴일","weekdayOpen":"00:00","weekdayClose":"00:00","weekendOpen":"00:00","weekendClose":"00:00","holidayOpen":"00:00","holidayClose":"00:00","feeInfo":"무료","phone":"032-262-7715","updatedAt":"2020-09-07","sido":"인천광역시","sigungu":"계양구","dong":"장기동"},{"name":"장터공원주차장","type":"공영","category":"노외","address":"인천광역시 계양구 장기동 144-3","lat":37.579425,"lng":126.737395,"totalSpaces":16,"isFree":true,"operatingDays":"평일+토요일+공휴일","weekdayOpen":"00:00","weekdayClose":"23:59","weekendOpen":"00:00","weekendClose":"23:59","holidayOpen":"00:00","holidayClose":"23:59","feeInfo":"무료","phone":"032-262-7715","updatedAt":"2025-05-15","sido":"인천광역시","sigungu":"계양구","dong":"장기동"},{"name":"계양역주차장","type":"공영","category":"노외","address":"인천광역시 계양구 장기동 115-312","lat":37.571181,"lng":126.7347999899,"totalSpaces":15,"isFree":true,"operatingDays":"평일+토요일+공휴일","weekdayOpen":"00:00","weekdayClose":"23:59","weekendOpen":"00:00","weekendClose":"23:59","holidayOpen":"00:00","holidayClose":"23:59","feeInfo":"무료","phone":"032-262-7715","updatedAt":"2025-05-15","sido":"인천광역시","sigungu":"계양구","dong":"장기동"},{"name":"안골공원","type":"공영","category":"노외","address":"인천광역시 계양구 귤현길 47-1","lat":37.5701599,"lng":126.7465688,"totalSpaces":14,"isFree":true,"operatingDays":"평일+토요일+공휴일","weekdayOpen":"00:00","weekdayClose":"00:00","weekendOpen":"00:00","weekendClose":"00:00","holidayOpen":"00:00","holidayClose":"00:00","feeInfo":"무료","phone":"032-262-7715","updatedAt":"2020-09-07","sido":"인천광역시","sigungu":"계양구","dong":"귤현동"},{"name":"양지말공원","type":"공영","category":"노외","address":"인천광역시 계양구 동양동 593-2","lat":37.563413,"lng":126.753408,"totalSpaces":14,"isFree":true,"operatingDays":"평일+토요일+공휴일","weekdayOpen":"00:00","weekdayClose":"00:00","weekendOpen":"00:00","weekendClose":"00:00","holidayOpen":"00:00","holidayClose":"00:00","feeInfo":"무료","phone":"032-262-7715","updatedAt":"2020-09-07","sido":"인천광역시","sigungu":"계양구","dong":"동양동"},{"name":"양지말공원주차장","type":"공영","category":"노외","address":"인천광역시 계양구 동양동 593-2","lat":37.563413,"lng":126.754339,"totalSpaces":14,"isFree":true,"operatingDays":"평일+토요일+공휴일","weekdayOpen":"00:00","weekdayClose":"23:59","weekendOpen":"00:00","weekendClose":"23:59","holidayOpen":"00:00","holidayClose":"23:59","feeInfo":"무료","phone":"032-262-7715","updatedAt":"2025-05-15","sido":"인천광역시","sigungu":"계양구","dong":"동양동"},{"name":"명현쌈지","type":"공영","category":"노상","address":"인천광역시 계양구 효성동665-38","lat":37.531769,"lng":126.711833,"totalSpaces":13,"isFree":true,"operatingDays":"평일+토요일+공휴일","weekdayOpen":"00:00","weekdayClose":"00:00","weekendOpen":"00:00","weekendClose":"00:00","holidayOpen":"00:00","holidayClose":"00:00","feeInfo":"무료","phone":"032-262-7715","updatedAt":"2020-09-07","sido":"인천광역시","sigungu":"계양구","dong":""},{"name":"명현쌈지주차장","type":"공영","category":"노상","address":"인천광역시 계양구 효성동665-38","lat":37.531769,"lng":126.711833,"totalSpaces":13,"isFree":true,"operatingDays":"평일+토요일+공휴일","weekdayOpen":"00:00","weekdayClose":"23:59","weekendOpen":"00:00","weekendClose":"23:59","holidayOpen":"00:00","holidayClose":"23:59","feeInfo":"무료","phone":"032-262-7715","updatedAt":"2025-05-15","sido":"인천광역시","sigungu":"계양구","dong":""},{"name":"작전동 94-1","type":"공영","category":"노상","address":"인천광역시 계양구 작전동 94-1","lat":37.531843,"lng":126.730741,"totalSpaces":11,"isFree":true,"operatingDays":"평일+토요일+공휴일","weekdayOpen":"00:00","weekdayClose":"00:00","weekendOpen":"00:00","weekendClose":"00:00","holidayOpen":"00:00","holidayClose":"00:00","feeInfo":"무료","phone":"032-262-7715","updatedAt":"2020-09-07","sido":"인천광역시","sigungu":"계양구","dong":"작전동"},{"name":"안골공원주차장","type":"공영","category":"노외","address":"인천광역시 계양구 귤현길 47-1","lat":37.570161,"lng":126.746569,"totalSpaces":10,"isFree":true,"operatingDays":"평일+토요일+공휴일","weekdayOpen":"00:00","weekdayClose":"23:59","weekendOpen":"00:00","weekendClose":"23:59","holidayOpen":"00:00","holidayClose":"23:59","feeInfo":"무료","phone":"032-262-7715","updatedAt":"2025-05-15","sido":"인천광역시","sigungu":"계양구","dong":"귤현동"},{"name":"작전동 71-5","type":"공영","category":"노상","address":"인천광역시 계양구 주부토로448번길 13-25","lat":37.53373176,"lng":126.7307032,"totalSpaces":7,"isFree":true,"operatingDays":"평일+토요일+공휴일","weekdayOpen":"00:00","weekdayClose":"00:00","weekendOpen":"00:00","weekendClose":"00:00","holidayOpen":"00:00","holidayClose":"00:00","feeInfo":"무료","phone":"032-262-7715","updatedAt":"2020-09-07","sido":"인천광역시","sigungu":"계양구","dong":"작전동"},{"name":"작전동 71-5주차장","type":"공영","category":"노상","address":"인천광역시 계양구 주부토로448번길 13-25","lat":37.533732,"lng":126.730703,"totalSpaces":7,"isFree":true,"operatingDays":"평일+토요일+공휴일","weekdayOpen":"00:00","weekdayClose":"23:59","weekendOpen":"00:00","weekendClose":"23:59","holidayOpen":"00:00","holidayClose":"23:59","feeInfo":"무료","phone":"032-262-7715","updatedAt":"2025-05-15","sido":"인천광역시","sigungu":"계양구","dong":"작전동"},{"name":"샘터공원","type":"공영","category":"노외","address":"인천광역시 계양구 귤현동 509-4","lat":37.568264,"lng":126.745122,"totalSpaces":5,"isFree":true,"operatingDays":"평일+토요일+공휴일","weekdayOpen":"00:00","weekdayClose":"00:00","weekendOpen":"00:00","weekendClose":"00:00","holidayOpen":"00:00","holidayClose":"00:00","feeInfo":"무료","phone":"032-262-7715","updatedAt":"2020-09-07","sido":"인천광역시","sigungu":"계양구","dong":"귤현동"},{"name":"샘터공원주차장","type":"공영","category":"노외","address":"인천광역시 계양구 귤현동 509-4","lat":37.568042,"lng":126.745122,"totalSpaces":5,"isFree":true,"operatingDays":"평일+토요일+공휴일","weekdayOpen":"00:00","weekdayClose":"23:59","weekendOpen":"00:00","weekendClose":"23:59","holidayOpen":"00:00","holidayClose":"23:59","feeInfo":"무료","phone":"032-262-7715","updatedAt":"2025-05-15","sido":"인천광역시","sigungu":"계양구","dong":"귤현동"},{"name":"효성동 쌈지","type":"공영","category":"노상","address":"인천광역시 계양구 효성동 172-19,20","lat":37.529735,"lng":126.707042,"totalSpaces":3,"isFree":true,"operatingDays":"평일+토요일+공휴일","weekdayOpen":"00:00","weekdayClose":"00:00","weekendOpen":"00:00","weekendClose":"00:00","holidayOpen":"00:00","holidayClose":"00:00","feeInfo":"무료","phone":"032-262-7715","updatedAt":"2020-09-07","sido":"인천광역시","sigungu":"계양구","dong":"효성동"},{"name":"계양IC 화물공영차고지주차장","type":"공영","category":"노외","address":"인천광역시 계양구 경명대로 1322-1","lat":37.540623,"lng":126.752358,"totalSpaces":437,"isFree":false,"operatingDays":"평일+토요일+공휴일","weekdayOpen":"00:00","weekdayClose":"23:59","weekendOpen":"00:00","weekendClose":"23:59","holidayOpen":"00:00","holidayClose":"23:59","feeInfo":"유료","phone":"032-262-7715","updatedAt":"2025-05-15","sido":"인천광역시","sigungu":"계양구","dong":"용종동"},{"name":"계산4","type":"공영","category":"노외","address":"인천광역시 계양구 도두리로6번길 23","lat":37.53188825,"lng":126.7350489,"totalSpaces":362,"isFree":false,"operatingDays":"평일+토요일+공휴일","weekdayOpen":"00:00","weekdayClose":"23:59","weekendOpen":"00:00","weekendClose":"23:59","holidayOpen":"00:00","holidayClose":"23:59","feeInfo":"기본 30분 600원 / 추가 15분당 300원","phone":"032-579-2701","updatedAt":"2025-06-26","sido":"인천광역시","sigungu":"계양구","dong":"작전동"},{"name":"계산4","type":"공영","category":"노외","address":"인천광역시 계양구 작전동 903","lat":37.53188825,"lng":126.7350489,"totalSpaces":362,"isFree":false,"operatingDays":"평일+토요일+공휴일","weekdayOpen":"00:01","weekdayClose":"12:00","weekendOpen":"00:01","weekendClose":"12:00","holidayOpen":"00:01","holidayClose":"12:00","feeInfo":"기본 30분 600원 / 추가 15분당 300원","phone":"032-579-2701","updatedAt":"2025-06-25","sido":"인천광역시","sigungu":"계양구","dong":"작전동"},{"name":"계산2주차장","type":"공영","category":"노외","address":"인천광역시 계양구 계산동 1079-2","lat":37.53635,"lng":126.73733,"totalSpaces":266,"isFree":false,"operatingDays":"평일+토요일+공휴일","weekdayOpen":"00:00","weekdayClose":"23:59","weekendOpen":"00:00","weekendClose":"23:59","holidayOpen":"00:00","holidayClose":"23:59","feeInfo":"기본 30분 600원 / 추가 15분당 300원","phone":"032-262-7715","updatedAt":"2025-05-15","sido":"인천광역시","sigungu":"계양구","dong":"계산동"},{"name":"계양IC 화물공영차고지","type":"공영","category":"노외","address":"인천광역시 계양구 경명대로 1322-1","lat":37.54062314,"lng":126.752358,"totalSpaces":256,"isFree":false,"operatingDays":"평일+토요일+공휴일","weekdayOpen":"00:00","weekdayClose":"00:00","weekendOpen":"00:00","weekendClose":"00:00","holidayOpen":"00:00","holidayClose":"00:00","feeInfo":"기본 0분 0원 / 추가 0분당 0원","phone":"032-262-7715","updatedAt":"2020-09-07","sido":"인천광역시","sigungu":"계양구","dong":"용종동"},{"name":"계산체육공원지하주차장","type":"공영","category":"노외","address":"인천광역시 계양구 주부토로 570","lat":37.545044,"lng":126.728997,"totalSpaces":215,"isFree":false,"operatingDays":"평일+토요일+공휴일","weekdayOpen":"00:00","weekdayClose":"23:59","weekendOpen":"00:00","weekendClose":"23:59","holidayOpen":"00:00","holidayClose":"23:59","feeInfo":"기본 30분 600원 / 추가 15분당 300원","phone":"032-262-7715","updatedAt":"2025-05-15","sido":"인천광역시","sigungu":"계양구","dong":"계산동"},{"name":"계산체육공원지하","type":"공영","category":"노외","address":"인천광역시 계양구 주부토로 570","lat":37.54504438,"lng":126.7289968,"totalSpaces":209,"isFree":false,"operatingDays":"평일+토요일+공휴일","weekdayOpen":"00:00","weekdayClose":"23:59","weekendOpen":"00:00","weekendClose":"23:59","holidayOpen":"00:00","holidayClose":"23:59","feeInfo":"기본 30분 600원 / 추가 15분당 300원","phone":"032-262-7715","updatedAt":"2020-09-07","sido":"인천광역시","sigungu":"계양구","dong":"계산동"},{"name":"계산1","type":"공영","category":"노외","address":"인천광역시 계양구 계양문화로 111","lat":37.54098745,"lng":126.7367574,"totalSpaces":202,"isFree":false,"operatingDays":"평일+토요일+공휴일","weekdayOpen":"00:00","weekdayClose":"23:59","weekendOpen":"00:00","weekendClose":"23:59","holidayOpen":"00:00","holidayClose":"23:59","feeInfo":"기본 30분 600원 / 추가 15분당 300원","phone":"032-579-2701","updatedAt":"2025-06-26","sido":"인천광역시","sigungu":"계양구","dong":"계산동"},{"name":"계산1","type":"공영","category":"노외","address":"인천광역시 계양구 계양문화로 111","lat":37.54098745,"lng":126.7367574,"totalSpaces":202,"isFree":false,"operatingDays":"평일+토요일+공휴일","weekdayOpen":"00:01","weekdayClose":"12:00","weekendOpen":"00:01","weekendClose":"12:00","holidayOpen":"00:01","holidayClose":"12:00","feeInfo":"기본 30분 600원 / 추가 15분당 300원","phone":"032-579-2701","updatedAt":"2025-06-25","sido":"인천광역시","sigungu":"계양구","dong":"계산동"},{"name":"인천교통공사 계양역 부설주차장","type":"민영","category":"부설","address":"인천광역시 계양구 다남로 24","lat":37.57160937,"lng":126.7360234,"totalSpaces":188,"isFree":false,"operatingDays":"평일+토요일+공휴일","weekdayOpen":"00:00","weekdayClose":"23:59","weekendOpen":"00:00","weekendClose":"23:59","holidayOpen":"00:00","holidayClose":"23:59","feeInfo":"기본 10분 350원 / 추가 10분당 350원","phone":"032-451-2187","updatedAt":"2025-08-19","sido":"인천광역시","sigungu":"계양구","dong":"귤현동"},{"name":"계양산주차장","type":"공영","category":"노외","address":"인천광역시 계양구 계양산로 102번길 4","lat":37.547302,"lng":126.726598,"totalSpaces":179,"isFree":false,"operatingDays":"평일+토요일+공휴일","weekdayOpen":"00:00","weekdayClose":"23:59","weekendOpen":"00:00","weekendClose":"23:59","holidayOpen":"00:00","holidayClose":"23:59","feeInfo":"기본 30분 600원 / 추가 15분당 300원","phone":"032-262-7715","updatedAt":"2025-05-15","sido":"인천광역시","sigungu":"계양구","dong":"계산동"},{"name":"계양산","type":"공영","category":"노외","address":"인천광역시 계양구 계양산로 102번길 4","lat":37.54730208,"lng":126.726598,"totalSpaces":175,"isFree":false,"operatingDays":"평일+토요일+공휴일","weekdayOpen":"00:00","weekdayClose":"23:59","weekendOpen":"00:00","weekendClose":"23:59","holidayOpen":"00:00","holidayClose":"23:59","feeInfo":"기본 30분 600원 / 추가 15분당 300원","phone":"032-262-7715","updatedAt":"2020-09-07","sido":"인천광역시","sigungu":"계양구","dong":"계산동"},{"name":"계산복개천(하)","type":"공영","category":"노상","address":"인천광역시 계양구 계산천동로 1","lat":37.5394556075,"lng":126.7230634654,"totalSpaces":165,"isFree":false,"operatingDays":"평일","weekdayOpen":"11:00","weekdayClose":"20:00","weekendOpen":"00:00","weekendClose":"00:00","holidayOpen":"00:00","holidayClose":"00:00","feeInfo":"기본 30분 600원 / 추가 15분당 300원","phone":"032-262-7715","updatedAt":"2020-09-07","sido":"인천광역시","sigungu":"계양구","dong":"계산동"},{"name":"계산복개천(하)주차장","type":"공영","category":"노상","address":"인천광역시 계양구 계산천동로 9","lat":37.538963,"lng":126.723714,"totalSpaces":165,"isFree":false,"operatingDays":"평일","weekdayOpen":"11:00","weekdayClose":"20:00","weekendOpen":"00:00","weekendClose":"00:00","holidayOpen":"00:00","holidayClose":"00:00","feeInfo":"기본 30분 600원 / 추가 15분당 300원","phone":"032-262-7715","updatedAt":"2025-05-15","sido":"인천광역시","sigungu":"계양구","dong":""},{"name":"계산3","type":"공영","category":"노외","address":"인천광역시 계양구 계산새로 88","lat":37.53744173,"lng":126.7377592,"totalSpaces":161,"isFree":false,"operatingDays":"평일+토요일+공휴일","weekdayOpen":"00:00","weekdayClose":"23:59","weekendOpen":"00:00","weekendClose":"23:59","holidayOpen":"00:00","holidayClose":"23:59","feeInfo":"기본 30분 600원 / 추가 15분당 300원","phone":"032-579-2701","updatedAt":"2025-06-26","sido":"인천광역시","sigungu":"계양구","dong":"계산동"},{"name":"계산3","type":"공영","category":"노외","address":"인천광역시 계양구 계산새로 88","lat":37.53744173,"lng":126.7377592,"totalSpaces":161,"isFree":false,"operatingDays":"평일+토요일+공휴일","weekdayOpen":"00:01","weekdayClose":"12:00","weekendOpen":"00:01","weekendClose":"12:00","holidayOpen":"00:01","holidayClose":"12:00","feeInfo":"기본 30분 600원 / 추가 15분당 300원","phone":"032-579-2701","updatedAt":"2025-06-25","sido":"인천광역시","sigungu":"계양구","dong":"계산동"},{"name":"문화회관 부설","type":"공영","category":"부설","address":"인천광역시 계양구 계양산로 35번길 11","lat":37.54607851,"lng":126.7181298,"totalSpaces":142,"isFree":false,"operatingDays":"평일+토요일","weekdayOpen":"10:00","weekdayClose":"20:00","weekendOpen":"10:00","weekendClose":"20:00","holidayOpen":"00:00","holidayClose":"00:00","feeInfo":"기본 30분 400원 / 추가 15분당 200원","phone":"032-262-7715","updatedAt":"2020-09-07","sido":"인천광역시","sigungu":"계양구","dong":"계산동"},{"name":"문화회관 부설주차장","type":"공영","category":"부설","address":"인천광역시 계양구 계양산로 35번길 11","lat":37.546079,"lng":126.718131,"totalSpaces":136,"isFree":false,"operatingDays":"평일+토요일","weekdayOpen":"10:00","weekdayClose":"20:00","weekendOpen":"10:00","weekendClose":"20:00","holidayOpen":"00:00","holidayClose":"00:00","feeInfo":"기본 30분 400원 / 추가 15분당 200원","phone":"032-262-7715","updatedAt":"2025-05-15","sido":"인천광역시","sigungu":"계양구","dong":"계산동"},{"name":"서운동공영차고지주차장","type":"공영","category":"노외","address":"인천광역시 계양구 아나지로 529-1","lat":37.526552,"lng":126.751712,"totalSpaces":131,"isFree":false,"operatingDays":"평일+토요일+공휴일","weekdayOpen":"00:00","weekdayClose":"23:59","weekendOpen":"00:00","weekendClose":"23:59","holidayOpen":"00:00","holidayClose":"23:59","feeInfo":"유료","phone":"032-262-7715","updatedAt":"2025-05-15","sido":"인천광역시","sigungu":"계양구","dong":"서운동"},{"name":"서운동 화물","type":"공영","category":"노외","address":"인천광역시 계양구 아나지로 529-1","lat":37.52655178,"lng":126.7517122,"totalSpaces":127,"isFree":false,"operatingDays":"평일+토요일+공휴일","weekdayOpen":"00:00","weekdayClose":"00:00","weekendOpen":"00:00","weekendClose":"00:00","holidayOpen":"00:00","holidayClose":"00:00","feeInfo":"기본 0분 0원 / 추가 0분당 0원","phone":"032-262-7715","updatedAt":"2020-09-07","sido":"인천광역시","sigungu":"계양구","dong":"서운동"},{"name":"서운산업단지 주차장주차장","type":"공영","category":"노외","address":"인천광역시 계양구 서운동 103-24","lat":37.535231,"lng":126.753901,"totalSpaces":127,"isFree":false,"operatingDays":"평일+토요일+공휴일","weekdayOpen":"11:00","weekdayClose":"19:00","weekendOpen":"00:00","weekendClose":"23:59","holidayOpen":"00:00","holidayClose":"23:59","feeInfo":"기본 30분 400원 / 추가 15분당 200원","phone":"032-262-7715","updatedAt":"2025-05-15","sido":"인천광역시","sigungu":"계양구","dong":"서운동"},{"name":"작전역 환승 동쪽(북측)","type":"공영","category":"노상","address":"인천광역시 계양구 작전동 885","lat":37.53067988,"lng":126.7239826,"totalSpaces":123,"isFree":false,"operatingDays":"평일+토요일+공휴일","weekdayOpen":"08:00","weekdayClose":"21:00","weekendOpen":"08:00","weekendClose":"21:00","holidayOpen":"08:00","holidayClose":"21:00","feeInfo":"기본 30분 600원 / 추가 15분당 300원","phone":"032-262-7715","updatedAt":"2020-09-07","sido":"인천광역시","sigungu":"계양구","dong":"작전동"},{"name":"작전역 환승 동쪽(북측)주차장","type":"공영","category":"노상","address":"인천광역시 계양구 작전동 885","lat":37.530809,"lng":126.725438,"totalSpaces":123,"isFree":false,"operatingDays":"평일+토요일+공휴일","weekdayOpen":"08:00","weekdayClose":"21:00","weekendOpen":"08:00","weekendClose":"21:00","holidayOpen":"08:00","holidayClose":"21:00","feeInfo":"기본 30분 600원 / 추가 15분당 300원","phone":"032-262-7715","updatedAt":"2025-05-15","sido":"인천광역시","sigungu":"계양구","dong":"작전동"},{"name":"계산복개천(상)","type":"공영","category":"노상","address":"인천광역시 계양구 계산천서로 1","lat":37.5430431278,"lng":126.719142753,"totalSpaces":102,"isFree":false,"operatingDays":"평일","weekdayOpen":"11:00","weekdayClose":"20:00","weekendOpen":"00:00","weekendClose":"00:00","holidayOpen":"00:00","holidayClose":"00:00","feeInfo":"기본 30분 600원 / 추가 15분당 300원","phone":"032-262-7715","updatedAt":"2020-09-07","sido":"인천광역시","sigungu":"계양구","dong":"계산동"},{"name":"방축주차장","type":"공영","category":"노외","address":"인천광역시 계양구 방축동 113","lat":37.55078,"lng":126.739487,"totalSpaces":102,"isFree":false,"operatingDays":"평일+토요일+공휴일","weekdayOpen":"08:00","weekdayClose":"21:00","weekendOpen":"08:00","weekendClose":"21:00","holidayOpen":"08:00","holidayClose":"21:00","feeInfo":"기본 30분 400원 / 추가 15분당 200원","phone":"032-262-7715","updatedAt":"2025-05-15","sido":"인천광역시","sigungu":"계양구","dong":"방축동"},{"name":"계산복개천(상)주차장","type":"공영","category":"노상","address":"인천광역시 계양구 경명대로1016번길 9","lat":37.542626,"lng":126.719858,"totalSpaces":102,"isFree":false,"operatingDays":"평일","weekdayOpen":"11:00","weekdayClose":"20:00","weekendOpen":"00:00","weekendClose":"00:00","holidayOpen":"00:00","holidayClose":"00:00","feeInfo":"기본 30분 600원 / 추가 15분당 300원","phone":"032-262-7715","updatedAt":"2025-05-15","sido":"인천광역시","sigungu":"계양구","dong":""},{"name":"작전역 환승 동쪽(남측)","type":"공영","category":"노상","address":"인천광역시 계양구 작전동 887","lat":37.53004219,"lng":126.7238831,"totalSpaces":93,"isFree":false,"operatingDays":"평일+토요일+공휴일","weekdayOpen":"08:00","weekdayClose":"21:00","weekendOpen":"08:00","weekendClose":"21:00","holidayOpen":"08:00","holidayClose":"21:00","feeInfo":"기본 30분 600원 / 추가 15분당 300원","phone":"032-262-7715","updatedAt":"2020-09-07","sido":"인천광역시","sigungu":"계양구","dong":"작전동"},{"name":"작전역 환승 동쪽(남측)주차장","type":"공영","category":"노상","address":"인천광역시 계양구 작전동 887","lat":37.529898,"lng":126.72574,"totalSpaces":93,"isFree":false,"operatingDays":"평일+토요일+공휴일","weekdayOpen":"08:00","weekdayClose":"21:00","weekendOpen":"08:00","weekendClose":"21:00","holidayOpen":"08:00","holidayClose":"21:00","feeInfo":"기본 30분 600원 / 추가 15분당 300원","phone":"032-262-7715","updatedAt":"2025-05-15","sido":"인천광역시","sigungu":"계양구","dong":"작전동"},{"name":"경인교대 환승","type":"공영","category":"노외","address":"인천광역시 계양구 계양대로163번길 3","lat":37.53842575,"lng":126.7220599,"totalSpaces":84,"isFree":false,"operatingDays":"평일+공휴일","weekdayOpen":"09:00","weekdayClose":"21:00","weekendOpen":"09:00","weekendClose":"21:00","holidayOpen":"09:00","holidayClose":"21:00","feeInfo":"기본 30분 600원 / 추가 15분당 300원","phone":"032-262-7715","updatedAt":"2020-09-07","sido":"인천광역시","sigungu":"계양구","dong":"계산동"},{"name":"경인교대 환승주차장","type":"공영","category":"노외","address":"인천광역시 계양구 계양대로163번길 3","lat":37.538426,"lng":126.722061,"totalSpaces":84,"isFree":false,"operatingDays":"평일+토요일+공휴일","weekdayOpen":"08:00","weekdayClose":"22:00","weekendOpen":"08:00","weekendClose":"22:00","holidayOpen":"08:00","holidayClose":"22:00","feeInfo":"기본 30분 600원 / 추가 15분당 300원","phone":"032-262-7715","updatedAt":"2025-05-15","sido":"인천광역시","sigungu":"계양구","dong":"계산동"},{"name":"계양대교 북단(하부)","type":"공영","category":"노외","address":"인천광역시 계양구 장기동 107-3","lat":37.575023164,"lng":126.7372672547,"totalSpaces":73,"isFree":false,"operatingDays":"평일+토요일+공휴일","weekdayOpen":"00:00","weekdayClose":"23:59","weekendOpen":"00:00","weekendClose":"23:59","holidayOpen":"00:00","holidayClose":"23:59","feeInfo":"기본 30분 400원 / 추가 15분당 200원","phone":"032-262-7715","updatedAt":"2025-05-15","sido":"인천광역시","sigungu":"계양구","dong":"장기동"},{"name":"목수천","type":"공영","category":"노외","address":"인천광역시 계양구 아나지로374번길 5","lat":37.525046,"lng":126.7337377354,"totalSpaces":70,"isFree":false,"operatingDays":"평일","weekdayOpen":"12:00","weekdayClose":"19:00","weekendOpen":"00:00","weekendClose":"00:00","holidayOpen":"00:00","holidayClose":"00:00","feeInfo":"기본 30분 600원 / 추가 15분당 300원","phone":"032-262-7715","updatedAt":"2020-09-07","sido":"인천광역시","sigungu":"계양구","dong":"작전동"},{"name":"목수천주차장","type":"공영","category":"노외","address":"인천광역시 계양구 작전동 710","lat":37.524756,"lng":126.73343,"totalSpaces":70,"isFree":false,"operatingDays":"평일+토요일+공휴일","weekdayOpen":"11:00","weekdayClose":"19:00","weekendOpen":"00:00","weekendClose":"23:59","holidayOpen":"00:00","holidayClose":"23:59","feeInfo":"기본 30분 600원 / 추가 15분당 300원","phone":"032-262-7715","updatedAt":"2025-05-15","sido":"인천광역시","sigungu":"계양구","dong":"작전동"},{"name":"작전역 환승 서쪽(남측)","type":"공영","category":"노상","address":"인천광역시 계양구 작전동 877","lat":37.53009577,"lng":126.7217588,"totalSpaces":65,"isFree":false,"operatingDays":"평일+토요일+공휴일","weekdayOpen":"08:00","weekdayClose":"21:00","weekendOpen":"08:00","weekendClose":"21:00","holidayOpen":"08:00","holidayClose":"21:00","feeInfo":"기본 30분 600원 / 추가 15분당 300원","phone":"032-262-7715","updatedAt":"2020-09-07","sido":"인천광역시","sigungu":"계양구","dong":"작전동"},{"name":"임학","type":"공영","category":"노외","address":"인천광역시 계양구 화산로 15","lat":37.54877048,"lng":126.735162,"totalSpaces":65,"isFree":false,"operatingDays":"평일+토요일+공휴일","weekdayOpen":"00:00","weekdayClose":"00:00","weekendOpen":"00:00","weekendClose":"00:00","holidayOpen":"00:00","holidayClose":"00:00","feeInfo":"기본 0분 0원 / 추가 0분당 0원","phone":"032-262-7715","updatedAt":"2020-09-07","sido":"인천광역시","sigungu":"계양구","dong":"임학동"},{"name":"임학주차장","type":"공영","category":"노외","address":"인천광역시 계양구 화산로 15","lat":37.54877,"lng":126.735162,"totalSpaces":65,"isFree":false,"operatingDays":"평일+토요일+공휴일","weekdayOpen":"00:00","weekdayClose":"23:59","weekendOpen":"00:00","weekendClose":"23:59","holidayOpen":"00:00","holidayClose":"23:59","feeInfo":"유료","phone":"032-262-7715","updatedAt":"2025-05-15","sido":"인천광역시","sigungu":"계양구","dong":"임학동"},{"name":"작전역 환승 서쪽(남측)주차장","type":"공영","category":"노상","address":"인천광역시 계양구 작전동 877","lat":37.529939,"lng":126.721702,"totalSpaces":65,"isFree":false,"operatingDays":"평일+토요일+공휴일","weekdayOpen":"08:00","weekdayClose":"21:00","weekendOpen":"08:00","weekendClose":"21:00","holidayOpen":"08:00","holidayClose":"21:00","feeInfo":"기본 30분 600원 / 추가 15분당 300원","phone":"032-262-7715","updatedAt":"2025-05-15","sido":"인천광역시","sigungu":"계양구","dong":"작전동"},{"name":"효성남주차장","type":"공영","category":"노외","address":"인천광역시 계양구 효성동 293-8","lat":37.529127,"lng":126.717877,"totalSpaces":48,"isFree":false,"operatingDays":"평일","weekdayOpen":"10:00","weekdayClose":"20:00","weekendOpen":"00:00","weekendClose":"00:00","holidayOpen":"00:00","holidayClose":"00:00","feeInfo":"기본 30분 400원 / 추가 15분당 200원","phone":"032-262-7715","updatedAt":"2025-05-15","sido":"인천광역시","sigungu":"계양구","dong":"효성동"},{"name":"계양여성회관","type":"공영","category":"노외","address":"인천광역시 계양구 봉오대로628번길 10","lat":37.529274,"lng":126.718098,"totalSpaces":44,"isFree":false,"operatingDays":"평일+토요일+공휴일","weekdayOpen":"10:00","weekdayClose":"18:00","weekendOpen":"00:00","weekendClose":"00:00","holidayOpen":"00:00","holidayClose":"00:00","feeInfo":"기본 30분 400원 / 추가 15분당 200원","phone":"032-262-7715","updatedAt":"2020-09-07","sido":"인천광역시","sigungu":"계양구","dong":"효성동"},{"name":"샛별(구 평화의길)","type":"공영","category":"노외","address":"인천광역시 계양구 안남로 543","lat":37.53147831,"lng":126.710496,"totalSpaces":41,"isFree":false,"operatingDays":"평일","weekdayOpen":"12:00","weekdayClose":"19:00","weekendOpen":"00:00","weekendClose":"00:00","holidayOpen":"00:00","holidayClose":"00:00","feeInfo":"기본 30분 400원 / 추가 15분당 200원","phone":"032-262-7715","updatedAt":"2020-09-07","sido":"인천광역시","sigungu":"계양구","dong":"효성동"},{"name":"샛별(구 평화의길)주차장","type":"공영","category":"노외","address":"인천광역시 계양구 안남로 543","lat":37.531478,"lng":126.710496,"totalSpaces":40,"isFree":false,"operatingDays":"평일","weekdayOpen":"11:00","weekdayClose":"19:00","weekendOpen":"00:00","weekendClose":"00:00","holidayOpen":"00:00","holidayClose":"00:00","feeInfo":"기본 30분 400원 / 추가 15분당 200원","phone":"032-262-7715","updatedAt":"2025-05-15","sido":"인천광역시","sigungu":"계양구","dong":"효성동"},{"name":"작전역 환승 서쪽(북측)","type":"공영","category":"노상","address":"인천광역시 계양구 작전동 876","lat":37.53069485,"lng":126.7217254,"totalSpaces":39,"isFree":false,"operatingDays":"평일+토요일+공휴일","weekdayOpen":"08:00","weekdayClose":"21:00","weekendOpen":"08:00","weekendClose":"21:00","holidayOpen":"08:00","holidayClose":"21:00","feeInfo":"기본 30분 600원 / 추가 15분당 300원","phone":"032-262-7715","updatedAt":"2020-09-07","sido":"인천광역시","sigungu":"계양구","dong":"작전동"},{"name":"작전역 환승 서쪽(북측)주차장","type":"공영","category":"노상","address":"인천광역시 계양구 작전동 876","lat":37.530713,"lng":126.721694,"totalSpaces":39,"isFree":false,"operatingDays":"평일+토요일+공휴일","weekdayOpen":"08:00","weekdayClose":"21:00","weekendOpen":"08:00","weekendClose":"21:00","holidayOpen":"08:00","holidayClose":"21:00","feeInfo":"기본 30분 600원 / 추가 15분당 300원","phone":"032-262-7715","updatedAt":"2025-05-15","sido":"인천광역시","sigungu":"계양구","dong":"작전동"},{"name":"용종","type":"공영","category":"노외","address":"인천광역시 계양구 용마루1길 2","lat":37.54271086,"lng":126.7427195,"totalSpaces":37,"isFree":false,"operatingDays":"평일","weekdayOpen":"12:00","weekdayClose":"19:00","weekendOpen":"00:00","weekendClose":"00:00","holidayOpen":"00:00","holidayClose":"00:00","feeInfo":"기본 30분 400원 / 추가 15분당 200원","phone":"032-262-7715","updatedAt":"2020-09-07","sido":"인천광역시","sigungu":"계양구","dong":"용종동"},{"name":"용종주차장","type":"공영","category":"노외","address":"인천광역시 계양구 용마루1길 2","lat":37.542907,"lng":126.742822,"totalSpaces":37,"isFree":false,"operatingDays":"평일","weekdayOpen":"11:00","weekdayClose":"19:00","weekendOpen":"00:00","weekendClose":"00:00","holidayOpen":"00:00","holidayClose":"00:00","feeInfo":"기본 30분 400원 / 추가 15분당 200원","phone":"032-262-7715","updatedAt":"2025-05-15","sido":"인천광역시","sigungu":"계양구","dong":"용종동"},{"name":"계산동 302-1주차장","type":"공영","category":"노외","address":"인천광역시 계양구 계산로154번길 4","lat":37.536733,"lng":126.728975,"totalSpaces":33,"isFree":false,"operatingDays":"평일+토요일+공휴일","weekdayOpen":"09:00","weekdayClose":"20:00","weekendOpen":"09:00","weekendClose":"20:00","holidayOpen":"09:00","holidayClose":"20:00","feeInfo":"기본 30분 600원 / 추가 15분당 300원","phone":"032-262-7715","updatedAt":"2025-05-15","sido":"인천광역시","sigungu":"계양구","dong":"계산동"},{"name":"병방동 양촌","type":"공영","category":"노외","address":"인천광역시 계양구 장제로946번길 27-2","lat":37.54844958,"lng":126.7449177,"totalSpaces":29,"isFree":false,"operatingDays":"평일+토요일+공휴일","weekdayOpen":"00:00","weekdayClose":"00:00","weekendOpen":"00:00","weekendClose":"00:00","holidayOpen":"00:00","holidayClose":"00:00","feeInfo":"기본 0분 0원 / 추가 0분당 0원","phone":"032-262-7715","updatedAt":"2020-09-07","sido":"인천광역시","sigungu":"계양구","dong":"병방동"},{"name":"병방동 양촌주차장","type":"공영","category":"노외","address":"인천광역시 계양구 병방동 83-8","lat":37.548864,"lng":126.744721,"totalSpaces":29,"isFree":false,"operatingDays":"평일+토요일+공휴일","weekdayOpen":"00:00","weekdayClose":"23:59","weekendOpen":"00:00","weekendClose":"23:59","holidayOpen":"00:00","holidayClose":"23:59","feeInfo":"유료","phone":"032-262-7715","updatedAt":"2025-05-15","sido":"인천광역시","sigungu":"계양구","dong":"병방동"},{"name":"계산복개천(시장전용)","type":"공영","category":"노상","address":"인천광역시 계양구 계산천동로 1","lat":37.5394556075,"lng":126.7230634654,"totalSpaces":28,"isFree":false,"operatingDays":"평일+토요일+공휴일","weekdayOpen":"11:00","weekdayClose":"20:00","weekendOpen":"11:00","weekendClose":"20:00","holidayOpen":"11:00","holidayClose":"20:00","feeInfo":"기본 30분 1,000원 / 추가 15분당 500원","phone":"032-262-7715","updatedAt":"2020-09-07","sido":"인천광역시","sigungu":"계양구","dong":"계산동"},{"name":"계양산 전통시장(노상)","type":"공영","category":"노상","address":"인천광역시 계양구 계양산로215번길 8","lat":37.54813376,"lng":126.7405689,"totalSpaces":28,"isFree":false,"operatingDays":"평일+토요일+공휴일","weekdayOpen":"10:00","weekdayClose":"20:00","weekendOpen":"10:00","weekendClose":"20:00","holidayOpen":"10:00","holidayClose":"20:00","feeInfo":"기본 30분 600원 / 추가 15분당 300원","phone":"032-262-7715","updatedAt":"2020-09-07","sido":"인천광역시","sigungu":"계양구","dong":"병방동"},{"name":"계산시장전용주차장","type":"공영","category":"노상","address":"인천광역시 계양구 계산동 1035","lat":37.540233,"lng":126.72224,"totalSpaces":28,"isFree":false,"operatingDays":"평일+토요일+공휴일","weekdayOpen":"11:00","weekdayClose":"20:00","weekendOpen":"11:00","weekendClose":"20:00","holidayOpen":"11:00","holidayClose":"20:00","feeInfo":"기본 30분 1,000원 / 추가 15분당 500원","phone":"032-262-7715","updatedAt":"2025-05-15","sido":"인천광역시","sigungu":"계양구","dong":"계산동"},{"name":"계양산 전통시장(노상)주차장","type":"공영","category":"노상","address":"인천광역시 계양구 계양산로 215번길 8","lat":37.548134,"lng":126.740569,"totalSpaces":28,"isFree":false,"operatingDays":"평일+토요일+공휴일","weekdayOpen":"10:00","weekdayClose":"20:00","weekendOpen":"10:00","weekendClose":"20:00","holidayOpen":"10:00","holidayClose":"20:00","feeInfo":"기본 30분 600원 / 추가 15분당 300원","phone":"032-262-7715","updatedAt":"2025-05-15","sido":"인천광역시","sigungu":"계양구","dong":"병방동"},{"name":"계양산 전통시장(노외)","type":"공영","category":"노외","address":"인천광역시 계양구 계양산로215번길 8","lat":37.54813376,"lng":126.7405689,"totalSpaces":27,"isFree":false,"operatingDays":"평일+토요일+공휴일","weekdayOpen":"10:00","weekdayClose":"20:00","weekendOpen":"10:00","weekendClose":"20:00","holidayOpen":"10:00","holidayClose":"20:00","feeInfo":"기본 30분 600원 / 추가 15분당 300원","phone":"032-262-7715","updatedAt":"2020-09-07","sido":"인천광역시","sigungu":"계양구","dong":"병방동"},{"name":"계양산 전통시장(노외)주차장","type":"공영","category":"노외","address":"인천광역시 계양구 계양산로 215번길 8","lat":37.548134,"lng":126.740569,"totalSpaces":27,"isFree":false,"operatingDays":"평일+토요일+공휴일","weekdayOpen":"10:00","weekdayClose":"20:00","weekendOpen":"10:00","weekendClose":"20:00","holidayOpen":"10:00","holidayClose":"20:00","feeInfo":"기본 30분 600원 / 추가 15분당 300원","phone":"032-262-7715","updatedAt":"2025-05-15","sido":"인천광역시","sigungu":"계양구","dong":"병방동"},{"name":"계양대로140번길","type":"공영","category":"노외","address":"인천광역시 계양구 계산동 988-27","lat":37.536598,"lng":126.723602,"totalSpaces":26,"isFree":false,"operatingDays":"평일+토요일+공휴일","weekdayOpen":"00:00","weekdayClose":"00:00","weekendOpen":"00:00","weekendClose":"00:00","holidayOpen":"00:00","holidayClose":"00:00","feeInfo":"기본 0분 0원 / 추가 0분당 0원","phone":"032-262-7715","updatedAt":"2020-09-07","sido":"인천광역시","sigungu":"계양구","dong":"계산동"},{"name":"계양대로140번길주차장","type":"공영","category":"노외","address":"인천광역시 계양구 계산동 988-27","lat":37.536611,"lng":126.723559,"totalSpaces":26,"isFree":false,"operatingDays":"평일+토요일+공휴일","weekdayOpen":"00:00","weekdayClose":"23:59","weekendOpen":"00:00","weekendClose":"23:59","holidayOpen":"00:00","holidayClose":"23:59","feeInfo":"유료","phone":"032-262-7715","updatedAt":"2025-05-15","sido":"인천광역시","sigungu":"계양구","dong":"계산동"},{"name":"봉오대로894번길주차장","type":"공영","category":"노외","address":"인천광역시 계양구 봉오대로 894번길 20-26","lat":37.528412,"lng":126.747943,"totalSpaces":25,"isFree":false,"operatingDays":"평일+토요일+공휴일","weekdayOpen":"00:00","weekdayClose":"23:59","weekendOpen":"00:00","weekendClose":"23:59","holidayOpen":"00:00","holidayClose":"23:59","feeInfo":"유료","phone":"032-262-7715","updatedAt":"2025-05-15","sido":"인천광역시","sigungu":"계양구","dong":""},{"name":"문화회관길","type":"공영","category":"노외","address":"인천광역시 계양구 계양산로 35번길 11","lat":37.54607851,"lng":126.7181298,"totalSpaces":22,"isFree":false,"operatingDays":"평일+토요일","weekdayOpen":"10:00","weekdayClose":"20:00","weekendOpen":"10:00","weekendClose":"20:00","holidayOpen":"00:00","holidayClose":"00:00","feeInfo":"기본 30분 400원 / 추가 15분당 200원","phone":"032-262-7715","updatedAt":"2020-09-07","sido":"인천광역시","sigungu":"계양구","dong":"계산동"},{"name":"문화회관길주차장","type":"공영","category":"노외","address":"인천광역시 계양구 계양산로 35번길 11","lat":37.546079,"lng":126.718131,"totalSpaces":22,"isFree":false,"operatingDays":"평일+토요일","weekdayOpen":"10:00","weekdayClose":"20:00","weekendOpen":"10:00","weekendClose":"20:00","holidayOpen":"00:00","holidayClose":"00:00","feeInfo":"기본 30분 400원 / 추가 15분당 200원","phone":"032-262-7715","updatedAt":"2025-05-15","sido":"인천광역시","sigungu":"계양구","dong":"계산동"},{"name":"효성동 171-2주차장","type":"공영","category":"노외","address":"인천광역시 계양구 효성동 171-2","lat":37.528634,"lng":126.707519,"totalSpaces":21,"isFree":false,"operatingDays":"평일+토요일+공휴일","weekdayOpen":"00:00","weekdayClose":"23:59","weekendOpen":"00:00","weekendClose":"23:59","holidayOpen":"00:00","holidayClose":"23:59","feeInfo":"유료","phone":"032-262-7715","updatedAt":"2025-05-15","sido":"인천광역시","sigungu":"계양구","dong":"효성동"},{"name":"계산동 964-10주차장","type":"공영","category":"노외","address":"인천광역시 계양구 계산동 964-10","lat":37.538334,"lng":126.72642,"totalSpaces":20,"isFree":false,"operatingDays":"평일+토요일+공휴일","weekdayOpen":"00:00","weekdayClose":"23:59","weekendOpen":"00:00","weekendClose":"23:59","holidayOpen":"00:00","holidayClose":"23:59","feeInfo":"유료","phone":"032-262-7715","updatedAt":"2025-05-15","sido":"인천광역시","sigungu":"계양구","dong":"계산동"},{"name":"고양골2","type":"공영","category":"노외","address":"인천광역시 계양구 계산동 780-3","lat":37.540976,"lng":126.717459,"totalSpaces":19,"isFree":false,"operatingDays":"평일+토요일+공휴일","weekdayOpen":"00:00","weekdayClose":"00:00","weekendOpen":"00:00","weekendClose":"00:00","holidayOpen":"00:00","holidayClose":"00:00","feeInfo":"기본 0분 0원 / 추가 0분당 0원","phone":"032-262-7715","updatedAt":"2020-09-07","sido":"인천광역시","sigungu":"계양구","dong":"계산동"},{"name":"계산동 957-12주차장","type":"공영","category":"노외","address":"인천광역시 계양구 계산동 957-12","lat":37.539281,"lng":126.723455,"totalSpaces":19,"isFree":false,"operatingDays":"평일+토요일+공휴일","weekdayOpen":"00:00","weekdayClose":"23:59","weekendOpen":"00:00","weekendClose":"23:59","holidayOpen":"00:00","holidayClose":"23:59","feeInfo":"유료","phone":"032-262-7715","updatedAt":"2025-05-15","sido":"인천광역시","sigungu":"계양구","dong":"계산동"},{"name":"고양골2주차장","type":"공영","category":"노외","address":"인천광역시 계양구 계산동 780-3","lat":37.540976,"lng":126.717459,"totalSpaces":19,"isFree":false,"operatingDays":"평일+토요일+공휴일","weekdayOpen":"00:00","weekdayClose":"23:59","weekendOpen":"00:00","weekendClose":"23:59","holidayOpen":"00:00","holidayClose":"23:59","feeInfo":"유료","phone":"032-262-7715","updatedAt":"2025-05-15","sido":"인천광역시","sigungu":"계양구","dong":"계산동"},{"name":"안남로573번길","type":"공영","category":"노외","address":"인천광역시 계양구 효성동 33-15","lat":37.534364,"lng":126.709316,"totalSpaces":16,"isFree":false,"operatingDays":"평일+토요일+공휴일","weekdayOpen":"00:00","weekdayClose":"00:00","weekendOpen":"00:00","weekendClose":"00:00","holidayOpen":"00:00","holidayClose":"00:00","feeInfo":"기본 0분 0원 / 추가 0분당 0원","phone":"032-262-7715","updatedAt":"2020-09-07","sido":"인천광역시","sigungu":"계양구","dong":"효성동"},{"name":"계산동 959-10","type":"공영","category":"노외","address":"인천광역시 계양구 계산동 959-10","lat":37.540402,"lng":126.724774,"totalSpaces":15,"isFree":false,"operatingDays":"평일+토요일+공휴일","weekdayOpen":"00:00","weekdayClose":"00:00","weekendOpen":"00:00","weekendClose":"00:00","holidayOpen":"00:00","holidayClose":"00:00","feeInfo":"기본 0분 0원 / 추가 0분당 0원","phone":"032-262-7715","updatedAt":"2020-09-07","sido":"인천광역시","sigungu":"계양구","dong":"계산동"},{"name":"작전동 854-1주차장","type":"공영","category":"노외","address":"인천광역시 계양구 작전동 854-1","lat":37.534065,"lng":126.723037,"totalSpaces":15,"isFree":false,"operatingDays":"평일+토요일+공휴일","weekdayOpen":"11:00","weekdayClose":"18:00","weekendOpen":"00:00","weekendClose":"23:59","holidayOpen":"00:00","holidayClose":"23:59","feeInfo":"기본 30분 600원 / 추가 15분당 300원","phone":"032-262-7715","updatedAt":"2025-05-15","sido":"인천광역시","sigungu":"계양구","dong":"작전동"},{"name":"계산동 959-10주차장","type":"공영","category":"노외","address":"인천광역시 계양구 계산동 959-10","lat":37.540153,"lng":126.724839,"totalSpaces":15,"isFree":false,"operatingDays":"평일+토요일+공휴일","weekdayOpen":"00:00","weekdayClose":"23:59","weekendOpen":"00:00","weekendClose":"23:59","holidayOpen":"00:00","holidayClose":"23:59","feeInfo":"유료","phone":"032-262-7715","updatedAt":"2025-05-15","sido":"인천광역시","sigungu":"계양구","dong":"계산동"},{"name":"작전동 852-7","type":"공영","category":"노외","address":"인천광역시 계양구 계양대로 139","lat":37.53627094,"lng":126.7222173,"totalSpaces":14,"isFree":false,"operatingDays":"평일+토요일+공휴일","weekdayOpen":"00:00","weekdayClose":"00:00","weekendOpen":"00:00","weekendClose":"00:00","holidayOpen":"00:00","holidayClose":"00:00","feeInfo":"기본 0분 0원 / 추가 0분당 0원","phone":"032-262-7715","updatedAt":"2020-09-07","sido":"인천광역시","sigungu":"계양구","dong":"작전동"},{"name":"작전동 852-7주차장","type":"공영","category":"노외","address":"인천광역시 계양구 계양대로129번길 12-13","lat":37.535717,"lng":126.720752,"totalSpaces":14,"isFree":false,"operatingDays":"평일+토요일+공휴일","weekdayOpen":"00:00","weekdayClose":"23:59","weekendOpen":"00:00","weekendClose":"23:59","holidayOpen":"00:00","holidayClose":"23:59","feeInfo":"유료","phone":"032-262-7715","updatedAt":"2025-05-15","sido":"인천광역시","sigungu":"계양구","dong":"작전동"},{"name":"욕은지길2","type":"공영","category":"노외","address":"인천광역시 계양구 계산동 953-1","lat":37.542892,"lng":126.725003,"totalSpaces":13,"isFree":false,"operatingDays":"평일+토요일+공휴일","weekdayOpen":"00:00","weekdayClose":"00:00","weekendOpen":"00:00","weekendClose":"00:00","holidayOpen":"00:00","holidayClose":"00:00","feeInfo":"기본 0분 0원 / 추가 0분당 0원","phone":"032-262-7715","updatedAt":"2020-09-07","sido":"인천광역시","sigungu":"계양구","dong":"계산동"},{"name":"욕은지길2주차장","type":"공영","category":"노외","address":"인천광역시 계양구 계산동 953-1","lat":37.542721,"lng":126.724972,"totalSpaces":13,"isFree":false,"operatingDays":"평일+토요일+공휴일","weekdayOpen":"00:00","weekdayClose":"23:59","weekendOpen":"00:00","weekendClose":"23:59","holidayOpen":"00:00","holidayClose":"23:59","feeInfo":"유료","phone":"032-262-7715","updatedAt":"2025-05-15","sido":"인천광역시","sigungu":"계양구","dong":"계산동"},{"name":"임학골(구 학산길)","type":"공영","category":"노외","address":"인천광역시 계양구 임학서로24번길 2","lat":37.54507474,"lng":126.7328305,"totalSpaces":12,"isFree":false,"operatingDays":"평일+토요일+공휴일","weekdayOpen":"00:00","weekdayClose":"00:00","weekendOpen":"00:00","weekendClose":"00:00","holidayOpen":"00:00","holidayClose":"00:00","feeInfo":"기본 0분 0원 / 추가 0분당 0원","phone":"032-262-7715","updatedAt":"2020-09-07","sido":"인천광역시","sigungu":"계양구","dong":"임학동"},{"name":"임학골(구 학산길)주차장","type":"공영","category":"노외","address":"인천광역시 계양구 임학서로24번길 2","lat":37.545075,"lng":126.732831,"totalSpaces":12,"isFree":false,"operatingDays":"평일+토요일+공휴일","weekdayOpen":"00:00","weekdayClose":"23:59","weekendOpen":"00:00","weekendClose":"23:59","holidayOpen":"00:00","holidayClose":"23:59","feeInfo":"유료","phone":"032-262-7715","updatedAt":"2025-05-15","sido":"인천광역시","sigungu":"계양구","dong":"임학동"},{"name":"고양골1","type":"공영","category":"노외","address":"인천광역시 계양구 계산동 780-3","lat":37.540976,"lng":126.717459,"totalSpaces":11,"isFree":false,"operatingDays":"평일+토요일+공휴일","weekdayOpen":"00:00","weekdayClose":"00:00","weekendOpen":"00:00","weekendClose":"00:00","holidayOpen":"00:00","holidayClose":"00:00","feeInfo":"기본 0분 0원 / 추가 0분당 0원","phone":"032-262-7715","updatedAt":"2020-09-07","sido":"인천광역시","sigungu":"계양구","dong":"계산동"},{"name":"고양골1주차장","type":"공영","category":"노외","address":"인천광역시 계양구 계산동 780-3","lat":37.540976,"lng":126.717459,"totalSpaces":11,"isFree":false,"operatingDays":"평일+토요일+공휴일","weekdayOpen":"00:00","weekdayClose":"23:59","weekendOpen":"00:00","weekendClose":"23:59","holidayOpen":"00:00","holidayClose":"23:59","feeInfo":"유료","phone":"032-262-7715","updatedAt":"2025-05-15","sido":"인천광역시","sigungu":"계양구","dong":"계산동"},{"name":"욕은지길1","type":"공영","category":"노외","address":"인천광역시 계양구 계산동 945-7","lat":37.543217,"lng":126.724937,"totalSpaces":10,"isFree":false,"operatingDays":"평일+토요일+공휴일","weekdayOpen":"00:00","weekdayClose":"00:00","weekendOpen":"00:00","weekendClose":"00:00","holidayOpen":"00:00","holidayClose":"00:00","feeInfo":"기본 0분 0원 / 추가 0분당 0원","phone":"032-262-7715","updatedAt":"2020-09-07","sido":"인천광역시","sigungu":"계양구","dong":"계산동"},{"name":"욕은지길1주차장","type":"공영","category":"노외","address":"인천광역시 계양구 계산동 945-7","lat":37.54302,"lng":126.724873,"totalSpaces":10,"isFree":false,"operatingDays":"평일+토요일+공휴일","weekdayOpen":"00:00","weekdayClose":"23:59","weekendOpen":"00:00","weekendClose":"23:59","holidayOpen":"00:00","holidayClose":"23:59","feeInfo":"유료","phone":"032-262-7715","updatedAt":"2025-05-15","sido":"인천광역시","sigungu":"계양구","dong":"계산동"},{"name":"병방화물","type":"공영","category":"노외","address":"인천광역시 계양구 병방동 27-2","lat":37.552373,"lng":126.748015,"totalSpaces":5,"isFree":false,"operatingDays":"평일+토요일+공휴일","weekdayOpen":"00:00","weekdayClose":"00:00","weekendOpen":"00:00","weekendClose":"00:00","holidayOpen":"00:00","holidayClose":"00:00","feeInfo":"기본 0분 0원 / 추가 0분당 0원","phone":"032-262-7715","updatedAt":"2020-09-07","sido":"인천광역시","sigungu":"계양구","dong":"병방동"},{"name":"병방화물주차장","type":"공영","category":"노외","address":"인천광역시 계양구 병방동 27-2","lat":37.552251,"lng":126.748015,"totalSpaces":5,"isFree":false,"operatingDays":"평일+토요일+공휴일","weekdayOpen":"00:00","weekdayClose":"23:59","weekendOpen":"00:00","weekendClose":"23:59","holidayOpen":"00:00","holidayClose":"23:59","feeInfo":"유료","phone":"032-262-7715","updatedAt":"2025-05-15","sido":"인천광역시","sigungu":"계양구","dong":"병방동"},{"name":"봉오대로(구 봉오대로691번길)","type":"공영","category":"노외","address":"인천광역시 계양구 작전동 862-21","lat":37.531354,"lng":126.725531,"totalSpaces":4,"isFree":false,"operatingDays":"평일+토요일+공휴일","weekdayOpen":"00:00","weekdayClose":"00:00","weekendOpen":"00:00","weekendClose":"00:00","holidayOpen":"00:00","holidayClose":"00:00","feeInfo":"기본 0분 0원 / 추가 0분당 0원","phone":"032-262-7715","updatedAt":"2020-09-07","sido":"인천광역시","sigungu":"계양구","dong":"작전동"},{"name":"봉오대로(구 봉오대로691번길)주차장","type":"공영","category":"노외","address":"인천광역시 계양구 작전동 862-21","lat":37.531195,"lng":126.725531,"totalSpaces":4,"isFree":false,"operatingDays":"평일+토요일+공휴일","weekdayOpen":"00:00","weekdayClose":"23:59","weekendOpen":"00:00","weekendClose":"23:59","holidayOpen":"00:00","holidayClose":"23:59","feeInfo":"유료","phone":"032-262-7715","updatedAt":"2025-05-15","sido":"인천광역시","sigungu":"계양구","dong":"작전동"}]}