{"sido":"인천광역시","sigungu":"남동구","totalCount":130,"validCount":130,"items":[{"name":"간석복개지","type":"공영","category":"노상","address":"인천광역시 남동구 방축로 488-3 (간석동)","lat":37.46709062,"lng":126.6922529,"totalSpaces":139,"isFree":true,"operatingDays":"평일+토요일+공휴일","weekdayOpen":"00:00","weekdayClose":"23:59","weekendOpen":"00:00","weekendClose":"23:59","holidayOpen":"00:00","holidayClose":"23:59","feeInfo":"무료","phone":"","updatedAt":"2024-12-12","sido":"인천광역시","sigungu":"남동구","dong":"간석동"},{"name":"만의골노상주차장","type":"공영","category":"노상","address":"인천광역시 남동구 장수동 136","lat":37.45719741,"lng":126.7730135,"totalSpaces":135,"isFree":true,"operatingDays":"평일+토요일+공휴일","weekdayOpen":"00:00","weekdayClose":"23:59","weekendOpen":"00:00","weekendClose":"23:59","holidayOpen":"00:00","holidayClose":"23:59","feeInfo":"무료","phone":"032-460-0530","updatedAt":"2025-06-02","sido":"인천광역시","sigungu":"남동구","dong":"장수동"},{"name":"남동공단근린공원","type":"공영","category":"노상","address":"인천광역시 남동구 남동대로 263(논현동)","lat":37.40827038,"lng":126.6997001,"totalSpaces":94,"isFree":true,"operatingDays":"평일+토요일+공휴일","weekdayOpen":"00:00","weekdayClose":"23:59","weekendOpen":"00:00","weekendClose":"23:59","holidayOpen":"00:00","holidayClose":"23:59","feeInfo":"무료","phone":"032-460-0530","updatedAt":"2025-06-02","sido":"인천광역시","sigungu":"남동구","dong":"논현동"},{"name":"백구로","type":"공영","category":"노상","address":"인천광역시 남동구 구월말로86번길 2 (만수동 만수우진맨션)","lat":37.45657664,"lng":126.7253864,"totalSpaces":58,"isFree":true,"operatingDays":"평일+토요일+공휴일","weekdayOpen":"00:00","weekdayClose":"23:59","weekendOpen":"00:00","weekendClose":"23:59","holidayOpen":"00:00","holidayClose":"23:59","feeInfo":"무료","phone":"032-460-0530","updatedAt":"2025-06-02","sido":"인천광역시","sigungu":"남동구","dong":"만수동"},{"name":"석산길","type":"공영","category":"노상","address":"인천광역시 남동구 남동대로916번길 94 (간석동)","lat":37.46326912,"lng":126.7135139,"totalSpaces":58,"isFree":true,"operatingDays":"평일+토요일+공휴일","weekdayOpen":"00:00","weekdayClose":"23:59","weekendOpen":"00:00","weekendClose":"23:59","holidayOpen":"00:00","holidayClose":"23:59","feeInfo":"무료","phone":"032-460-0530","updatedAt":"2025-06-02","sido":"인천광역시","sigungu":"남동구","dong":"간석동"},{"name":"신성길","type":"공영","category":"노상","address":"인천광역시 남동구 호구포로876번길 24 (구월동)","lat":37.46022171,"lng":126.7215969,"totalSpaces":54,"isFree":true,"operatingDays":"평일+토요일+공휴일","weekdayOpen":"00:00","weekdayClose":"23:59","weekendOpen":"00:00","weekendClose":"23:59","holidayOpen":"00:00","holidayClose":"23:59","feeInfo":"무료","phone":"","updatedAt":"2024-12-12","sido":"인천광역시","sigungu":"남동구","dong":"만수동"},{"name":"간석3동","type":"공영","category":"노외","address":"인천광역시 남동구 간석로 87번길 18","lat":37.4664547,"lng":126.7179452,"totalSpaces":42,"isFree":true,"operatingDays":"평일+토요일+공휴일","weekdayOpen":"00:00","weekdayClose":"23:59","weekendOpen":"00:00","weekendClose":"23:59","holidayOpen":"00:00","holidayClose":"23:59","feeInfo":"무료","phone":"032-579-2701","updatedAt":"2025-06-26","sido":"인천광역시","sigungu":"남동구","dong":"간석동"},{"name":"볼우물길","type":"공영","category":"노상","address":"인천광역시 남동구 문화서로28번길 2 (구월동)","lat":37.44761008,"lng":126.6962433,"totalSpaces":37,"isFree":true,"operatingDays":"평일+토요일+공휴일","weekdayOpen":"00:00","weekdayClose":"23:59","weekendOpen":"00:00","weekendClose":"23:59","holidayOpen":"00:00","holidayClose":"23:59","feeInfo":"무료","phone":"","updatedAt":"2024-12-12","sido":"인천광역시","sigungu":"남동구","dong":"구월동"},{"name":"소래논현 주1","type":"공영","category":"노외","address":"인천광역시 남동구 아암대로1503번길 51","lat":37.39242304,"lng":126.727779,"totalSpaces":35,"isFree":true,"operatingDays":"평일+토요일+공휴일","weekdayOpen":"00:00","weekdayClose":"23:59","weekendOpen":"00:00","weekendClose":"23:59","holidayOpen":"00:00","holidayClose":"23:59","feeInfo":"무료","phone":"032-460-0530","updatedAt":"2025-06-02","sido":"인천광역시","sigungu":"남동구","dong":"논현동"},{"name":"작은성말2길","type":"공영","category":"노상","address":"인천광역시 남동구 구월3동 1334","lat":37.44674201,"lng":126.7049144,"totalSpaces":31,"isFree":true,"operatingDays":"평일+토요일+공휴일","weekdayOpen":"00:00","weekdayClose":"23:59","weekendOpen":"00:00","weekendClose":"23:59","holidayOpen":"00:00","holidayClose":"23:59","feeInfo":"무료","phone":"032-460-0530","updatedAt":"2025-06-02","sido":"인천광역시","sigungu":"남동구","dong":"구월3동"},{"name":"자치길","type":"공영","category":"노상","address":"인천광역시 남동구 백범로 187 (만수동)","lat":37.45839481,"lng":126.7277034,"totalSpaces":31,"isFree":true,"operatingDays":"평일+토요일+공휴일","weekdayOpen":"00:00","weekdayClose":"23:59","weekendOpen":"00:00","weekendClose":"23:59","holidayOpen":"00:00","holidayClose":"23:59","feeInfo":"무료","phone":"032-460-0530","updatedAt":"2025-06-02","sido":"인천광역시","sigungu":"남동구","dong":"만수동"},{"name":"문예6길","type":"공영","category":"노상","address":"인천광역시 남동구 문화서로 10-1 (구월동)","lat":37.44620791,"lng":126.6959183,"totalSpaces":29,"isFree":true,"operatingDays":"평일+토요일+공휴일","weekdayOpen":"00:00","weekdayClose":"23:59","weekendOpen":"00:00","weekendClose":"23:59","holidayOpen":"00:00","holidayClose":"23:59","feeInfo":"무료","phone":"032-460-0530","updatedAt":"2025-06-02","sido":"인천광역시","sigungu":"남동구","dong":"구월동"},{"name":"하촌로5","type":"공영","category":"노상","address":"인천광역시 남동구 하촌로 52","lat":37.4523692813,"lng":126.7333033908,"totalSpaces":28,"isFree":true,"operatingDays":"평일+토요일+공휴일","weekdayOpen":"00:00","weekdayClose":"23:59","weekendOpen":"00:00","weekendClose":"23:59","holidayOpen":"00:00","holidayClose":"23:59","feeInfo":"무료","phone":"","updatedAt":"2024-12-12","sido":"인천광역시","sigungu":"남동구","dong":"만수동"},{"name":"소래논현 주8","type":"공영","category":"노외","address":"인천광역시 남동구 논현고잔동 767-17","lat":37.390312,"lng":126.725611,"totalSpaces":26,"isFree":true,"operatingDays":"평일+토요일+공휴일","weekdayOpen":"00:00","weekdayClose":"23:59","weekendOpen":"00:00","weekendClose":"23:59","holidayOpen":"00:00","holidayClose":"23:59","feeInfo":"무료","phone":"032-460-0530","updatedAt":"2025-06-02","sido":"인천광역시","sigungu":"남동구","dong":"논현고잔동"},{"name":"간석3","type":"공영","category":"노외","address":"인천광역시 남동구 간석로 87","lat":37.46577345,"lng":126.7171554,"totalSpaces":24,"isFree":true,"operatingDays":"평일+토요일+공휴일","weekdayOpen":"00:01","weekdayClose":"12:00","weekendOpen":"00:01","weekendClose":"12:00","holidayOpen":"00:01","holidayClose":"12:00","feeInfo":"무료","phone":"032-751-7847","updatedAt":"2025-06-25","sido":"인천광역시","sigungu":"남동구","dong":"간석동"},{"name":"도림2호","type":"공영","category":"노외","address":"인천광역시 남동구 도림로31번길 7-17 (도림동)","lat":37.41936044,"lng":126.7284199,"totalSpaces":23,"isFree":true,"operatingDays":"평일+토요일+공휴일","weekdayOpen":"00:00","weekdayClose":"23:59","weekendOpen":"00:00","weekendClose":"23:59","holidayOpen":"00:00","holidayClose":"23:59","feeInfo":"무료","phone":"032-460-0530","updatedAt":"2025-06-02","sido":"인천광역시","sigungu":"남동구","dong":"도림동"},{"name":"만부 제1호","type":"공영","category":"노외","address":"인천광역시 남동구 만수2동 1-148","lat":37.46548856,"lng":126.7379509,"totalSpaces":17,"isFree":true,"operatingDays":"평일+토요일+공휴일","weekdayOpen":"00:00","weekdayClose":"23:59","weekendOpen":"00:00","weekendClose":"23:59","holidayOpen":"00:00","holidayClose":"23:59","feeInfo":"무료","phone":"032-460-0530","updatedAt":"2025-06-02","sido":"인천광역시","sigungu":"남동구","dong":"만수2동"},{"name":"만월10호","type":"공영","category":"노외","address":"인천광역시 남동구 만수3동 111-92","lat":37.46138096,"lng":126.7278079,"totalSpaces":16,"isFree":true,"operatingDays":"평일+토요일+공휴일","weekdayOpen":"00:00","weekdayClose":"23:59","weekendOpen":"00:00","weekendClose":"23:59","holidayOpen":"00:00","holidayClose":"23:59","feeInfo":"무료","phone":"032-460-0530","updatedAt":"2025-06-02","sido":"인천광역시","sigungu":"남동구","dong":"만수3동"},{"name":"수협소공원","type":"공영","category":"노상","address":"인천광역시 남동구 인주대로518번길 27 (구월동)","lat":37.44901751,"lng":126.6943055,"totalSpaces":16,"isFree":true,"operatingDays":"평일+토요일+공휴일","weekdayOpen":"00:00","weekdayClose":"23:59","weekendOpen":"00:00","weekendClose":"23:59","holidayOpen":"00:00","holidayClose":"23:59","feeInfo":"무료","phone":"032-460-0530","updatedAt":"2025-06-02","sido":"인천광역시","sigungu":"남동구","dong":"구월동"},{"name":"돌산마루제4호","type":"공영","category":"노외","address":"인천광역시 남동구 간석3동 37-47","lat":37.46618522,"lng":126.7156912,"totalSpaces":14,"isFree":true,"operatingDays":"평일+토요일+공휴일","weekdayOpen":"00:00","weekdayClose":"23:59","weekendOpen":"00:00","weekendClose":"23:59","holidayOpen":"00:00","holidayClose":"23:59","feeInfo":"무료","phone":"032-460-0530","updatedAt":"2025-06-02","sido":"인천광역시","sigungu":"남동구","dong":"간석3동"},{"name":"시계공영주차장","type":"공영","category":"노외","address":"인천광역시 남동구 운연동 40-2","lat":37.44335536,"lng":126.7667421,"totalSpaces":14,"isFree":true,"operatingDays":"평일+토요일+공휴일","weekdayOpen":"00:00","weekdayClose":"23:59","weekendOpen":"00:00","weekendClose":"23:59","holidayOpen":"00:00","holidayClose":"23:59","feeInfo":"무료","phone":"032-460-0530","updatedAt":"2025-06-02","sido":"인천광역시","sigungu":"남동구","dong":"운연동"},{"name":"상록수길","type":"공영","category":"노상","address":"인천광역시 남동구 만수5동 991-3","lat":37.45593704,"lng":126.7329329,"totalSpaces":14,"isFree":true,"operatingDays":"평일+토요일+공휴일","weekdayOpen":"00:00","weekdayClose":"23:59","weekendOpen":"00:00","weekendClose":"23:59","holidayOpen":"00:00","holidayClose":"23:59","feeInfo":"무료","phone":"032-460-0530","updatedAt":"2025-06-02","sido":"인천광역시","sigungu":"남동구","dong":"만수5동"},{"name":"예술로","type":"공영","category":"노상","address":"인천광역시 남동구 예술로192번길","lat":37.45134115,"lng":126.7029472,"totalSpaces":14,"isFree":true,"operatingDays":"평일+토요일+공휴일","weekdayOpen":"00:00","weekdayClose":"23:59","weekendOpen":"00:00","weekendClose":"23:59","holidayOpen":"00:00","holidayClose":"23:59","feeInfo":"무료","phone":"032-460-0530","updatedAt":"2025-06-02","sido":"인천광역시","sigungu":"남동구","dong":"구월3동"},{"name":"만월7호","type":"공영","category":"노외","address":"인천광역시 남동구 서판로64번길 65-1 (만수동)","lat":37.46103803,"lng":126.7263249,"totalSpaces":13,"isFree":true,"operatingDays":"평일+토요일+공휴일","weekdayOpen":"00:00","weekdayClose":"23:59","weekendOpen":"00:00","weekendClose":"23:59","holidayOpen":"00:00","holidayClose":"23:59","feeInfo":"무료","phone":"032-460-0530","updatedAt":"2025-06-02","sido":"인천광역시","sigungu":"남동구","dong":"만수동"},{"name":"석천로","type":"공영","category":"노외","address":"인천광역시 남동구 간석2동 137-11","lat":37.46122578,"lng":126.7129232,"totalSpaces":11,"isFree":true,"operatingDays":"평일+토요일+공휴일","weekdayOpen":"00:00","weekdayClose":"23:59","weekendOpen":"00:00","weekendClose":"23:59","holidayOpen":"00:00","holidayClose":"23:59","feeInfo":"무료","phone":"032-460-0530","updatedAt":"2025-06-02","sido":"인천광역시","sigungu":"남동구","dong":"간석2동"},{"name":"도림제1","type":"공영","category":"노외","address":"인천광역시 남동구 도림동 652-1","lat":37.42214547,"lng":126.7293332,"totalSpaces":10,"isFree":true,"operatingDays":"평일+토요일+공휴일","weekdayOpen":"00:00","weekdayClose":"23:59","weekendOpen":"00:00","weekendClose":"23:59","holidayOpen":"00:00","holidayClose":"23:59","feeInfo":"무료","phone":"032-460-0530","updatedAt":"2025-06-02","sido":"인천광역시","sigungu":"남동구","dong":"도림동"},{"name":"만월8호","type":"공영","category":"노외","address":"인천광역시 남동구 만수3동 111-186","lat":37.4621657,"lng":126.7264527,"totalSpaces":10,"isFree":true,"operatingDays":"평일+토요일+공휴일","weekdayOpen":"00:00","weekdayClose":"23:59","weekendOpen":"00:00","weekendClose":"23:59","holidayOpen":"00:00","holidayClose":"23:59","feeInfo":"무료","phone":"032-460-0530","updatedAt":"2025-06-02","sido":"인천광역시","sigungu":"남동구","dong":"만수3동"},{"name":"돌산마루제5호","type":"공영","category":"노외","address":"인천광역시 남동구 간석3동 37-109","lat":37.4649799,"lng":126.7158923,"totalSpaces":10,"isFree":true,"operatingDays":"평일+토요일+공휴일","weekdayOpen":"00:00","weekdayClose":"23:59","weekendOpen":"00:00","weekendClose":"23:59","holidayOpen":"00:00","holidayClose":"23:59","feeInfo":"무료","phone":"032-460-0530","updatedAt":"2025-06-02","sido":"인천광역시","sigungu":"남동구","dong":"간석3동"},{"name":"장수3호","type":"공영","category":"노외","address":"인천광역시 남동구 장수동 793-10","lat":37.44974634,"lng":126.7555654,"totalSpaces":10,"isFree":true,"operatingDays":"평일+토요일+공휴일","weekdayOpen":"00:00","weekdayClose":"23:59","weekendOpen":"00:00","weekendClose":"23:59","holidayOpen":"00:00","holidayClose":"23:59","feeInfo":"무료","phone":"032-460-0530","updatedAt":"2025-06-02","sido":"인천광역시","sigungu":"남동구","dong":"장수동"},{"name":"산호1호","type":"공영","category":"노외","address":"인천광역시 남동구 만수3동 839-20","lat":37.46409624,"lng":126.7249957,"totalSpaces":8,"isFree":true,"operatingDays":"평일+토요일+공휴일","weekdayOpen":"00:00","weekdayClose":"23:59","weekendOpen":"00:00","weekendClose":"23:59","holidayOpen":"00:00","holidayClose":"23:59","feeInfo":"무료","phone":"032-460-0530","updatedAt":"2025-06-02","sido":"인천광역시","sigungu":"남동구","dong":"만수3동"},{"name":"만월4호","type":"공영","category":"노외","address":"인천광역시 남동구 만수3동 109-49","lat":37.46383655,"lng":126.728493,"totalSpaces":8,"isFree":true,"operatingDays":"평일+토요일+공휴일","weekdayOpen":"00:00","weekdayClose":"23:59","weekendOpen":"00:00","weekendClose":"23:59","holidayOpen":"00:00","holidayClose":"23:59","feeInfo":"무료","phone":"032-460-0530","updatedAt":"2025-06-02","sido":"인천광역시","sigungu":"남동구","dong":"만수3동"},{"name":"만월2호","type":"공영","category":"노외","address":"인천광역시 남동구 만수3동 109-303","lat":37.46452914,"lng":126.7275431,"totalSpaces":7,"isFree":true,"operatingDays":"평일+토요일+공휴일","weekdayOpen":"00:00","weekdayClose":"23:59","weekendOpen":"00:00","weekendClose":"23:59","holidayOpen":"00:00","holidayClose":"23:59","feeInfo":"무료","phone":"032-460-0530","updatedAt":"2025-06-02","sido":"인천광역시","sigungu":"남동구","dong":"만수3동"},{"name":"만부 제2호","type":"공영","category":"노외","address":"인천광역시 남동구 만수로111번길 38 (만수동)","lat":37.46702451,"lng":126.7359027,"totalSpaces":7,"isFree":true,"operatingDays":"평일+토요일+공휴일","weekdayOpen":"00:00","weekdayClose":"23:59","weekendOpen":"00:00","weekendClose":"23:59","holidayOpen":"00:00","holidayClose":"23:59","feeInfo":"무료","phone":"","updatedAt":"2024-12-12","sido":"인천광역시","sigungu":"남동구","dong":"만수동"},{"name":"백범","type":"공영","category":"노외","address":"인천광역시 남동구 백범로 277 (간석동)","lat":37.46162946,"lng":126.7185154,"totalSpaces":6,"isFree":true,"operatingDays":"평일+토요일+공휴일","weekdayOpen":"00:00","weekdayClose":"23:59","weekendOpen":"00:00","weekendClose":"23:59","holidayOpen":"00:00","holidayClose":"23:59","feeInfo":"무료","phone":"032-460-0530","updatedAt":"2025-06-02","sido":"인천광역시","sigungu":"남동구","dong":"간석동"},{"name":"주원","type":"공영","category":"노외","address":"인천광역시 남동구 간석4동 371-2","lat":37.46554856,"lng":126.7011308,"totalSpaces":6,"isFree":true,"operatingDays":"평일+토요일+공휴일","weekdayOpen":"00:00","weekdayClose":"23:59","weekendOpen":"00:00","weekendClose":"23:59","holidayOpen":"00:00","holidayClose":"23:59","feeInfo":"무료","phone":"032-460-0530","updatedAt":"2025-06-02","sido":"인천광역시","sigungu":"남동구","dong":"간석4동"},{"name":"모래마을2호","type":"공영","category":"노외","address":"인천광역시 남동구 구월4동 349-57","lat":37.45313379,"lng":126.7219492,"totalSpaces":6,"isFree":true,"operatingDays":"평일+토요일+공휴일","weekdayOpen":"00:00","weekdayClose":"23:59","weekendOpen":"00:00","weekendClose":"23:59","holidayOpen":"00:00","holidayClose":"23:59","feeInfo":"무료","phone":"032-460-0530","updatedAt":"2025-06-02","sido":"인천광역시","sigungu":"남동구","dong":"구월4동"},{"name":"만월6호","type":"공영","category":"노외","address":"인천광역시 남동구 만수3동 111-168, 467","lat":37.46321862,"lng":126.7271696,"totalSpaces":6,"isFree":true,"operatingDays":"평일+토요일+공휴일","weekdayOpen":"00:00","weekdayClose":"23:59","weekendOpen":"00:00","weekendClose":"23:59","holidayOpen":"00:00","holidayClose":"23:59","feeInfo":"무료","phone":"032-460-0530","updatedAt":"2025-06-02","sido":"인천광역시","sigungu":"남동구","dong":"만수3동"},{"name":"양지말","type":"공영","category":"노외","address":"인천광역시 남동구 간석1동 459-9","lat":37.45986399,"lng":126.7036818,"totalSpaces":5,"isFree":true,"operatingDays":"평일+토요일+공휴일","weekdayOpen":"00:00","weekdayClose":"23:59","weekendOpen":"00:00","weekendClose":"23:59","holidayOpen":"00:00","holidayClose":"23:59","feeInfo":"무료","phone":"032-460-0530","updatedAt":"2025-06-02","sido":"인천광역시","sigungu":"남동구","dong":"간석1동"},{"name":"모래마을1호","type":"공영","category":"노외","address":"인천광역시 남동구 구월4동 349-683","lat":37.4538948,"lng":126.7223318,"totalSpaces":5,"isFree":true,"operatingDays":"평일+토요일+공휴일","weekdayOpen":"00:00","weekdayClose":"23:59","weekendOpen":"00:00","weekendClose":"23:59","holidayOpen":"00:00","holidayClose":"23:59","feeInfo":"무료","phone":"032-460-0530","updatedAt":"2025-06-02","sido":"인천광역시","sigungu":"남동구","dong":"구월4동"},{"name":"만부 제3호","type":"공영","category":"노외","address":"인천광역시 남동구 만수2동 1-90","lat":37.46700389,"lng":126.7386586,"totalSpaces":5,"isFree":true,"operatingDays":"평일+토요일+공휴일","weekdayOpen":"00:00","weekdayClose":"23:59","weekendOpen":"00:00","weekendClose":"23:59","holidayOpen":"00:00","holidayClose":"23:59","feeInfo":"무료","phone":"032-460-0530","updatedAt":"2025-06-02","sido":"인천광역시","sigungu":"남동구","dong":"만수2동"},{"name":"모래마을3호","type":"공영","category":"노외","address":"인천광역시 남동구 구월4동 349-535","lat":37.45274703,"lng":126.7220123,"totalSpaces":4,"isFree":true,"operatingDays":"평일+토요일+공휴일","weekdayOpen":"00:00","weekdayClose":"23:59","weekendOpen":"00:00","weekendClose":"23:59","holidayOpen":"00:00","holidayClose":"23:59","feeInfo":"무료","phone":"032-460-0530","updatedAt":"2025-06-02","sido":"인천광역시","sigungu":"남동구","dong":"구월4동"},{"name":"만월3호","type":"공영","category":"노외","address":"인천광역시 남동구 만수3동 109-322","lat":37.46424183,"lng":126.7276383,"totalSpaces":4,"isFree":true,"operatingDays":"평일+토요일+공휴일","weekdayOpen":"00:00","weekdayClose":"23:59","weekendOpen":"00:00","weekendClose":"23:59","holidayOpen":"00:00","holidayClose":"23:59","feeInfo":"무료","phone":"032-460-0530","updatedAt":"2025-06-02","sido":"인천광역시","sigungu":"남동구","dong":"만수3동"},{"name":"만월9호","type":"공영","category":"노외","address":"인천광역시 남동구 만수3동 866-24","lat":37.46023781,"lng":126.7281583,"totalSpaces":3,"isFree":true,"operatingDays":"평일+토요일+공휴일","weekdayOpen":"00:00","weekdayClose":"23:59","weekendOpen":"00:00","weekendClose":"23:59","holidayOpen":"00:00","holidayClose":"23:59","feeInfo":"무료","phone":"032-460-0530","updatedAt":"2025-06-02","sido":"인천광역시","sigungu":"남동구","dong":"만수3동"},{"name":"만월5호","type":"공영","category":"노외","address":"인천광역시 남동구 만수3동 111-385","lat":37.46193123,"lng":126.7264341,"totalSpaces":3,"isFree":true,"operatingDays":"평일+토요일+공휴일","weekdayOpen":"00:00","weekdayClose":"23:59","weekendOpen":"00:00","weekendClose":"23:59","holidayOpen":"00:00","holidayClose":"23:59","feeInfo":"무료","phone":"032-460-0530","updatedAt":"2025-06-02","sido":"인천광역시","sigungu":"남동구","dong":"만수3동"},{"name":"구월여중앞제일아랫길","type":"공영","category":"노상","address":"인천광역시 남동구 구월3동 1334","lat":37.44674201,"lng":126.7049144,"totalSpaces":3,"isFree":true,"operatingDays":"평일+토요일+공휴일","weekdayOpen":"00:00","weekdayClose":"23:59","weekendOpen":"00:00","weekendClose":"23:59","holidayOpen":"00:00","holidayClose":"23:59","feeInfo":"무료","phone":"032-460-0530","updatedAt":"2025-06-02","sido":"인천광역시","sigungu":"남동구","dong":"구월3동"},{"name":"문예회관","type":"공영","category":"노외","address":"인천광역시 남동구 예술로 149","lat":37.44759036,"lng":126.7000564,"totalSpaces":779,"isFree":false,"operatingDays":"평일+토요일+공휴일","weekdayOpen":"00:00","weekdayClose":"23:59","weekendOpen":"00:00","weekendClose":"23:59","holidayOpen":"00:00","holidayClose":"23:59","feeInfo":"기본 30분 600원 / 추가 15분당 300원","phone":"032-446-2701","updatedAt":"2025-06-26","sido":"인천광역시","sigungu":"남동구","dong":"구월동"},{"name":"시 부설주차장","type":"공영","category":"부설","address":"인천광역시 남동구 정각로 29","lat":37.45625536,"lng":126.704701,"totalSpaces":682,"isFree":false,"operatingDays":"평일+토요일+공휴일","weekdayOpen":"00:00","weekdayClose":"23:59","weekendOpen":"00:00","weekendClose":"23:59","holidayOpen":"00:00","holidayClose":"23:59","feeInfo":"기본 30분 600원 / 추가 10분당 300원","phone":"032-440-8499","updatedAt":"2025-06-26","sido":"인천광역시","sigungu":"남동구","dong":"구월동"},{"name":"소래산","type":"공영","category":"노외","address":"인천광역시 남동구 장수동 129-2","lat":37.45890021,"lng":126.7726153,"totalSpaces":483,"isFree":false,"operatingDays":"평일+토요일+공휴일","weekdayOpen":"00:00","weekdayClose":"23:59","weekendOpen":"00:00","weekendClose":"23:59","holidayOpen":"00:00","holidayClose":"23:59","feeInfo":"기본 10분 2,000원 / 추가 0분당 0원","phone":"032-460-0530","updatedAt":"2025-06-02","sido":"인천광역시","sigungu":"남동구","dong":"장수동"},{"name":"소래제1","type":"공영","category":"노외","address":"인천광역시 남동구 소래역남로 10 (논현동)","lat":37.39760612,"lng":126.7354632,"totalSpaces":423,"isFree":false,"operatingDays":"평일+토요일+공휴일","weekdayOpen":"00:00","weekdayClose":"23:59","weekendOpen":"00:00","weekendClose":"23:59","holidayOpen":"00:00","holidayClose":"23:59","feeInfo":"기본 30분 1,000원 / 추가 15분당 500원","phone":"032-460-0530","updatedAt":"2025-06-02","sido":"인천광역시","sigungu":"남동구","dong":"논현동"},{"name":"새남촌","type":"공영","category":"노외","address":"인천광역시 남동구 남촌동 480-1","lat":37.43278622,"lng":126.7127282,"totalSpaces":231,"isFree":false,"operatingDays":"평일+토요일+공휴일","weekdayOpen":"00:00","weekdayClose":"23:59","weekendOpen":"00:00","weekendClose":"23:59","holidayOpen":"00:00","holidayClose":"23:59","feeInfo":"기본 30분 400원 / 추가 15분당 200원","phone":"032-460-0530","updatedAt":"2025-06-02","sido":"인천광역시","sigungu":"남동구","dong":"남촌동"},{"name":"남동공단2","type":"공영","category":"노외","address":"인천광역시 남동구 논곡로 13(남촌동)","lat":37.42002784,"lng":126.7109883,"totalSpaces":225,"isFree":false,"operatingDays":"평일+토요일+공휴일","weekdayOpen":"00:00","weekdayClose":"23:59","weekendOpen":"00:00","weekendClose":"23:59","holidayOpen":"00:00","holidayClose":"23:59","feeInfo":"기본 30분 400원 / 추가 15분당 200원","phone":"032-460-0530","updatedAt":"2025-06-02","sido":"인천광역시","sigungu":"남동구","dong":"남촌동"},{"name":"논현제5","type":"공영","category":"노외","address":"인천광역시 남동구 호구포로44번길 78 (고잔동)","lat":37.38812967,"lng":126.7042731,"totalSpaces":198,"isFree":false,"operatingDays":"평일+토요일+공휴일","weekdayOpen":"00:00","weekdayClose":"23:59","weekendOpen":"00:00","weekendClose":"23:59","holidayOpen":"00:00","holidayClose":"23:59","feeInfo":"기본 30분 600원 / 추가 15분당 300원","phone":"032-460-0530","updatedAt":"2025-06-02","sido":"인천광역시","sigungu":"남동구","dong":"고잔동"},{"name":"만수복개천3","type":"공영","category":"노외","address":"인천광역시 남동구 복개서로 31 (구월동)","lat":37.45045837,"lng":126.7261876,"totalSpaces":174,"isFree":false,"operatingDays":"평일+토요일+공휴일","weekdayOpen":"00:00","weekdayClose":"23:59","weekendOpen":"00:00","weekendClose":"23:59","holidayOpen":"00:00","holidayClose":"23:59","feeInfo":"기본 30분 400원 / 추가 15분당 200원","phone":"032-460-0530","updatedAt":"2025-06-02","sido":"인천광역시","sigungu":"남동구","dong":"구월동"},{"name":"돌산마루1호","type":"공영","category":"노외","address":"인천광역시 남동구 용천로176번길 71 (간석동 청양그린빌라)","lat":37.46501613,"lng":126.7182786,"totalSpaces":148,"isFree":false,"operatingDays":"평일+토요일+공휴일","weekdayOpen":"00:00","weekdayClose":"23:59","weekendOpen":"00:00","weekendClose":"23:59","holidayOpen":"00:00","holidayClose":"23:59","feeInfo":"기본 30분 400원 / 추가 15분당 200원","phone":"032-460-0530","updatedAt":"2025-06-02","sido":"인천광역시","sigungu":"남동구","dong":"간석동"},{"name":"하촌로","type":"공영","category":"노상","address":"인천광역시 남동구 하촌로 52 (만수동)","lat":37.45237284,"lng":126.7333034,"totalSpaces":145,"isFree":false,"operatingDays":"평일+토요일","weekdayOpen":"11:00","weekdayClose":"19:00","weekendOpen":"11:00","weekendClose":"19:00","holidayOpen":"00:00","holidayClose":"00:00","feeInfo":"기본 30분 600원 / 추가 15분당 300원","phone":"032-460-0530","updatedAt":"2025-06-02","sido":"인천광역시","sigungu":"남동구","dong":"만수동"},{"name":"학생안전체험관","type":"공영","category":"노외","address":"인천광역시 남동구 구월남로232번길 31(구월동)","lat":37.45186067,"lng":126.7158791,"totalSpaces":142,"isFree":false,"operatingDays":"평일+토요일+공휴일","weekdayOpen":"00:00","weekdayClose":"23:59","weekendOpen":"00:00","weekendClose":"23:59","holidayOpen":"00:00","holidayClose":"23:59","feeInfo":"기본 30분 400원 / 추가 15분당 200원","phone":"032-460-0530","updatedAt":"2025-06-02","sido":"인천광역시","sigungu":"남동구","dong":"구월동"},{"name":"만수복개천1","type":"공영","category":"노외","address":"인천광역시 남동구 구월4동 1324-12","lat":37.45128504,"lng":126.7260576,"totalSpaces":138,"isFree":false,"operatingDays":"평일+토요일+공휴일","weekdayOpen":"00:00","weekdayClose":"23:59","weekendOpen":"00:00","weekendClose":"23:59","holidayOpen":"00:00","holidayClose":"23:59","feeInfo":"기본 30분 400원 / 추가 15분당 200원","phone":"032-460-0530","updatedAt":"2025-06-02","sido":"인천광역시","sigungu":"남동구","dong":"구월4동"},{"name":"만수복개천2","type":"공영","category":"노외","address":"인천광역시 남동구 복개동로 68 (만수동)","lat":37.45387256,"lng":126.7252821,"totalSpaces":131,"isFree":false,"operatingDays":"평일+토요일+공휴일","weekdayOpen":"00:00","weekdayClose":"23:59","weekendOpen":"00:00","weekendClose":"23:59","holidayOpen":"00:00","holidayClose":"23:59","feeInfo":"기본 30분 400원 / 추가 15분당 200원","phone":"032-460-0530","updatedAt":"2025-06-02","sido":"인천광역시","sigungu":"남동구","dong":"만수동"},{"name":"문화로","type":"공영","category":"노상","address":"인천광역시 남동구 문화서로23번길","lat":37.44777318,"lng":126.6955838,"totalSpaces":130,"isFree":false,"operatingDays":"평일+토요일","weekdayOpen":"11:00","weekdayClose":"19:00","weekendOpen":"11:00","weekendClose":"19:00","holidayOpen":"00:00","holidayClose":"00:00","feeInfo":"기본 30분 600원 / 추가 15분당 300원","phone":"032-460-0530","updatedAt":"2025-06-02","sido":"인천광역시","sigungu":"남동구","dong":"구월3동"},{"name":"소래제2","type":"공영","category":"노외","address":"인천광역시 남동구 논현고잔동 750-2","lat":37.40005933,"lng":126.7342348,"totalSpaces":115,"isFree":false,"operatingDays":"평일+토요일+공휴일","weekdayOpen":"00:00","weekdayClose":"23:59","weekendOpen":"00:00","weekendClose":"23:59","holidayOpen":"00:00","holidayClose":"23:59","feeInfo":"기본 30분 1,000원 / 추가 15분당 500원","phone":"032-460-0530","updatedAt":"2025-06-02","sido":"인천광역시","sigungu":"남동구","dong":"논현고잔동"},{"name":"소래제5호","type":"공영","category":"노외","address":"인천광역시 남동구 논현1동 66-99","lat":37.40142081,"lng":126.7394011,"totalSpaces":101,"isFree":false,"operatingDays":"평일+토요일+공휴일","weekdayOpen":"00:00","weekdayClose":"23:59","weekendOpen":"00:00","weekendClose":"23:59","holidayOpen":"00:00","holidayClose":"23:59","feeInfo":"기본 30분 1,000원 / 추가 15분당 500원","phone":"032-460-0531","updatedAt":"2025-06-02","sido":"인천광역시","sigungu":"남동구","dong":"논현1동"},{"name":"구월도매시장","type":"공영","category":"노외","address":"인천광역시 남동구 성말로32번길 19 (구월동)","lat":37.44440922,"lng":126.7043212,"totalSpaces":98,"isFree":false,"operatingDays":"평일+토요일+공휴일","weekdayOpen":"00:00","weekdayClose":"23:59","weekendOpen":"00:00","weekendClose":"23:59","holidayOpen":"00:00","holidayClose":"23:59","feeInfo":"기본 30분 400원 / 추가 15분당 200원","phone":"","updatedAt":"2024-12-12","sido":"인천광역시","sigungu":"남동구","dong":"구월동"},{"name":"소래제3","type":"공영","category":"노외","address":"인천광역시 남동구 논현고잔동 749-3","lat":37.40144005,"lng":126.7319075,"totalSpaces":96,"isFree":false,"operatingDays":"평일+토요일+공휴일","weekdayOpen":"00:00","weekdayClose":"23:59","weekendOpen":"00:00","weekendClose":"23:59","holidayOpen":"00:00","holidayClose":"23:59","feeInfo":"기본 30분 600원 / 추가 15분당 300원","phone":"032-460-0530","updatedAt":"2025-06-02","sido":"인천광역시","sigungu":"남동구","dong":"논현고잔동"},{"name":"향촌","type":"공영","category":"노외","address":"인천광역시 남동구 만수서로 46-1 (만수동)","lat":37.46112738,"lng":126.7312856,"totalSpaces":83,"isFree":false,"operatingDays":"평일+토요일+공휴일","weekdayOpen":"00:00","weekdayClose":"23:59","weekendOpen":"00:00","weekendClose":"23:59","holidayOpen":"00:00","holidayClose":"23:59","feeInfo":"기본 30분 400원 / 추가 15분당 200원","phone":"032-460-0530","updatedAt":"2025-06-02","sido":"인천광역시","sigungu":"남동구","dong":"만수동"},{"name":"만수복개천4","type":"공영","category":"노외","address":"인천광역시 남동구 복개서로 13 (구월동)","lat":37.44928563,"lng":126.7277332,"totalSpaces":83,"isFree":false,"operatingDays":"평일+토요일+공휴일","weekdayOpen":"00:00","weekdayClose":"23:59","weekendOpen":"00:00","weekendClose":"23:59","holidayOpen":"00:00","holidayClose":"23:59","feeInfo":"기본 30분 400원 / 추가 15분당 200원","phone":"032-460-0530","updatedAt":"2025-06-02","sido":"인천광역시","sigungu":"남동구","dong":"구월동"},{"name":"남동공단1(정기차량전용)","type":"공영","category":"노외","address":"인천광역시 남동구 함박뫼로347번길 60 (남촌동)","lat":37.4155683,"lng":126.7043672,"totalSpaces":62,"isFree":false,"operatingDays":"평일+토요일+공휴일","weekdayOpen":"00:00","weekdayClose":"23:59","weekendOpen":"00:00","weekendClose":"23:59","holidayOpen":"00:00","holidayClose":"23:59","feeInfo":"기본 30분 400원 / 추가 15분당 200원","phone":"032-460-0530","updatedAt":"2025-06-02","sido":"인천광역시","sigungu":"남동구","dong":"남촌동"},{"name":"진솔(정기차량전용)","type":"공영","category":"노외","address":"인천광역시 남동구 인주대로522번길 47 (구월동)","lat":37.44852592,"lng":126.6952091,"totalSpaces":60,"isFree":false,"operatingDays":"평일+토요일+공휴일","weekdayOpen":"00:00","weekdayClose":"23:59","weekendOpen":"00:00","weekendClose":"23:59","holidayOpen":"00:00","holidayClose":"23:59","feeInfo":"기본 30분 400원 / 추가 15분당 200원","phone":"032-460-0530","updatedAt":"2025-06-02","sido":"인천광역시","sigungu":"남동구","dong":"구월동"},{"name":"서창5호","type":"공영","category":"노외","address":"인천광역시 남동구 서창동 567-4","lat":37.43424603,"lng":126.7512982,"totalSpaces":59,"isFree":false,"operatingDays":"평일+토요일+공휴일","weekdayOpen":"00:00","weekdayClose":"23:59","weekendOpen":"00:00","weekendClose":"23:59","holidayOpen":"00:00","holidayClose":"23:59","feeInfo":"기본 30분 400원 / 추가 15분당 200원","phone":"032-460-0530","updatedAt":"2025-06-02","sido":"인천광역시","sigungu":"남동구","dong":"서창동"},{"name":"만월1호","type":"공영","category":"노외","address":"인천광역시 남동구 만수3동 840","lat":37.46459562,"lng":126.7261855,"totalSpaces":53,"isFree":false,"operatingDays":"평일+토요일+공휴일","weekdayOpen":"00:00","weekdayClose":"23:59","weekendOpen":"00:00","weekendClose":"23:59","holidayOpen":"00:00","holidayClose":"23:59","feeInfo":"기본 30분 400원 / 추가 15분당 200원","phone":"032-460-0530","updatedAt":"2025-06-02","sido":"인천광역시","sigungu":"남동구","dong":"만수3동"},{"name":"만수어린이공원","type":"공영","category":"노외","address":"인천광역시 남동구 구월로336번길 36 (만수동)","lat":37.45354611,"lng":126.7276999,"totalSpaces":50,"isFree":false,"operatingDays":"평일+토요일+공휴일","weekdayOpen":"00:00","weekdayClose":"23:59","weekendOpen":"00:00","weekendClose":"23:59","holidayOpen":"00:00","holidayClose":"23:59","feeInfo":"기본 30분 400원 / 추가 15분당 200원","phone":"032-460-0530","updatedAt":"2025-06-02","sido":"인천광역시","sigungu":"남동구","dong":"만수동"},{"name":"돌산마루2호(정기차량전용)","type":"공영","category":"노외","address":"인천광역시 남동구 용천로176번길 55 (간석동)","lat":37.46506766,"lng":126.7173377,"totalSpaces":49,"isFree":false,"operatingDays":"평일+토요일+공휴일","weekdayOpen":"00:00","weekdayClose":"23:59","weekendOpen":"00:00","weekendClose":"23:59","holidayOpen":"00:00","holidayClose":"23:59","feeInfo":"기본 30분 400원 / 추가 15분당 200원","phone":"032-460-0530","updatedAt":"2025-06-02","sido":"인천광역시","sigungu":"남동구","dong":"간석동"},{"name":"논현택지5","type":"공영","category":"노외","address":"인천광역시 남동구 논현역로 8","lat":37.4014105,"lng":126.7209892,"totalSpaces":47,"isFree":false,"operatingDays":"평일+토요일+공휴일","weekdayOpen":"00:01","weekdayClose":"12:00","weekendOpen":"00:01","weekendClose":"12:00","holidayOpen":"00:01","holidayClose":"12:00","feeInfo":"기본 30분 600원 / 추가 15분당 300원","phone":"032-579-2701","updatedAt":"2025-06-25","sido":"인천광역시","sigungu":"남동구","dong":"논현동"},{"name":"장도로","type":"공영","category":"노상","address":"인천광역시 남동구 장도로 75 (논현동)","lat":37.39900219,"lng":126.7379876,"totalSpaces":46,"isFree":false,"operatingDays":"평일+토요일","weekdayOpen":"10:00","weekdayClose":"19:00","weekendOpen":"10:00","weekendClose":"23:59","holidayOpen":"00:00","holidayClose":"00:00","feeInfo":"기본 30분 1,000원 / 추가 15분당 500원","phone":"032-460-0530","updatedAt":"2025-06-02","sido":"인천광역시","sigungu":"남동구","dong":"논현동"},{"name":"용천","type":"공영","category":"노외","address":"인천광역시 남동구 구월2동 7-21","lat":37.4649799,"lng":126.7158923,"totalSpaces":45,"isFree":false,"operatingDays":"평일+토요일+공휴일","weekdayOpen":"00:00","weekdayClose":"23:59","weekendOpen":"00:00","weekendClose":"23:59","holidayOpen":"00:00","holidayClose":"23:59","feeInfo":"기본 30분 400원 / 추가 15분당 200원","phone":"032-460-0530","updatedAt":"2025-06-02","sido":"인천광역시","sigungu":"남동구","dong":"구월2동"},{"name":"소망","type":"공영","category":"노외","address":"인천광역시 남동구 구월4동 1303-7","lat":37.4522584,"lng":126.7234899,"totalSpaces":44,"isFree":false,"operatingDays":"평일+토요일+공휴일","weekdayOpen":"00:00","weekdayClose":"23:59","weekendOpen":"00:00","weekendClose":"23:59","holidayOpen":"00:00","holidayClose":"23:59","feeInfo":"기본 30분 400원 / 추가 15분당 200원","phone":"032-460-0530","updatedAt":"2025-06-02","sido":"인천광역시","sigungu":"남동구","dong":"구월4동"},{"name":"진주제4호","type":"공영","category":"노외","address":"인천광역시 남동구 구월말로 104(만수동)","lat":37.45815049,"lng":126.725933,"totalSpaces":43,"isFree":false,"operatingDays":"평일+토요일+공휴일","weekdayOpen":"00:00","weekdayClose":"23:59","weekendOpen":"00:00","weekendClose":"23:59","holidayOpen":"00:00","holidayClose":"23:59","feeInfo":"기본 30분 400원 / 추가 15분당 200원","phone":"032-460-0530","updatedAt":"2025-06-02","sido":"인천광역시","sigungu":"남동구","dong":"만수5동"},{"name":"논현제4","type":"공영","category":"노외","address":"인천광역시 남동구 앵고개로847번길 32 (논현동)","lat":37.39776864,"lng":126.7263887,"totalSpaces":43,"isFree":false,"operatingDays":"평일+토요일+공휴일","weekdayOpen":"00:00","weekdayClose":"23:59","weekendOpen":"00:00","weekendClose":"23:59","holidayOpen":"00:00","holidayClose":"23:59","feeInfo":"기본 30분 600원 / 추가 15분당 300원","phone":"032-460-0530","updatedAt":"2025-06-02","sido":"인천광역시","sigungu":"남동구","dong":"논현동"},{"name":"만수복개천5","type":"공영","category":"노외","address":"인천광역시 남동구 인주대로 836 (만수동)","lat":37.44826291,"lng":126.7300432,"totalSpaces":43,"isFree":false,"operatingDays":"평일","weekdayOpen":"09:00","weekdayClose":"18:00","weekendOpen":"00:00","weekendClose":"00:00","holidayOpen":"00:00","holidayClose":"00:00","feeInfo":"기본 30분 400원 / 추가 15분당 200원","phone":"032-460-0530","updatedAt":"2025-06-02","sido":"인천광역시","sigungu":"남동구","dong":"만수동"},{"name":"논현택지5","type":"공영","category":"노외","address":"인천광역시 남동구 논고개로 124번길","lat":37.40249323,"lng":126.7235595,"totalSpaces":42,"isFree":false,"operatingDays":"평일+토요일+공휴일","weekdayOpen":"00:00","weekdayClose":"23:59","weekendOpen":"00:00","weekendClose":"23:59","holidayOpen":"00:00","holidayClose":"23:59","feeInfo":"기본 30분 600원 / 추가 15분당 300원","phone":"032-579-2701","updatedAt":"2025-06-26","sido":"인천광역시","sigungu":"남동구","dong":"논현동"},{"name":"논현택지3","type":"공영","category":"노외","address":"인천광역시 남동구 논고개로 124번길","lat":37.40251497,"lng":126.7247162,"totalSpaces":40,"isFree":false,"operatingDays":"평일+토요일+공휴일","weekdayOpen":"00:00","weekdayClose":"23:59","weekendOpen":"00:00","weekendClose":"23:59","holidayOpen":"00:00","holidayClose":"23:59","feeInfo":"기본 30분 600원 / 추가 15분당 300원","phone":"032-579-2701","updatedAt":"2025-06-26","sido":"인천광역시","sigungu":"남동구","dong":"논현동"},{"name":"논현택지3","type":"공영","category":"노외","address":"인천광역시 남동구 논현동 613-9","lat":37.40251497,"lng":126.7247162,"totalSpaces":40,"isFree":false,"operatingDays":"평일+토요일+공휴일","weekdayOpen":"00:01","weekdayClose":"12:00","weekendOpen":"00:01","weekendClose":"12:00","holidayOpen":"00:01","holidayClose":"12:00","feeInfo":"기본 30분 600원 / 추가 15분당 300원","phone":"032-579-2701","updatedAt":"2025-06-25","sido":"인천광역시","sigungu":"남동구","dong":"논현동"},{"name":"서창2호","type":"공영","category":"노외","address":"인천광역시 남동구 서창동 558-3","lat":37.43576551,"lng":126.747578,"totalSpaces":34,"isFree":false,"operatingDays":"평일+토요일+공휴일","weekdayOpen":"00:00","weekdayClose":"23:59","weekendOpen":"00:00","weekendClose":"23:59","holidayOpen":"00:00","holidayClose":"23:59","feeInfo":"기본 30분 400원 / 추가 15분당 200원","phone":"032-460-0530","updatedAt":"2025-06-02","sido":"인천광역시","sigungu":"남동구","dong":"서창동"},{"name":"목화(정기차량전용)","type":"공영","category":"노외","address":"인천광역시 남동구 남동대로898번길 21-6 (간석동)","lat":37.46283977,"lng":126.7096667,"totalSpaces":33,"isFree":false,"operatingDays":"평일+토요일+공휴일","weekdayOpen":"00:00","weekdayClose":"23:59","weekendOpen":"00:00","weekendClose":"23:59","holidayOpen":"00:00","holidayClose":"23:59","feeInfo":"기본 30분 400원 / 추가 15분당 200원","phone":"032-460-0530","updatedAt":"2025-06-02","sido":"인천광역시","sigungu":"남동구","dong":"간석동"},{"name":"석천(정기차량전용)","type":"공영","category":"노외","address":"인천광역시 남동구 간석4동 233-2","lat":37.46798048,"lng":126.7059836,"totalSpaces":32,"isFree":false,"operatingDays":"평일+토요일+공휴일","weekdayOpen":"00:00","weekdayClose":"23:59","weekendOpen":"00:00","weekendClose":"23:59","holidayOpen":"00:00","holidayClose":"23:59","feeInfo":"기본 30분 400원 / 추가 15분당 200원","phone":"032-460-0530","updatedAt":"2025-06-02","sido":"인천광역시","sigungu":"남동구","dong":"간석4동"},{"name":"논고개","type":"공영","category":"노외","address":"인천광역시 남동구 논고개로 86 (논현동)","lat":37.39942366,"lng":126.7262153,"totalSpaces":31,"isFree":false,"operatingDays":"평일+토요일+공휴일","weekdayOpen":"00:00","weekdayClose":"23:59","weekendOpen":"00:00","weekendClose":"23:59","holidayOpen":"00:00","holidayClose":"23:59","feeInfo":"기본 30분 600원 / 추가 15분당 300원","phone":"032-460-0530","updatedAt":"2025-06-02","sido":"인천광역시","sigungu":"남동구","dong":"논현동"},{"name":"독점(정기차량전용)","type":"공영","category":"노외","address":"인천광역시 남동구 구월1동 1210-16","lat":37.45080252,"lng":126.7121952,"totalSpaces":30,"isFree":false,"operatingDays":"평일+토요일+공휴일","weekdayOpen":"00:00","weekdayClose":"23:59","weekendOpen":"00:00","weekendClose":"23:59","holidayOpen":"00:00","holidayClose":"23:59","feeInfo":"기본 30분 400원 / 추가 15분당 200원","phone":"032-460-0530","updatedAt":"2025-06-02","sido":"인천광역시","sigungu":"남동구","dong":"구월1동"},{"name":"상인천중학교(부설)(정기차량전용)","type":"공영","category":"노외","address":"인천광역시 남동구 백범로297번길 21","lat":37.46140184,"lng":126.7161385,"totalSpaces":29,"isFree":false,"operatingDays":"평일+토요일+공휴일","weekdayOpen":"18:00","weekdayClose":"07:30","weekendOpen":"00:00","weekendClose":"23:59","holidayOpen":"00:00","holidayClose":"23:59","feeInfo":"기본 0분 0원 / 추가 0분당 0원","phone":"032-460-0530","updatedAt":"2025-06-02","sido":"인천광역시","sigungu":"남동구","dong":"간석동"},{"name":"선진8길(정기차량전용)","type":"공영","category":"노외","address":"인천광역시 남동구 간석1동 508-36","lat":37.4556812,"lng":126.6968357,"totalSpaces":29,"isFree":false,"operatingDays":"평일+토요일+공휴일","weekdayOpen":"00:00","weekdayClose":"23:59","weekendOpen":"00:00","weekendClose":"23:59","holidayOpen":"00:00","holidayClose":"23:59","feeInfo":"기본 30분 400원 / 추가 15분당 200원","phone":"032-460-0530","updatedAt":"2025-06-02","sido":"인천광역시","sigungu":"남동구","dong":"간석1동"},{"name":"만수시장","type":"공영","category":"노외","address":"인천광역시 남동구 만수로27번길 10-11 (만수동)","lat":37.46005154,"lng":126.7317898,"totalSpaces":29,"isFree":false,"operatingDays":"평일+토요일+공휴일","weekdayOpen":"00:00","weekdayClose":"23:59","weekendOpen":"00:00","weekendClose":"23:59","holidayOpen":"00:00","holidayClose":"23:59","feeInfo":"기본 30분 400원 / 추가 15분당 200원","phone":"032-460-0530","updatedAt":"2025-06-02","sido":"인천광역시","sigungu":"남동구","dong":"만수동"},{"name":"로데오1, 2","type":"공영","category":"노상","address":"인천광역시 남동구 인하로 507번길","lat":37.4458041,"lng":126.7017008,"totalSpaces":29,"isFree":false,"operatingDays":"평일","weekdayOpen":"09:00","weekdayClose":"18:00","weekendOpen":"00:00","weekendClose":"00:00","holidayOpen":"00:00","holidayClose":"00:00","feeInfo":"기본 30분 600원 / 추가 15분당 300원","phone":"032-460-0530","updatedAt":"2025-06-02","sido":"인천광역시","sigungu":"남동구","dong":"구월1동"},{"name":"진주1호(정기차량전용)","type":"공영","category":"노외","address":"인천광역시 남동구 만경로 21-14 (만수동)","lat":37.45756042,"lng":126.7263612,"totalSpaces":27,"isFree":false,"operatingDays":"평일+토요일+공휴일","weekdayOpen":"00:00","weekdayClose":"23:59","weekendOpen":"00:00","weekendClose":"23:59","holidayOpen":"00:00","holidayClose":"23:59","feeInfo":"기본 30분 400원 / 추가 15분당 200원","phone":"032-460-0530","updatedAt":"2025-06-02","sido":"인천광역시","sigungu":"남동구","dong":"만수동"},{"name":"약산제1호","type":"공영","category":"노외","address":"인천광역시 남동구 간석3동 86-2","lat":37.4679749,"lng":126.7121016,"totalSpaces":25,"isFree":false,"operatingDays":"평일+토요일+공휴일","weekdayOpen":"00:00","weekdayClose":"23:59","weekendOpen":"00:00","weekendClose":"23:59","holidayOpen":"00:00","holidayClose":"23:59","feeInfo":"기본 30분 400원 / 추가 15분당 200원","phone":"032-460-0530","updatedAt":"2025-06-02","sido":"인천광역시","sigungu":"남동구","dong":"간석3동"},{"name":"서창3호","type":"공영","category":"노외","address":"인천광역시 남동구 서창동 575-1","lat":37.43289931,"lng":126.7518515,"totalSpaces":25,"isFree":false,"operatingDays":"평일+토요일+공휴일","weekdayOpen":"00:00","weekdayClose":"23:59","weekendOpen":"00:00","weekendClose":"23:59","holidayOpen":"00:00","holidayClose":"23:59","feeInfo":"기본 30분 400원 / 추가 15분당 200원","phone":"032-460-0530","updatedAt":"2025-06-02","sido":"인천광역시","sigungu":"남동구","dong":"서창동"},{"name":"장수2호","type":"공영","category":"노외","address":"인천광역시 남동구 장수동 779-13","lat":37.45092415,"lng":126.7538468,"totalSpaces":25,"isFree":false,"operatingDays":"평일+토요일+공휴일","weekdayOpen":"00:00","weekdayClose":"23:59","weekendOpen":"00:00","weekendClose":"23:59","holidayOpen":"00:00","holidayClose":"23:59","feeInfo":"기본 30분 400원 / 추가 15분당 200원","phone":"032-460-0530","updatedAt":"2025-06-02","sido":"인천광역시","sigungu":"남동구","dong":"장수동"},{"name":"모래마을4호(정기차량전용)","type":"공영","category":"노외","address":"인천광역시 남동구 호구포로790번길 41-17 (구월동)","lat":37.45347927,"lng":126.7214008,"totalSpaces":24,"isFree":false,"operatingDays":"평일+토요일+공휴일","weekdayOpen":"00:00","weekdayClose":"23:59","weekendOpen":"00:00","weekendClose":"23:59","holidayOpen":"00:00","holidayClose":"23:59","feeInfo":"기본 30분 400원 / 추가 15분당 200원","phone":"032-460-0530","updatedAt":"2025-06-02","sido":"인천광역시","sigungu":"남동구","dong":"구월동"},{"name":"장승백이전통시장","type":"공영","category":"노외","address":"인천광역시 남동구 인주대로 888","lat":37.44794264,"lng":126.7359247,"totalSpaces":24,"isFree":false,"operatingDays":"평일+토요일+공휴일","weekdayOpen":"00:00","weekdayClose":"23:59","weekendOpen":"00:00","weekendClose":"23:59","holidayOpen":"00:00","holidayClose":"23:59","feeInfo":"기본 30분 400원 / 추가 15분당 200원","phone":"032-579-2701","updatedAt":"2025-06-26","sido":"인천광역시","sigungu":"남동구","dong":"만수동"},{"name":"장승백이 전통시장(창대시장)","type":"공영","category":"노외","address":"인천광역시 남동구 인주대로 888","lat":37.44794264,"lng":126.7359247,"totalSpaces":24,"isFree":false,"operatingDays":"평일+토요일+공휴일","weekdayOpen":"00:01","weekdayClose":"12:00","weekendOpen":"00:01","weekendClose":"12:00","holidayOpen":"00:01","holidayClose":"12:00","feeInfo":"기본 30분 400원 / 추가 15분당 200원","phone":"032-579-2701","updatedAt":"2025-06-25","sido":"인천광역시","sigungu":"남동구","dong":"만수동"},{"name":"서창1호","type":"공영","category":"노외","address":"인천광역시 남동구 서창동 552-5","lat":37.43722084,"lng":126.7446158,"totalSpaces":23,"isFree":false,"operatingDays":"평일+토요일+공휴일","weekdayOpen":"00:00","weekdayClose":"23:59","weekendOpen":"00:00","weekendClose":"23:59","holidayOpen":"00:00","holidayClose":"23:59","feeInfo":"기본 30분 400원 / 추가 15분당 200원","phone":"032-460-0530","updatedAt":"2025-06-02","sido":"인천광역시","sigungu":"남동구","dong":"서창동"},{"name":"소래제4호","type":"공영","category":"노상","address":"인천광역시 남동구 포구로 2-6","lat":37.39885089,"lng":126.7400489,"totalSpaces":23,"isFree":false,"operatingDays":"평일+토요일","weekdayOpen":"10:00","weekdayClose":"19:00","weekendOpen":"10:00","weekendClose":"19:00","holidayOpen":"00:00","holidayClose":"00:00","feeInfo":"기본 30분 1,000원 / 추가 15분당 500원","phone":"032-460-0530","updatedAt":"2025-06-02","sido":"인천광역시","sigungu":"남동구","dong":"논현동"},{"name":"장수1호","type":"공영","category":"노외","address":"인천광역시 남동구 장수동 767-12","lat":37.45185192,"lng":126.7512545,"totalSpaces":22,"isFree":false,"operatingDays":"평일+토요일+공휴일","weekdayOpen":"00:00","weekdayClose":"23:59","weekendOpen":"00:00","weekendClose":"23:59","holidayOpen":"00:00","holidayClose":"23:59","feeInfo":"기본 30분 400원 / 추가 15분당 200원","phone":"032-460-0530","updatedAt":"2025-06-02","sido":"인천광역시","sigungu":"남동구","dong":"장수동"},{"name":"남촌화물주차장(정기차량전용)","type":"공영","category":"노외","address":"인천광역시 남동구 남촌동 512-47","lat":37.43200198,"lng":126.7107667,"totalSpaces":22,"isFree":false,"operatingDays":"평일+토요일+공휴일","weekdayOpen":"00:00","weekdayClose":"23:59","weekendOpen":"00:00","weekendClose":"23:59","holidayOpen":"00:00","holidayClose":"23:59","feeInfo":"기본 30분 400원 / 추가 15분당 200원","phone":"032-460-0530","updatedAt":"2025-06-02","sido":"인천광역시","sigungu":"남동구","dong":"남촌동"},{"name":"동일(정기차량전용)","type":"공영","category":"노외","address":"인천광역시 남동구 간석1동 901-43","lat":37.45689639,"lng":126.6960132,"totalSpaces":22,"isFree":false,"operatingDays":"평일+토요일+공휴일","weekdayOpen":"00:00","weekdayClose":"23:59","weekendOpen":"00:00","weekendClose":"23:59","holidayOpen":"00:00","holidayClose":"23:59","feeInfo":"기본 30분 400원 / 추가 15분당 200원","phone":"032-460-0530","updatedAt":"2025-06-02","sido":"인천광역시","sigungu":"남동구","dong":"간석1동"},{"name":"성리(정기차량전용)","type":"공영","category":"노외","address":"인천광역시 남동구 남동대로712번길 8 (구월동)","lat":37.44564867,"lng":126.7076766,"totalSpaces":22,"isFree":false,"operatingDays":"평일+토요일+공휴일","weekdayOpen":"00:00","weekdayClose":"23:59","weekendOpen":"00:00","weekendClose":"23:59","holidayOpen":"00:00","holidayClose":"23:59","feeInfo":"기본 30분 400원 / 추가 15분당 200원","phone":"032-460-0530","updatedAt":"2025-06-02","sido":"인천광역시","sigungu":"남동구","dong":"구월동"},{"name":"문화서제2호(정기차량전용)","type":"공영","category":"노외","address":"인천광역시 남동구 문화서로65번길 20-25(구월동)","lat":37.45186949,"lng":126.6952754,"totalSpaces":21,"isFree":false,"operatingDays":"평일+토요일+공휴일","weekdayOpen":"00:00","weekdayClose":"23:59","weekendOpen":"00:00","weekendClose":"23:59","holidayOpen":"00:00","holidayClose":"23:59","feeInfo":"기본 30분 400원 / 추가 15분당 200원","phone":"032-460-0530","updatedAt":"2025-06-02","sido":"인천광역시","sigungu":"남동구","dong":"구월3동"},{"name":"간석초등학교(부설)(정기차량전용)","type":"공영","category":"노외","address":"인천광역시 남동구 석산로208번길 37","lat":37.45925947,"lng":126.7154465,"totalSpaces":21,"isFree":false,"operatingDays":"평일+토요일+공휴일","weekdayOpen":"18:00","weekdayClose":"07:30","weekendOpen":"00:00","weekendClose":"23:59","holidayOpen":"00:00","holidayClose":"23:59","feeInfo":"기본 0분 0원 / 추가 0분당 0원","phone":"032-460-0530","updatedAt":"2025-06-02","sido":"인천광역시","sigungu":"남동구","dong":"구월동"},{"name":"양지제2호(정기차량전용)","type":"공영","category":"노외","address":"인천광역시 남동구 구월로125번길 64-4(간석동)","lat":37.45970285,"lng":126.7045922,"totalSpaces":19,"isFree":false,"operatingDays":"평일+토요일+공휴일","weekdayOpen":"00:00","weekdayClose":"23:59","weekendOpen":"00:00","weekendClose":"23:59","holidayOpen":"00:00","holidayClose":"23:59","feeInfo":"기본 30분 400원 / 추가 15분당 200원","phone":"032-460-0530","updatedAt":"2025-06-02","sido":"인천광역시","sigungu":"남동구","dong":"간석1동"},{"name":"서창4호","type":"공영","category":"노외","address":"인천광역시 남동구 서창2동 580-1","lat":37.43171895,"lng":126.7517582,"totalSpaces":19,"isFree":false,"operatingDays":"평일+토요일+공휴일","weekdayOpen":"00:00","weekdayClose":"23:59","weekendOpen":"00:00","weekendClose":"23:59","holidayOpen":"00:00","holidayClose":"23:59","feeInfo":"기본 30분 400원 / 추가 15분당 200원","phone":"032-460-0530","updatedAt":"2025-06-02","sido":"인천광역시","sigungu":"남동구","dong":"서창2동"},{"name":"문화서제3호(정기차량전용)","type":"공영","category":"노외","address":"인천광역시 남동구 구월3동 1377","lat":37.4467694,"lng":126.6968895,"totalSpaces":18,"isFree":false,"operatingDays":"평일+토요일+공휴일","weekdayOpen":"00:00","weekdayClose":"23:59","weekendOpen":"00:00","weekendClose":"23:59","holidayOpen":"00:00","holidayClose":"23:59","feeInfo":"기본 30분 400원 / 추가 15분당 200원","phone":"032-460-0530","updatedAt":"2025-06-02","sido":"인천광역시","sigungu":"남동구","dong":"구월3동"},{"name":"구산로","type":"공영","category":"노상","address":"인천광역시 남동구 호구포로 818 (구월동)","lat":37.45536104,"lng":126.7196056,"totalSpaces":18,"isFree":false,"operatingDays":"평일","weekdayOpen":"09:00","weekdayClose":"18:00","weekendOpen":"00:00","weekendClose":"00:00","holidayOpen":"00:00","holidayClose":"00:00","feeInfo":"기본 30분 1,000원 / 추가 15분당 500원","phone":"032-460-0530","updatedAt":"2025-06-02","sido":"인천광역시","sigungu":"남동구","dong":"구월동"},{"name":"로데오","type":"공영","category":"노상","address":"인천광역시 남동구 성말로 9 (구월동)","lat":37.4458041,"lng":126.7017008,"totalSpaces":18,"isFree":false,"operatingDays":"평일+토요일+공휴일","weekdayOpen":"00:00","weekdayClose":"23:59","weekendOpen":"00:00","weekendClose":"23:59","holidayOpen":"00:00","holidayClose":"23:59","feeInfo":"기본 30분 600원 / 추가 15분당 300원","phone":"","updatedAt":"2024-12-12","sido":"인천광역시","sigungu":"남동구","dong":"구월동"},{"name":"주원제2호","type":"공영","category":"노외","address":"인천광역시 남동구 벽돌말로 19","lat":37.46608374,"lng":126.7006355,"totalSpaces":17,"isFree":false,"operatingDays":"평일+토요일+공휴일","weekdayOpen":"00:00","weekdayClose":"23:59","weekendOpen":"00:00","weekendClose":"23:59","holidayOpen":"00:00","holidayClose":"23:59","feeInfo":"기본 30분 400원 / 추가 15분당 200원","phone":"032-460-0530","updatedAt":"2025-06-02","sido":"인천광역시","sigungu":"남동구","dong":"간석동"},{"name":"장승백이1호(정기차량전용)","type":"공영","category":"노외","address":"인천광역시 남동구 만수6동 1083-2","lat":37.44762374,"lng":126.7366103,"totalSpaces":17,"isFree":false,"operatingDays":"평일+토요일+공휴일","weekdayOpen":"00:00","weekdayClose":"23:59","weekendOpen":"00:00","weekendClose":"23:59","holidayOpen":"00:00","holidayClose":"23:59","feeInfo":"기본 30분 400원 / 추가 15분당 200원","phone":"032-460-0530","updatedAt":"2025-06-02","sido":"인천광역시","sigungu":"남동구","dong":"만수6동"},{"name":"장승백이3호","type":"공영","category":"노외","address":"인천광역시 남동구 만수6동 1097-3","lat":37.44600864,"lng":126.7415764,"totalSpaces":17,"isFree":false,"operatingDays":"평일+토요일+공휴일","weekdayOpen":"00:00","weekdayClose":"23:59","weekendOpen":"00:00","weekendClose":"23:59","holidayOpen":"00:00","holidayClose":"23:59","feeInfo":"기본 30분 400원 / 추가 15분당 200원","phone":"032-460-0530","updatedAt":"2025-06-02","sido":"인천광역시","sigungu":"남동구","dong":"만수6동"},{"name":"장승백이2호(정기차량전용)","type":"공영","category":"노외","address":"인천광역시 남동구 만수6동 1097-1","lat":37.44584145,"lng":126.7410025,"totalSpaces":16,"isFree":false,"operatingDays":"평일+토요일+공휴일","weekdayOpen":"00:00","weekdayClose":"23:59","weekendOpen":"00:00","weekendClose":"23:59","holidayOpen":"00:00","holidayClose":"23:59","feeInfo":"기본 30분 400원 / 추가 15분당 200원","phone":"032-460-0530","updatedAt":"2025-06-02","sido":"인천광역시","sigungu":"남동구","dong":"만수6동"},{"name":"만월11호(정기차량전용)","type":"공영","category":"노외","address":"인천광역시 남동구 만수3동 109-99","lat":37.46199512,"lng":126.728185,"totalSpaces":15,"isFree":false,"operatingDays":"평일+토요일+공휴일","weekdayOpen":"00:00","weekdayClose":"23:59","weekendOpen":"00:00","weekendClose":"23:59","holidayOpen":"00:00","holidayClose":"23:59","feeInfo":"기본 30분 400원 / 추가 15분당 200원","phone":"032-460-0530","updatedAt":"2025-06-02","sido":"인천광역시","sigungu":"남동구","dong":"만수3동"},{"name":"인수마을1호","type":"공영","category":"노외","address":"인천광역시 남동구 인수북로15번길 11","lat":37.4537752,"lng":126.7397493,"totalSpaces":15,"isFree":false,"operatingDays":"평일+토요일+공휴일","weekdayOpen":"00:00","weekdayClose":"23:59","weekendOpen":"00:00","weekendClose":"23:59","holidayOpen":"00:00","holidayClose":"23:59","feeInfo":"기본 30분 400원 / 추가 15분당 200원","phone":"","updatedAt":"2024-12-12","sido":"인천광역시","sigungu":"남동구","dong":"만수동"},{"name":"신명여자고등학교(부설)/정기차량전용","type":"공영","category":"부설","address":"인천광역시 남동구 용천로205번길 42","lat":37.46923037,"lng":126.7130184,"totalSpaces":14,"isFree":false,"operatingDays":"평일+토요일+공휴일","weekdayOpen":"18:30","weekdayClose":"07:30","weekendOpen":"00:00","weekendClose":"23:59","holidayOpen":"00:00","holidayClose":"23:59","feeInfo":"기본 0분 0원 / 추가 0분당 0원","phone":"","updatedAt":"2024-12-12","sido":"인천광역시","sigungu":"남동구","dong":"간석동"},{"name":"문화서제4호(정기차량전용)","type":"공영","category":"노외","address":"인천광역시 남동구 문화로133번길 38-8 (구월동)","lat":37.4515184,"lng":126.6977566,"totalSpaces":13,"isFree":false,"operatingDays":"평일+토요일+공휴일","weekdayOpen":"00:00","weekdayClose":"23:59","weekendOpen":"00:00","weekendClose":"23:59","holidayOpen":"00:00","holidayClose":"23:59","feeInfo":"기본 30분 400원 / 추가 15분당 200원","phone":"032-460-0530","updatedAt":"2025-06-02","sido":"인천광역시","sigungu":"남동구","dong":"구월3동"},{"name":"서창6호(정기차량전용)","type":"공영","category":"노외","address":"인천광역시 남동구 서창동 556-4","lat":37.43734644,"lng":126.7462635,"totalSpaces":12,"isFree":false,"operatingDays":"평일+토요일+공휴일","weekdayOpen":"00:00","weekdayClose":"23:59","weekendOpen":"00:00","weekendClose":"23:59","holidayOpen":"00:00","holidayClose":"23:59","feeInfo":"기본 30분 400원 / 추가 15분당 200원","phone":"032-460-0530","updatedAt":"2025-06-02","sido":"인천광역시","sigungu":"남동구","dong":"서창동"},{"name":"산호2호(정기차량전용)","type":"공영","category":"노외","address":"인천광역시 남동구 만수3동 844-184","lat":37.46284742,"lng":126.7236605,"totalSpaces":12,"isFree":false,"operatingDays":"평일+토요일+공휴일","weekdayOpen":"00:00","weekdayClose":"23:59","weekendOpen":"00:00","weekendClose":"23:59","holidayOpen":"00:00","holidayClose":"23:59","feeInfo":"기본 30분 400원 / 추가 15분당 200원","phone":"032-460-0530","updatedAt":"2025-06-02","sido":"인천광역시","sigungu":"남동구","dong":"만수3동"},{"name":"진주3호(정기차량전용)","type":"공영","category":"노외","address":"인천광역시 남동구 만수5동 883-23","lat":37.45586316,"lng":126.7302441,"totalSpaces":12,"isFree":false,"operatingDays":"평일+토요일+공휴일","weekdayOpen":"00:00","weekdayClose":"23:59","weekendOpen":"00:00","weekendClose":"23:59","holidayOpen":"00:00","holidayClose":"23:59","feeInfo":"기본 30분 400원 / 추가 15분당 200원","phone":"032-460-0530","updatedAt":"2025-06-02","sido":"인천광역시","sigungu":"남동구","dong":"만수5동"},{"name":"담방","type":"공영","category":"노외","address":"인천광역시 남동구 만수6동 1099-3","lat":37.44557489,"lng":126.7396621,"totalSpaces":12,"isFree":false,"operatingDays":"평일+토요일+공휴일","weekdayOpen":"00:00","weekdayClose":"23:59","weekendOpen":"00:00","weekendClose":"23:59","holidayOpen":"00:00","holidayClose":"23:59","feeInfo":"기본 30분 400원 / 추가 15분당 200원","phone":"032-460-0530","updatedAt":"2025-06-02","sido":"인천광역시","sigungu":"남동구","dong":"만수6동"},{"name":"인정(정기차량전용)","type":"공영","category":"노외","address":"인천광역시 남동구 구월3동 1382-19","lat":37.44868764,"lng":126.6935336,"totalSpaces":11,"isFree":false,"operatingDays":"평일+토요일+공휴일","weekdayOpen":"00:00","weekdayClose":"23:59","weekendOpen":"00:00","weekendClose":"23:59","holidayOpen":"00:00","holidayClose":"23:59","feeInfo":"기본 30분 400원 / 추가 15분당 200원","phone":"032-460-0530","updatedAt":"2025-06-02","sido":"인천광역시","sigungu":"남동구","dong":"구월3동"},{"name":"성실(정기차량전용)","type":"공영","category":"노외","address":"인천광역시 남동구 구월4동 1299-25","lat":37.45053393,"lng":126.7223324,"totalSpaces":11,"isFree":false,"operatingDays":"평일+토요일+공휴일","weekdayOpen":"00:00","weekdayClose":"23:59","weekendOpen":"00:00","weekendClose":"23:59","holidayOpen":"00:00","holidayClose":"23:59","feeInfo":"기본 30분 400원 / 추가 15분당 200원","phone":"032-460-0530","updatedAt":"2025-06-02","sido":"인천광역시","sigungu":"남동구","dong":"구월4동"},{"name":"모래마을제5호(정기차량전용)","type":"공영","category":"노외","address":"인천광역시 남동구 호구포로790번길 41-11(구월동 신명뜨란채)","lat":37.45316384,"lng":126.7213949,"totalSpaces":10,"isFree":false,"operatingDays":"평일+토요일+공휴일","weekdayOpen":"00:00","weekdayClose":"23:59","weekendOpen":"00:00","weekendClose":"23:59","holidayOpen":"00:00","holidayClose":"23:59","feeInfo":"기본 30분 400원 / 추가 15분당 200원","phone":"032-460-0530","updatedAt":"2025-06-02","sido":"인천광역시","sigungu":"남동구","dong":"구월동"},{"name":"문화서(정기차량전용)","type":"공영","category":"노외","address":"인천광역시 남동구 구월3동 1121-2","lat":37.44985895,"lng":126.6951633,"totalSpaces":10,"isFree":false,"operatingDays":"평일+토요일+공휴일","weekdayOpen":"00:00","weekdayClose":"23:59","weekendOpen":"00:00","weekendClose":"23:59","holidayOpen":"00:00","holidayClose":"23:59","feeInfo":"기본 30분 400원 / 추가 15분당 200원","phone":"032-460-0530","updatedAt":"2025-06-02","sido":"인천광역시","sigungu":"남동구","dong":"구월3동"},{"name":"진주2호(정기차량전용)","type":"공영","category":"노외","address":"인천광역시 남동구 만수5동 896-15","lat":37.45896298,"lng":126.7260775,"totalSpaces":10,"isFree":false,"operatingDays":"평일+토요일+공휴일","weekdayOpen":"00:00","weekdayClose":"23:59","weekendOpen":"00:00","weekendClose":"23:59","holidayOpen":"00:00","holidayClose":"23:59","feeInfo":"기본 30분 400원 / 추가 15분당 200원","phone":"032-460-0530","updatedAt":"2025-06-02","sido":"인천광역시","sigungu":"남동구","dong":"만수5동"},{"name":"석촌로제1(정기차량전용)","type":"공영","category":"노외","address":"인천광역시 남동구 간석2동 179-11","lat":37.46418526,"lng":126.7099375,"totalSpaces":10,"isFree":false,"operatingDays":"평일+토요일+공휴일","weekdayOpen":"00:00","weekdayClose":"23:59","weekendOpen":"00:00","weekendClose":"23:59","holidayOpen":"00:00","holidayClose":"23:59","feeInfo":"기본 30분 600원 / 추가 15분당 300원","phone":"032-460-0530","updatedAt":"2025-06-02","sido":"인천광역시","sigungu":"남동구","dong":"간석2동"},{"name":"장미(정기차량전용)","type":"공영","category":"노외","address":"인천광역시 남동구 구월2동 1242-8","lat":37.45693686,"lng":126.716188,"totalSpaces":10,"isFree":false,"operatingDays":"평일+토요일+공휴일","weekdayOpen":"00:00","weekdayClose":"23:59","weekendOpen":"00:00","weekendClose":"23:59","holidayOpen":"00:00","holidayClose":"23:59","feeInfo":"기본 30분 400원 / 추가 15분당 200원","phone":"032-460-0530","updatedAt":"2025-06-02","sido":"인천광역시","sigungu":"남동구","dong":"구월2동"},{"name":"작은성말(정기차량전용)","type":"공영","category":"노외","address":"인천광역시 남동구 구월3동 1164-10","lat":37.44551953,"lng":126.7053305,"totalSpaces":7,"isFree":false,"operatingDays":"평일+토요일+공휴일","weekdayOpen":"00:00","weekdayClose":"23:59","weekendOpen":"00:00","weekendClose":"23:59","holidayOpen":"00:00","holidayClose":"23:59","feeInfo":"기본 30분 400원 / 추가 15분당 200원","phone":"032-460-0530","updatedAt":"2025-06-02","sido":"인천광역시","sigungu":"남동구","dong":"구월3동"}]}