{"sido":"인천광역시","sigungu":"부평구","totalCount":137,"validCount":137,"items":[{"name":"부개동 군부대부지","type":"공영","category":"노외","address":"인천광역시 부평구 동수로128번길 40(부개동)","lat":37.48324484,"lng":126.7331332,"totalSpaces":101,"isFree":true,"operatingDays":"평일+토요일+공휴일","weekdayOpen":"00:00","weekdayClose":"23:59","weekendOpen":"00:00","weekendClose":"23:59","holidayOpen":"00:00","holidayClose":"23:59","feeInfo":"무료","phone":"032-262-9220","updatedAt":"2025-10-30","sido":"인천광역시","sigungu":"부평구","dong":"부개동"},{"name":"희망천3지구","type":"공영","category":"노외","address":"인천광역시 부평구 경인로818번길 84-12(부평동) 일원","lat":37.48076132,"lng":126.7173588,"totalSpaces":73,"isFree":true,"operatingDays":"평일+토요일+공휴일","weekdayOpen":"00:00","weekdayClose":"23:59","weekendOpen":"00:00","weekendClose":"23:59","holidayOpen":"00:00","holidayClose":"23:59","feeInfo":"무료","phone":"032-262-9220","updatedAt":"2025-10-30","sido":"인천광역시","sigungu":"부평구","dong":"부평동"},{"name":"캠프마켓(임시)","type":"공영","category":"노외","address":"인천광역시 부평구 부흥로 212(산곡동)","lat":37.49885696,"lng":126.7150619,"totalSpaces":50,"isFree":true,"operatingDays":"평일+토요일+공휴일","weekdayOpen":"00:00","weekdayClose":"23:59","weekendOpen":"00:00","weekendClose":"23:59","holidayOpen":"00:00","holidayClose":"23:59","feeInfo":"무료","phone":"032-262-9220","updatedAt":"2025-10-30","sido":"인천광역시","sigungu":"부평구","dong":"산곡동"},{"name":"삼산1동","type":"공영","category":"노외","address":"인천광역시 부평구 부평북로 447(삼산동)","lat":37.5221852613,"lng":126.7433335366,"totalSpaces":29,"isFree":true,"operatingDays":"평일+토요일+공휴일","weekdayOpen":"00:00","weekdayClose":"23:59","weekendOpen":"00:00","weekendClose":"23:59","holidayOpen":"00:00","holidayClose":"23:59","feeInfo":"무료","phone":"032-262-9220","updatedAt":"2025-10-30","sido":"인천광역시","sigungu":"부평구","dong":"삼산동"},{"name":"부개인우","type":"공영","category":"노외","address":"인천광역시 부평구 동수천로 117(부개동)","lat":37.4960832971,"lng":126.7362399412,"totalSpaces":22,"isFree":true,"operatingDays":"평일+토요일+공휴일","weekdayOpen":"00:00","weekdayClose":"23:59","weekendOpen":"00:00","weekendClose":"23:59","holidayOpen":"00:00","holidayClose":"23:59","feeInfo":"무료","phone":"032-262-9220","updatedAt":"2025-10-30","sido":"인천광역시","sigungu":"부평구","dong":"부개동"},{"name":"산곡동521번지","type":"공영","category":"노외","address":"인천광역시 부평구 원적로269번길 55-1(산곡동)","lat":37.5064914284,"lng":126.693642912,"totalSpaces":19,"isFree":true,"operatingDays":"평일+토요일+공휴일","weekdayOpen":"00:00","weekdayClose":"23:59","weekendOpen":"00:00","weekendClose":"23:59","holidayOpen":"00:00","holidayClose":"23:59","feeInfo":"무료","phone":"032-262-9220","updatedAt":"2025-10-30","sido":"인천광역시","sigungu":"부평구","dong":"산곡동"},{"name":"청천2동","type":"공영","category":"노외","address":"인천광역시 부평구 세월천로40번길 37(청천동) 일원","lat":37.51473881,"lng":126.7051042,"totalSpaces":18,"isFree":true,"operatingDays":"평일+토요일+공휴일","weekdayOpen":"00:00","weekdayClose":"23:59","weekendOpen":"00:00","weekendClose":"23:59","holidayOpen":"00:00","holidayClose":"23:59","feeInfo":"무료","phone":"032-262-9220","updatedAt":"2025-10-30","sido":"인천광역시","sigungu":"부평구","dong":"청천동"},{"name":"산곡동 537번지","type":"공영","category":"노외","address":"인천광역시 부평구 산곡동 537","lat":37.51354403,"lng":126.7000832,"totalSpaces":14,"isFree":true,"operatingDays":"평일+토요일+공휴일","weekdayOpen":"00:00","weekdayClose":"23:59","weekendOpen":"00:00","weekendClose":"23:59","holidayOpen":"00:00","holidayClose":"23:59","feeInfo":"무료","phone":"032-262-9220","updatedAt":"2025-10-30","sido":"인천광역시","sigungu":"부평구","dong":"산곡동"},{"name":"부개동 532번지","type":"공영","category":"노외","address":"인천광역시 부평구 경인로1024번길 21(부개동)","lat":37.48590967,"lng":126.7342204,"totalSpaces":13,"isFree":true,"operatingDays":"평일+토요일+공휴일","weekdayOpen":"00:00","weekdayClose":"23:59","weekendOpen":"00:00","weekendClose":"23:59","holidayOpen":"00:00","holidayClose":"23:59","feeInfo":"무료","phone":"032-262-9220","updatedAt":"2025-10-30","sido":"인천광역시","sigungu":"부평구","dong":"부개동"},{"name":"남부역1길","type":"공영","category":"노외","address":"인천광역시 부평구 장제로27번길 17(부평동) 인근","lat":37.48791539,"lng":126.7281473,"totalSpaces":13,"isFree":true,"operatingDays":"평일+토요일+공휴일","weekdayOpen":"00:00","weekdayClose":"23:59","weekendOpen":"00:00","weekendClose":"23:59","holidayOpen":"00:00","holidayClose":"23:59","feeInfo":"무료","phone":"032-262-9220","updatedAt":"2025-10-30","sido":"인천광역시","sigungu":"부평구","dong":"부평동"},{"name":"무지개아파트옆","type":"공영","category":"노외","address":"인천광역시 부평구 부흥로111번길 58(산곡동) 일원","lat":37.50072123,"lng":126.7044694,"totalSpaces":12,"isFree":true,"operatingDays":"평일+토요일+공휴일","weekdayOpen":"00:00","weekdayClose":"23:59","weekendOpen":"00:00","weekendClose":"23:59","holidayOpen":"00:00","holidayClose":"23:59","feeInfo":"무료","phone":"032-262-9220","updatedAt":"2025-10-30","sido":"인천광역시","sigungu":"부평구","dong":"산곡동"},{"name":"산곡배움2길","type":"공영","category":"노외","address":"인천광역시 부평구 화랑남로9번길 20(산곡동) 일원","lat":37.4934246,"lng":126.7060426,"totalSpaces":10,"isFree":true,"operatingDays":"평일+토요일+공휴일","weekdayOpen":"00:00","weekdayClose":"23:59","weekendOpen":"00:00","weekendClose":"23:59","holidayOpen":"00:00","holidayClose":"23:59","feeInfo":"무료","phone":"032-262-9220","updatedAt":"2025-10-30","sido":"인천광역시","sigungu":"부평구","dong":"산곡동"},{"name":"부평3동","type":"공영","category":"노외","address":"인천광역시 부평구 마장로 82(부평동) 일원","lat":37.4860242,"lng":126.7082771,"totalSpaces":9,"isFree":true,"operatingDays":"평일+토요일+공휴일","weekdayOpen":"00:00","weekdayClose":"23:59","weekendOpen":"00:00","weekendClose":"23:59","holidayOpen":"00:00","holidayClose":"23:59","feeInfo":"무료","phone":"032-262-9220","updatedAt":"2025-10-30","sido":"인천광역시","sigungu":"부평구","dong":"십정동"},{"name":"청수3길","type":"공영","category":"노외","address":"인천광역시 부평구 평천로136번길 14(청천동) 일원","lat":37.5195081,"lng":126.7060609,"totalSpaces":8,"isFree":true,"operatingDays":"평일+토요일+공휴일","weekdayOpen":"00:00","weekdayClose":"23:59","weekendOpen":"00:00","weekendClose":"23:59","holidayOpen":"00:00","holidayClose":"23:59","feeInfo":"무료","phone":"032-262-9220","updatedAt":"2025-10-30","sido":"인천광역시","sigungu":"부평구","dong":"청천동"},{"name":"청천동 9-52","type":"공영","category":"노외","address":"인천광역시 부평구 마장로468번길 12-6(청천동)","lat":37.51975194,"lng":126.7052701,"totalSpaces":6,"isFree":true,"operatingDays":"평일+토요일+공휴일","weekdayOpen":"00:00","weekdayClose":"23:59","weekendOpen":"00:00","weekendClose":"23:59","holidayOpen":"00:00","holidayClose":"23:59","feeInfo":"무료","phone":"032-262-9220","updatedAt":"2025-10-30","sido":"인천광역시","sigungu":"부평구","dong":"청천동"},{"name":"효자2길","type":"공영","category":"노외","address":"인천광역시 부평구 안남로16번길 28-2(부평동) 일원","lat":37.4870571,"lng":126.716656,"totalSpaces":6,"isFree":true,"operatingDays":"평일+토요일+공휴일","weekdayOpen":"00:00","weekdayClose":"23:59","weekendOpen":"00:00","weekendClose":"23:59","holidayOpen":"00:00","holidayClose":"23:59","feeInfo":"무료","phone":"032-262-9220","updatedAt":"2025-10-30","sido":"인천광역시","sigungu":"부평구","dong":"부평동"},{"name":"일신동","type":"공영","category":"노외","address":"인천광역시 부평구 일신로40번길 62(일신동) 일원","lat":37.48173752,"lng":126.7423648,"totalSpaces":6,"isFree":true,"operatingDays":"평일+토요일+공휴일","weekdayOpen":"00:00","weekdayClose":"23:59","weekendOpen":"00:00","weekendClose":"23:59","holidayOpen":"00:00","holidayClose":"23:59","feeInfo":"무료","phone":"032-262-9220","updatedAt":"2025-10-30","sido":"인천광역시","sigungu":"부평구","dong":"일신동"},{"name":"삼산동 554번지","type":"공영","category":"노외","address":"인천광역시 부평구 삼산동 554","lat":37.52016067,"lng":126.7350943,"totalSpaces":6,"isFree":true,"operatingDays":"평일+토요일+공휴일","weekdayOpen":"00:00","weekdayClose":"23:59","weekendOpen":"00:00","weekendClose":"23:59","holidayOpen":"00:00","holidayClose":"23:59","feeInfo":"무료","phone":"032-262-9220","updatedAt":"2025-10-30","sido":"인천광역시","sigungu":"부평구","dong":"삼산동"},{"name":"부평동 958번지","type":"공영","category":"노외","address":"인천광역시 부평구 부평동 958","lat":37.4882370423,"lng":126.7262792019,"totalSpaces":6,"isFree":true,"operatingDays":"평일+토요일+공휴일","weekdayOpen":"00:00","weekdayClose":"23:59","weekendOpen":"00:00","weekendClose":"23:59","holidayOpen":"00:00","holidayClose":"23:59","feeInfo":"무료","phone":"032-262-9220","updatedAt":"2025-10-30","sido":"인천광역시","sigungu":"부평구","dong":"부평동"},{"name":"남새싹5길","type":"공영","category":"노외","address":"인천광역시 부평구 남부역로17번길 26(부평동) 일원","lat":37.48903538,"lng":126.720057,"totalSpaces":5,"isFree":true,"operatingDays":"평일+토요일+공휴일","weekdayOpen":"00:00","weekdayClose":"23:59","weekendOpen":"00:00","weekendClose":"23:59","holidayOpen":"00:00","holidayClose":"23:59","feeInfo":"무료","phone":"032-262-9220","updatedAt":"2025-10-30","sido":"인천광역시","sigungu":"부평구","dong":"부평동"},{"name":"늘봄1길","type":"공영","category":"노외","address":"인천광역시 부평구 동수북로60번길 1","lat":37.48719899,"lng":126.7138465,"totalSpaces":5,"isFree":true,"operatingDays":"평일+토요일+공휴일","weekdayOpen":"00:00","weekdayClose":"23:59","weekendOpen":"00:00","weekendClose":"23:59","holidayOpen":"00:00","holidayClose":"23:59","feeInfo":"무료","phone":"032-262-9220","updatedAt":"2025-10-30","sido":"인천광역시","sigungu":"부평구","dong":"부평동"},{"name":"부평샬레아파트","type":"공영","category":"노외","address":"인천광역시 부평구 원적로 238(산곡동)","lat":37.50359659,"lng":126.6932916,"totalSpaces":4,"isFree":true,"operatingDays":"평일+토요일+공휴일","weekdayOpen":"00:00","weekdayClose":"23:59","weekendOpen":"00:00","weekendClose":"23:59","holidayOpen":"00:00","holidayClose":"23:59","feeInfo":"무료","phone":"032-262-9220","updatedAt":"2025-10-30","sido":"인천광역시","sigungu":"부평구","dong":"산곡동"},{"name":"부영길","type":"공영","category":"노외","address":"인천광역시 부평구 안남로 19(부평동)","lat":37.485922,"lng":126.7156817,"totalSpaces":4,"isFree":true,"operatingDays":"평일+토요일+공휴일","weekdayOpen":"00:00","weekdayClose":"23:59","weekendOpen":"00:00","weekendClose":"23:59","holidayOpen":"00:00","holidayClose":"23:59","feeInfo":"무료","phone":"032-262-9220","updatedAt":"2025-10-30","sido":"인천광역시","sigungu":"부평구","dong":"부평동"},{"name":"청천우민아파트","type":"공영","category":"노외","address":"인천광역시 부평구 평천로 115번길 12(청천동)","lat":37.52072299,"lng":126.7068176,"totalSpaces":3,"isFree":true,"operatingDays":"평일+토요일+공휴일","weekdayOpen":"00:00","weekdayClose":"23:59","weekendOpen":"00:00","weekendClose":"23:59","holidayOpen":"00:00","holidayClose":"23:59","feeInfo":"무료","phone":"032-262-9220","updatedAt":"2025-10-30","sido":"인천광역시","sigungu":"부평구","dong":"청천동"},{"name":"남새싹3길","type":"공영","category":"노외","address":"인천광역시 부평구 부영로28번길 31-28(부평동) 일원","lat":37.488532,"lng":126.7193887,"totalSpaces":3,"isFree":true,"operatingDays":"평일+토요일+공휴일","weekdayOpen":"00:00","weekdayClose":"23:59","weekendOpen":"00:00","weekendClose":"23:59","holidayOpen":"00:00","holidayClose":"23:59","feeInfo":"무료","phone":"032-262-9220","updatedAt":"2025-10-30","sido":"인천광역시","sigungu":"부평구","dong":"부평동"},{"name":"부개동527번지","type":"공영","category":"노외","address":"인천광역시 부평구 부평문화로 200(부개동)","lat":37.4932998901,"lng":126.7387020792,"totalSpaces":3,"isFree":true,"operatingDays":"평일+토요일+공휴일","weekdayOpen":"00:00","weekdayClose":"23:59","weekendOpen":"00:00","weekendClose":"23:59","holidayOpen":"00:00","holidayClose":"23:59","feeInfo":"무료","phone":"032-262-9220","updatedAt":"2025-10-30","sido":"인천광역시","sigungu":"부평구","dong":"부개동"},{"name":"부평동 984번지","type":"공영","category":"노외","address":"인천광역시 부평구 부평동 984","lat":37.48490799,"lng":126.7150674,"totalSpaces":3,"isFree":true,"operatingDays":"평일+토요일+공휴일","weekdayOpen":"00:00","weekdayClose":"23:59","weekendOpen":"00:00","weekendClose":"23:59","holidayOpen":"00:00","holidayClose":"23:59","feeInfo":"무료","phone":"032-262-9220","updatedAt":"2025-10-30","sido":"인천광역시","sigungu":"부평구","dong":"부평동"},{"name":"부평동 743-49","type":"공영","category":"노외","address":"인천광역시 부평구 남부역로5번길 10-9(부평동)","lat":37.4877055358,"lng":126.721146,"totalSpaces":3,"isFree":true,"operatingDays":"평일+토요일+공휴일","weekdayOpen":"00:00","weekdayClose":"23:59","weekendOpen":"00:00","weekendClose":"23:59","holidayOpen":"00:00","holidayClose":"23:59","feeInfo":"무료","phone":"032-262-9220","updatedAt":"2025-10-30","sido":"인천광역시","sigungu":"부평구","dong":"부평동"},{"name":"청천천","type":"공영","category":"노외","address":"인천광역시 부평구 부평대로 233","lat":37.51233271,"lng":126.7162214,"totalSpaces":441,"isFree":false,"operatingDays":"평일+토요일+공휴일","weekdayOpen":"00:00","weekdayClose":"23:59","weekendOpen":"00:00","weekendClose":"23:59","holidayOpen":"00:00","holidayClose":"23:59","feeInfo":"기본 30분 400원 / 추가 15분당 200원","phone":"032-579-2701","updatedAt":"2025-06-26","sido":"인천광역시","sigungu":"부평구","dong":"청천동"},{"name":"청천천","type":"공영","category":"노외","address":"인천광역시 부평구 평천로 266","lat":37.51639667,"lng":126.7199201,"totalSpaces":441,"isFree":false,"operatingDays":"평일+토요일+공휴일","weekdayOpen":"00:01","weekdayClose":"12:00","weekendOpen":"00:01","weekendClose":"12:00","holidayOpen":"00:01","holidayClose":"12:00","feeInfo":"기본 30분 400원 / 추가 15분당 200원","phone":"032-579-2701","updatedAt":"2025-06-25","sido":"인천광역시","sigungu":"부평구","dong":"청천동"},{"name":"부평구청역","type":"공영","category":"노외","address":"인천광역시 부평구 부평대로165번길(부평동) 일원","lat":37.5058342,"lng":126.7206155,"totalSpaces":434,"isFree":false,"operatingDays":"평일","weekdayOpen":"09:00","weekdayClose":"19:00","weekendOpen":"00:00","weekendClose":"00:00","holidayOpen":"00:00","holidayClose":"00:00","feeInfo":"기본 30분 600원 / 추가 15분당 300원","phone":"032-262-9229","updatedAt":"2017-05-29","sido":"인천광역시","sigungu":"부평구","dong":"부평동"},{"name":"부평구청(부설)","type":"공영","category":"부설","address":"인천광역시 부평구 부평대로 168","lat":37.5067667,"lng":126.7218573,"totalSpaces":334,"isFree":false,"operatingDays":"평일","weekdayOpen":"09:00","weekdayClose":"19:00","weekendOpen":"00:00","weekendClose":"00:00","holidayOpen":"00:00","holidayClose":"00:00","feeInfo":"기본 30분 600원 / 추가 15분당 300원","phone":"032-509-8759","updatedAt":"2017-05-29","sido":"인천광역시","sigungu":"부평구","dong":"부평4동"},{"name":"굴포천2차 복개","type":"공영","category":"노외","address":"인천광역시 부평구 부흥로259번길 11(부평동) 일원","lat":37.4983628,"lng":126.720527,"totalSpaces":300,"isFree":false,"operatingDays":"평일+토요일+공휴일","weekdayOpen":"09:00","weekdayClose":"19:00","weekendOpen":"09:00","weekendClose":"17:00","holidayOpen":"09:00","holidayClose":"17:00","feeInfo":"기본 30분 600원 / 추가 15분당 300원","phone":"032-512-8390","updatedAt":"2017-05-29","sido":"인천광역시","sigungu":"부평구","dong":"부평동"},{"name":"굴포천1차 복개","type":"공영","category":"노외","address":"인천광역시 부평구 부평문화로37번길 16(부평동) 일원","lat":37.4947095,"lng":126.7204751,"totalSpaces":244,"isFree":false,"operatingDays":"평일+토요일+공휴일","weekdayOpen":"09:00","weekdayClose":"19:00","weekendOpen":"09:00","weekendClose":"17:00","holidayOpen":"09:00","holidayClose":"17:00","feeInfo":"기본 30분 600원 / 추가 15분당 300원","phone":"032-262-9229","updatedAt":"2017-05-29","sido":"인천광역시","sigungu":"부평구","dong":"부평동"},{"name":"부개역","type":"공영","category":"노외","address":"인천광역시 부평구 청천로 226번길","lat":37.48943897,"lng":126.7396121,"totalSpaces":193,"isFree":false,"operatingDays":"평일+토요일+공휴일","weekdayOpen":"00:00","weekdayClose":"23:59","weekendOpen":"00:00","weekendClose":"23:59","holidayOpen":"00:00","holidayClose":"23:59","feeInfo":"기본 30분 400원 / 추가 15분당 200원","phone":"032-579-2701","updatedAt":"2025-06-26","sido":"인천광역시","sigungu":"부평구","dong":"부개동"},{"name":"부개역","type":"공영","category":"노외","address":"인천광역시 부평구 부개동 206-1","lat":37.48943897,"lng":126.7396121,"totalSpaces":193,"isFree":false,"operatingDays":"평일+토요일+공휴일","weekdayOpen":"00:01","weekdayClose":"12:00","weekendOpen":"00:01","weekendClose":"12:00","holidayOpen":"00:01","holidayClose":"12:00","feeInfo":"기본 30분 400원 / 추가 15분당 200원","phone":"032-579-2701","updatedAt":"2025-06-25","sido":"인천광역시","sigungu":"부평구","dong":"부개동"},{"name":"부원","type":"공영","category":"노외","address":"인천광역시 부평구 경원대로1347번길 12(부평동) 일원","lat":37.49171809,"lng":126.7191122,"totalSpaces":187,"isFree":false,"operatingDays":"평일","weekdayOpen":"09:00","weekdayClose":"18:00","weekendOpen":"00:00","weekendClose":"00:00","holidayOpen":"00:00","holidayClose":"00:00","feeInfo":"기본 30분 1,000원 / 추가 15분당 500원","phone":"032-262-9220","updatedAt":"2025-10-30","sido":"인천광역시","sigungu":"부평구","dong":"부평동"},{"name":"부평시장(건축물)","type":"공영","category":"노외","address":"인천광역시 부평구 시장로61번길 11(부평동) 일원","lat":37.4960046,"lng":126.7270041,"totalSpaces":185,"isFree":false,"operatingDays":"평일+토요일+공휴일","weekdayOpen":"00:00","weekdayClose":"00:00","weekendOpen":"00:00","weekendClose":"00:00","holidayOpen":"00:00","holidayClose":"00:00","feeInfo":"기본 30분 600원 / 추가 15분당 300원","phone":"032-262-9230","updatedAt":"2017-05-29","sido":"인천광역시","sigungu":"부평구","dong":"부평4동"},{"name":"부평시장","type":"공영","category":"노외","address":"인천광역시 부평구 시장로61번길 11(부평동) 일원","lat":37.4960046,"lng":126.7269891,"totalSpaces":184,"isFree":false,"operatingDays":"평일+토요일+공휴일","weekdayOpen":"00:00","weekdayClose":"23:59","weekendOpen":"00:00","weekendClose":"23:59","holidayOpen":"00:00","holidayClose":"23:59","feeInfo":"기본 30분 600원 / 추가 15분당 300원","phone":"032-262-9220","updatedAt":"2025-10-30","sido":"인천광역시","sigungu":"부평구","dong":"부평동"},{"name":"삼산동(갈월)","type":"공영","category":"노외","address":"인천광역시 부평구 후정동로 32(삼산동) 일원","lat":37.5198649,"lng":126.7387108,"totalSpaces":156,"isFree":false,"operatingDays":"평일","weekdayOpen":"09:00","weekdayClose":"19:00","weekendOpen":"00:00","weekendClose":"00:00","holidayOpen":"00:00","holidayClose":"00:00","feeInfo":"기본 30분 300원 / 추가 15분당 150원","phone":"032-512-8634","updatedAt":"2017-05-29","sido":"인천광역시","sigungu":"부평구","dong":"삼산동"},{"name":"부흥로터리","type":"공영","category":"노상","address":"인천광역시 부평구 장제로 138(부평동) 일원","lat":37.498545,"lng":126.7316485,"totalSpaces":154,"isFree":false,"operatingDays":"평일+토요일+공휴일","weekdayOpen":"09:00","weekdayClose":"19:00","weekendOpen":"09:00","weekendClose":"17:00","holidayOpen":"09:00","holidayClose":"17:00","feeInfo":"기본 30분 600원 / 추가 15분당 300원","phone":"032-262-9220","updatedAt":"2017-05-29","sido":"인천광역시","sigungu":"부평구","dong":"부평동"},{"name":"부흥로터리","type":"공영","category":"노상","address":"인천광역시 부평구 장제로 138(부평동) 일원","lat":37.49709063,"lng":126.7310841,"totalSpaces":154,"isFree":false,"operatingDays":"평일","weekdayOpen":"09:00","weekdayClose":"18:00","weekendOpen":"00:00","weekendClose":"00:00","holidayOpen":"00:00","holidayClose":"00:00","feeInfo":"기본 30분 600원 / 추가 15분당 300원","phone":"032-262-9220","updatedAt":"2025-10-30","sido":"인천광역시","sigungu":"부평구","dong":"부평동"},{"name":"신트리공원","type":"공영","category":"노외","address":"인천광역시 부평구 신트리로 21(부평동)","lat":37.5065479,"lng":126.7236378,"totalSpaces":153,"isFree":false,"operatingDays":"평일+토요일","weekdayOpen":"09:00","weekdayClose":"19:00","weekendOpen":"09:00","weekendClose":"17:00","holidayOpen":"00:00","holidayClose":"00:00","feeInfo":"기본 30분 400원 / 추가 15분당 200원","phone":"032-262-9220","updatedAt":"2025-10-30","sido":"인천광역시","sigungu":"부평구","dong":"부평동"},{"name":"세월천로","type":"민영","category":"노상","address":"인천광역시 부평구 세월천로 1(청천동) 일원","lat":37.5128733,"lng":126.7067501,"totalSpaces":141,"isFree":false,"operatingDays":"평일+토요일","weekdayOpen":"09:00","weekdayClose":"19:00","weekendOpen":"09:00","weekendClose":"17:00","holidayOpen":"00:00","holidayClose":"00:00","feeInfo":"기본 30분 600원 / 추가 15분당 300원","phone":"032-262-9220","updatedAt":"2017-05-29","sido":"인천광역시","sigungu":"부평구","dong":"청천동"},{"name":"갈산역","type":"공영","category":"노외","address":"인천광역시 부평구 부평대로278번길 8(갈산동) 일원","lat":37.5159563,"lng":126.7220297,"totalSpaces":136,"isFree":false,"operatingDays":"평일+토요일+공휴일","weekdayOpen":"09:00","weekdayClose":"19:00","weekendOpen":"09:00","weekendClose":"17:00","holidayOpen":"09:00","holidayClose":"17:00","feeInfo":"기본 30분 600원 / 추가 15분당 300원","phone":"032-262-9220","updatedAt":"2025-10-30","sido":"인천광역시","sigungu":"부평구","dong":"갈산동"},{"name":"부평공원앞","type":"공영","category":"노외","address":"인천광역시 부평구 부영로 71(산곡동) 일원","lat":37.491454,"lng":126.7159012,"totalSpaces":133,"isFree":false,"operatingDays":"평일+토요일","weekdayOpen":"09:00","weekdayClose":"19:00","weekendOpen":"09:00","weekendClose":"17:00","holidayOpen":"00:00","holidayClose":"00:00","feeInfo":"기본 30분 600원 / 추가 15분당 300원","phone":"032-262-9220","updatedAt":"2025-10-30","sido":"인천광역시","sigungu":"부평구","dong":"산곡동"},{"name":"갈산역","type":"공영","category":"노외","address":"인천광역시 부평구 부평대로278번길 8(갈산동) 일원","lat":37.5155166,"lng":126.7238652,"totalSpaces":131,"isFree":false,"operatingDays":"평일+토요일+공휴일","weekdayOpen":"09:00","weekdayClose":"19:00","weekendOpen":"09:00","weekendClose":"17:00","holidayOpen":"09:00","holidayClose":"17:00","feeInfo":"기본 30분 600원 / 추가 15분당 300원","phone":"032-512-9227","updatedAt":"2017-05-29","sido":"인천광역시","sigungu":"부평구","dong":"갈산동"},{"name":"부평깡시장(건축물)","type":"공영","category":"노외","address":"인천광역시 부평구 부흥로 315","lat":37.4562557,"lng":126.7052062,"totalSpaces":130,"isFree":false,"operatingDays":"평일+토요일+공휴일","weekdayOpen":"00:00","weekdayClose":"00:00","weekendOpen":"00:00","weekendClose":"00:00","holidayOpen":"00:00","holidayClose":"00:00","feeInfo":"기본 30분 600원 / 추가 15분당 300원","phone":"032-262-9231","updatedAt":"2017-05-29","sido":"인천광역시","sigungu":"부평구","dong":"부평4동"},{"name":"부평깡시장","type":"공영","category":"노외","address":"인천광역시 부평구 부흥로 315(부평동) 일원","lat":37.49867037,"lng":126.726853,"totalSpaces":128,"isFree":false,"operatingDays":"평일+토요일+공휴일","weekdayOpen":"00:00","weekdayClose":"23:59","weekendOpen":"00:00","weekendClose":"23:59","holidayOpen":"00:00","holidayClose":"23:59","feeInfo":"기본 30분 600원 / 추가 15분당 300원","phone":"032-262-9220","updatedAt":"2025-10-30","sido":"인천광역시","sigungu":"부평구","dong":"부평동"},{"name":"인천나비공원","type":"공영","category":"노외","address":"인천광역시 부평구 평천로26-47(청천동)일원","lat":37.52026697,"lng":126.6927245,"totalSpaces":123,"isFree":false,"operatingDays":"평일+토요일","weekdayOpen":"09:00","weekdayClose":"19:00","weekendOpen":"09:00","weekendClose":"17:00","holidayOpen":"00:00","holidayClose":"00:00","feeInfo":"기본 30분 400원 / 추가 15분당 200원","phone":"032-262-9220","updatedAt":"2025-10-30","sido":"인천광역시","sigungu":"부평구","dong":"청천동"},{"name":"벽돌막","type":"공영","category":"노외","address":"인천광역시 부평구 백범로 456","lat":37.4686703,"lng":126.7007407,"totalSpaces":118,"isFree":false,"operatingDays":"평일+토요일+공휴일","weekdayOpen":"00:00","weekdayClose":"23:59","weekendOpen":"00:00","weekendClose":"23:59","holidayOpen":"00:00","holidayClose":"23:59","feeInfo":"기본 30분 600원 / 추가 15분당 300원","phone":"032-579-2701","updatedAt":"2025-06-26","sido":"인천광역시","sigungu":"부평구","dong":"십정동"},{"name":"벽돌막","type":"공영","category":"노외","address":"인천광역시 부평구 십정동 417","lat":37.4686703,"lng":126.7007407,"totalSpaces":118,"isFree":false,"operatingDays":"평일+토요일+공휴일","weekdayOpen":"00:01","weekdayClose":"12:00","weekendOpen":"00:01","weekendClose":"12:00","holidayOpen":"00:01","holidayClose":"12:00","feeInfo":"기본 30분 600원 / 추가 15분당 300원","phone":"032-579-2701","updatedAt":"2025-06-25","sido":"인천광역시","sigungu":"부평구","dong":"십정동"},{"name":"부원","type":"공영","category":"노외","address":"인천광역시 부평구 경원대로1347번길 12(부평동) 일원","lat":37.4922763,"lng":126.7193542,"totalSpaces":112,"isFree":false,"operatingDays":"평일+토요일+공휴일","weekdayOpen":"09:00","weekdayClose":"19:00","weekendOpen":"09:00","weekendClose":"17:00","holidayOpen":"09:00","holidayClose":"17:00","feeInfo":"기본 30분 1,000원 / 추가 15분당 500원","phone":"032-262-9220","updatedAt":"2017-05-29","sido":"인천광역시","sigungu":"부평구","dong":"부평동"},{"name":"인천나비공원","type":"공영","category":"노외","address":"인천광역시 부평구 평천로54번길 1(청천동) 일원","lat":37.5206653,"lng":126.6969866,"totalSpaces":108,"isFree":false,"operatingDays":"평일+토요일","weekdayOpen":"09:00","weekdayClose":"19:00","weekendOpen":"09:00","weekendClose":"17:00","holidayOpen":"00:00","holidayClose":"00:00","feeInfo":"기본 30분 400원 / 추가 15분당 200원","phone":"032-262-9229","updatedAt":"2017-05-29","sido":"인천광역시","sigungu":"부평구","dong":"청천동"},{"name":"대정(건축물)","type":"공영","category":"노외","address":"인천광역시 부평구 주부토로 19(부평동) 일원","lat":37.4562557,"lng":126.7052062,"totalSpaces":107,"isFree":false,"operatingDays":"평일+토요일+공휴일","weekdayOpen":"00:00","weekdayClose":"00:00","weekendOpen":"00:00","weekendClose":"00:00","holidayOpen":"00:00","holidayClose":"00:00","feeInfo":"기본 30분 600원 / 추가 15분당 300원","phone":"032-262-9229","updatedAt":"2017-05-29","sido":"인천광역시","sigungu":"부평구","dong":"부평동"},{"name":"부평시장대정","type":"공영","category":"노외","address":"인천광역시 부평구 주부토로 19(부평동) 일원","lat":37.4971589,"lng":126.724511,"totalSpaces":105,"isFree":false,"operatingDays":"평일+토요일+공휴일","weekdayOpen":"00:00","weekdayClose":"23:59","weekendOpen":"00:00","weekendClose":"23:59","holidayOpen":"00:00","holidayClose":"23:59","feeInfo":"기본 30분 600원 / 추가 15분당 300원","phone":"032-262-9220","updatedAt":"2025-10-30","sido":"인천광역시","sigungu":"부평구","dong":"부평동"},{"name":"세월천로","type":"공영","category":"노상","address":"인천광역시 부평구 세월천로 1(청천동) 일원","lat":37.5124549,"lng":126.7092729,"totalSpaces":105,"isFree":false,"operatingDays":"평일+토요일","weekdayOpen":"09:00","weekdayClose":"18:00","weekendOpen":"09:00","weekendClose":"17:00","holidayOpen":"00:00","holidayClose":"00:00","feeInfo":"기본 30분 600원 / 추가 15분당 300원","phone":"032-262-9220","updatedAt":"2025-10-30","sido":"인천광역시","sigungu":"부평구","dong":"청천동"},{"name":"사랑샘공원","type":"공영","category":"노외","address":"인천광역시 부평구 후정로 346(삼산동) 일원","lat":37.5204545,"lng":126.7358762,"totalSpaces":102,"isFree":false,"operatingDays":"평일+토요일+공휴일","weekdayOpen":"00:00","weekdayClose":"00:00","weekendOpen":"00:00","weekendClose":"00:00","holidayOpen":"00:00","holidayClose":"00:00","feeInfo":"기본 0분 0원","phone":"032-262-9229","updatedAt":"2017-05-29","sido":"인천광역시","sigungu":"부평구","dong":"삼산1동"},{"name":"열우물로","type":"민영","category":"노상","address":"인천광역시 부평구 열우물로 75(십정동) 일원","lat":37.4737398,"lng":126.6988497,"totalSpaces":101,"isFree":false,"operatingDays":"평일+토요일","weekdayOpen":"09:00","weekdayClose":"19:00","weekendOpen":"09:00","weekendClose":"17:00","holidayOpen":"00:00","holidayClose":"00:00","feeInfo":"기본 30분 400원 / 추가 15분당 200원","phone":"032-262-9220","updatedAt":"2017-05-29","sido":"인천광역시","sigungu":"부평구","dong":"십정동"},{"name":"사랑샘공원","type":"공영","category":"노외","address":"인천광역시 부평구 후정로 346(삼산동)","lat":37.52050826,"lng":126.7358669,"totalSpaces":99,"isFree":false,"operatingDays":"평일+토요일","weekdayOpen":"09:00","weekdayClose":"19:00","weekendOpen":"09:00","weekendClose":"17:00","holidayOpen":"00:00","holidayClose":"00:00","feeInfo":"기본 30분 300원 / 추가 15분당 150원","phone":"032-262-9220","updatedAt":"2025-10-30","sido":"인천광역시","sigungu":"부평구","dong":"삼산동"},{"name":"굴포천광장","type":"공영","category":"노외","address":"인천광역시 부평구 부평대로165번길 10(부평동) 인근","lat":37.50591334,"lng":126.7202172,"totalSpaces":99,"isFree":false,"operatingDays":"평일+토요일","weekdayOpen":"09:00","weekdayClose":"19:00","weekendOpen":"09:00","weekendClose":"17:00","holidayOpen":"00:00","holidayClose":"00:00","feeInfo":"기본 30분 600원 / 추가 15분당 300원","phone":"032-262-9220","updatedAt":"2025-10-30","sido":"인천광역시","sigungu":"부평구","dong":"부평동"},{"name":"청천화물","type":"공영","category":"노외","address":"인천광역시 부평구 평천로 266(청천동) 일원","lat":37.5163897,"lng":126.7186209,"totalSpaces":97,"isFree":false,"operatingDays":"평일+토요일+공휴일","weekdayOpen":"09:00","weekdayClose":"19:00","weekendOpen":"09:00","weekendClose":"17:00","holidayOpen":"09:00","holidayClose":"17:00","feeInfo":"기본 30분 400원 / 추가 15분당 200원","phone":"032-262-9229","updatedAt":"2017-05-29","sido":"인천광역시","sigungu":"부평구","dong":"청천동"},{"name":"삼산해돋이","type":"공영","category":"노외","address":"인천광역시 부평구 충선로311번길 31(삼산동) 일원","lat":37.5169041,"lng":126.7334848,"totalSpaces":97,"isFree":false,"operatingDays":"평일+토요일+공휴일","weekdayOpen":"09:00","weekdayClose":"19:00","weekendOpen":"09:00","weekendClose":"17:00","holidayOpen":"09:00","holidayClose":"17:00","feeInfo":"기본 30분 400원 / 추가 15분당 200원","phone":"032-262-9220","updatedAt":"2025-10-30","sido":"인천광역시","sigungu":"부평구","dong":"삼산동"},{"name":"십정","type":"공영","category":"노외","address":"인천광역시 부평구 배곶로40번길 18(십정동)","lat":37.472248939,"lng":126.6981246497,"totalSpaces":89,"isFree":false,"operatingDays":"평일+토요일","weekdayOpen":"09:00","weekdayClose":"19:00","weekendOpen":"09:00","weekendClose":"17:00","holidayOpen":"00:00","holidayClose":"00:00","feeInfo":"기본 30분 400원 / 추가 15분당 200원","phone":"032-262-9220","updatedAt":"2025-10-30","sido":"인천광역시","sigungu":"부평구","dong":"십정동"},{"name":"부평삼거리역","type":"공영","category":"노외","address":"인천광역시 부평구 경인로759번길(부평동) 일원","lat":37.4777748,"lng":126.7095452,"totalSpaces":74,"isFree":false,"operatingDays":"평일+토요일","weekdayOpen":"09:00","weekdayClose":"19:00","weekendOpen":"09:00","weekendClose":"17:00","holidayOpen":"00:00","holidayClose":"00:00","feeInfo":"기본 30분 400원 / 추가 15분당 200원","phone":"032-262-9229","updatedAt":"2017-05-29","sido":"인천광역시","sigungu":"부평구","dong":"십정동"},{"name":"부평삼거리역","type":"공영","category":"노외","address":"인천광역시 부평구 경인로759번길 8(부평동) 일원","lat":37.4775567,"lng":126.7096235,"totalSpaces":73,"isFree":false,"operatingDays":"평일+토요일","weekdayOpen":"09:00","weekdayClose":"19:00","weekendOpen":"09:00","weekendClose":"17:00","holidayOpen":"00:00","holidayClose":"00:00","feeInfo":"기본 30분 400원 / 추가 15분당 200원","phone":"032-262-9220","updatedAt":"2025-10-30","sido":"인천광역시","sigungu":"부평구","dong":"십정동"},{"name":"청천화물","type":"공영","category":"노외","address":"인천광역시 부평구 평천로 266(청천동) 일원","lat":37.51639667,"lng":126.7199201,"totalSpaces":73,"isFree":false,"operatingDays":"평일+토요일+공휴일","weekdayOpen":"09:00","weekdayClose":"19:00","weekendOpen":"09:00","weekendClose":"17:00","holidayOpen":"09:00","holidayClose":"17:00","feeInfo":"기본 30분 800원 / 추가 15분당 400원","phone":"032-262-9220","updatedAt":"2025-10-30","sido":"인천광역시","sigungu":"부평구","dong":"청천동"},{"name":"부평공원앞","type":"공영","category":"노외","address":"인천광역시 부평구 부영로 71(산곡동) 일원","lat":37.4912321,"lng":126.7157897,"totalSpaces":71,"isFree":false,"operatingDays":"평일+토요일+공휴일","weekdayOpen":"00:00","weekdayClose":"00:00","weekendOpen":"00:00","weekendClose":"00:00","holidayOpen":"00:00","holidayClose":"00:00","feeInfo":"기본 0분 0원","phone":"032-262-9229","updatedAt":"2017-05-29","sido":"인천광역시","sigungu":"부평구","dong":"산곡동"},{"name":"화랑로","type":"민영","category":"노외","address":"인천광역시 부평구 화랑로 124(산곡동) 일원","lat":37.493209,"lng":126.7019452,"totalSpaces":68,"isFree":false,"operatingDays":"평일+토요일","weekdayOpen":"09:00","weekdayClose":"19:00","weekendOpen":"09:00","weekendClose":"17:00","holidayOpen":"00:00","holidayClose":"00:00","feeInfo":"기본 30분 300원 / 추가 15분당 150원","phone":"032-262-9220","updatedAt":"2017-05-29","sido":"인천광역시","sigungu":"부평구","dong":"산곡동"},{"name":"백운남부1차","type":"공영","category":"노외","address":"인천광역시 부평구 백운로 14(부평동) 일원","lat":37.4807943,"lng":126.7103842,"totalSpaces":59,"isFree":false,"operatingDays":"평일+토요일","weekdayOpen":"09:00","weekdayClose":"19:00","weekendOpen":"09:00","weekendClose":"17:00","holidayOpen":"00:00","holidayClose":"00:00","feeInfo":"기본 30분 400원 / 추가 15분당 200원","phone":"032-262-9229","updatedAt":"2017-05-29","sido":"인천광역시","sigungu":"부평구","dong":"십정동"},{"name":"부개3차","type":"민영","category":"노외","address":"인천광역시 부평구 부흥로 420(부개동) 일원","lat":37.4971946,"lng":126.7392494,"totalSpaces":59,"isFree":false,"operatingDays":"평일+토요일","weekdayOpen":"09:00","weekdayClose":"19:00","weekendOpen":"09:00","weekendClose":"17:00","holidayOpen":"00:00","holidayClose":"00:00","feeInfo":"기본 30분 400원 / 추가 15분당 200원","phone":"032-262-9220","updatedAt":"2017-05-29","sido":"인천광역시","sigungu":"부평구","dong":"부개동"},{"name":"부개3차","type":"공영","category":"노외","address":"인천광역시 부평구 부흥로 420(부개동) 일원","lat":37.4973165,"lng":126.7386016,"totalSpaces":57,"isFree":false,"operatingDays":"평일+토요일","weekdayOpen":"09:00","weekdayClose":"19:00","weekendOpen":"09:00","weekendClose":"17:00","holidayOpen":"00:00","holidayClose":"00:00","feeInfo":"기본 30분 400원 / 추가 15분당 200원","phone":"032-262-9220","updatedAt":"2025-10-30","sido":"인천광역시","sigungu":"부평구","dong":"부개동"},{"name":"충선로311번길","type":"공영","category":"노상","address":"인천광역시 부평구 충선로311번길 25-17(삼산동) 일원","lat":37.5167307,"lng":126.7328554,"totalSpaces":55,"isFree":false,"operatingDays":"평일","weekdayOpen":"09:00","weekdayClose":"19:00","weekendOpen":"00:00","weekendClose":"00:00","holidayOpen":"00:00","holidayClose":"00:00","feeInfo":"기본 30분 400원 / 추가 15분당 200원","phone":"032-512-8614","updatedAt":"2017-05-29","sido":"인천광역시","sigungu":"부평구","dong":"삼산동"},{"name":"백운남부1차","type":"공영","category":"노외","address":"인천광역시 부평구 백운로 14(부평동) 일원","lat":37.4813005,"lng":126.7100474,"totalSpaces":55,"isFree":false,"operatingDays":"평일+토요일","weekdayOpen":"09:00","weekdayClose":"19:00","weekendOpen":"09:00","weekendClose":"17:00","holidayOpen":"00:00","holidayClose":"00:00","feeInfo":"기본 30분 400원 / 추가 15분당 200원","phone":"032-262-9220","updatedAt":"2025-10-30","sido":"인천광역시","sigungu":"부평구","dong":"십정동"},{"name":"부개2차","type":"민영","category":"노외","address":"인천광역시 부평구 부개로 61-14(부개동) 일원","lat":37.5033726,"lng":126.7386321,"totalSpaces":54,"isFree":false,"operatingDays":"평일+토요일","weekdayOpen":"09:00","weekdayClose":"19:00","weekendOpen":"09:00","weekendClose":"17:00","holidayOpen":"00:00","holidayClose":"00:00","feeInfo":"기본 30분 600원 / 추가 15분당 300원","phone":"032-262-9220","updatedAt":"2017-05-29","sido":"인천광역시","sigungu":"부평구","dong":"부개동"},{"name":"화랑로","type":"공영","category":"노외","address":"인천광역시 부평구 화랑로 124(산곡동) 일원","lat":37.4936086,"lng":126.702259,"totalSpaces":54,"isFree":false,"operatingDays":"평일+토요일","weekdayOpen":"09:00","weekdayClose":"19:00","weekendOpen":"09:00","weekendClose":"17:00","holidayOpen":"00:00","holidayClose":"00:00","feeInfo":"기본 30분 300원 / 추가 15분당 150원","phone":"032-262-9220","updatedAt":"2025-10-30","sido":"인천광역시","sigungu":"부평구","dong":"산곡동"},{"name":"부개1차","type":"공영","category":"노외","address":"인천광역시 부평구 부개로 71-14(부개동) 일원","lat":37.5041906,"lng":126.7387031,"totalSpaces":51,"isFree":false,"operatingDays":"평일+토요일","weekdayOpen":"09:00","weekdayClose":"19:00","weekendOpen":"09:00","weekendClose":"17:00","holidayOpen":"00:00","holidayClose":"00:00","feeInfo":"기본 30분 600원 / 추가 15분당 300원","phone":"032-262-9229","updatedAt":"2017-05-29","sido":"인천광역시","sigungu":"부평구","dong":"부개동"},{"name":"삼산해돋이공원","type":"공영","category":"노외","address":"인천광역시 부평구 충선로311번길 31(삼산동) 일원","lat":37.5167605,"lng":126.7331162,"totalSpaces":49,"isFree":false,"operatingDays":"평일","weekdayOpen":"09:00","weekdayClose":"19:00","weekendOpen":"00:00","weekendClose":"00:00","holidayOpen":"00:00","holidayClose":"00:00","feeInfo":"기본 30분 400원 / 추가 15분당 200원","phone":"032-262-9229","updatedAt":"2017-05-29","sido":"인천광역시","sigungu":"부평구","dong":"삼산2동"},{"name":"동암역북광장","type":"공영","category":"노외","address":"인천광역시 부평구 열우물로 34","lat":37.47138816,"lng":126.7016164,"totalSpaces":47,"isFree":false,"operatingDays":"평일+토요일+공휴일","weekdayOpen":"00:00","weekdayClose":"23:59","weekendOpen":"00:00","weekendClose":"23:59","holidayOpen":"00:00","holidayClose":"23:59","feeInfo":"기본 30분 1,000원 / 추가 15분당 500원","phone":"032-579-2701","updatedAt":"2025-06-26","sido":"인천광역시","sigungu":"부평구","dong":"십정동"},{"name":"동암역북광장","type":"공영","category":"노외","address":"인천광역시 부평구 십정동 528","lat":37.47107232,"lng":126.7018193,"totalSpaces":47,"isFree":false,"operatingDays":"평일+토요일+공휴일","weekdayOpen":"00:01","weekdayClose":"12:00","weekendOpen":"00:01","weekendClose":"12:00","holidayOpen":"00:01","holidayClose":"12:00","feeInfo":"기본 30분 1,000원 / 추가 15분당 500원","phone":"032-579-2701","updatedAt":"2025-06-25","sido":"인천광역시","sigungu":"부평구","dong":"십정동"},{"name":"십정동 643번지(임시)","type":"공영","category":"노외","address":"인천광역시 부평구 십정동 643","lat":37.4855733,"lng":126.7073356,"totalSpaces":45,"isFree":false,"operatingDays":"평일+토요일","weekdayOpen":"09:00","weekdayClose":"19:00","weekendOpen":"09:00","weekendClose":"17:00","holidayOpen":"00:00","holidayClose":"00:00","feeInfo":"기본 30분 400원 / 추가 15분당 200원","phone":"032-262-9220","updatedAt":"2025-10-30","sido":"인천광역시","sigungu":"부평구","dong":"십정동"},{"name":"노랑다리","type":"공영","category":"노외","address":"인천광역시 부평구 마장로 287(산곡동) 일원","lat":37.5026805,"lng":126.7003867,"totalSpaces":43,"isFree":false,"operatingDays":"평일+토요일+공휴일","weekdayOpen":"00:00","weekdayClose":"00:00","weekendOpen":"00:00","weekendClose":"00:00","holidayOpen":"00:00","holidayClose":"00:00","feeInfo":"기본 0분 0원","phone":"032-262-9229","updatedAt":"2017-05-29","sido":"인천광역시","sigungu":"부평구","dong":"산곡동"},{"name":"노랑다리","type":"공영","category":"노외","address":"인천광역시 부평구 마장로 287(산곡동) 일원","lat":37.50360605,"lng":126.7008096,"totalSpaces":43,"isFree":false,"operatingDays":"평일+토요일+공휴일","weekdayOpen":"00:00","weekdayClose":"23:59","weekendOpen":"00:00","weekendClose":"23:59","holidayOpen":"00:00","holidayClose":"23:59","feeInfo":"기본 0분 0원 / 추가 0분당 0원","phone":"032-262-9220","updatedAt":"2025-10-30","sido":"인천광역시","sigungu":"부평구","dong":"산곡동"},{"name":"부개2차","type":"공영","category":"노외","address":"인천광역시 부평구 부개로 61-14(부개동) 일원","lat":37.50331799,"lng":126.7389097,"totalSpaces":43,"isFree":false,"operatingDays":"평일+토요일","weekdayOpen":"09:00","weekdayClose":"19:00","weekendOpen":"09:00","weekendClose":"17:00","holidayOpen":"00:00","holidayClose":"00:00","feeInfo":"기본 30분 600원 / 추가 15분당 300원","phone":"032-262-9220","updatedAt":"2025-10-30","sido":"인천광역시","sigungu":"부평구","dong":"부개동"},{"name":"부개1차","type":"공영","category":"노외","address":"인천광역시 부평구 부개로 71-14(부개동) 일원","lat":37.5042709,"lng":126.739049,"totalSpaces":42,"isFree":false,"operatingDays":"평일+토요일","weekdayOpen":"09:00","weekdayClose":"19:00","weekendOpen":"09:00","weekendClose":"17:00","holidayOpen":"00:00","holidayClose":"00:00","feeInfo":"기본 30분 600원 / 추가 15분당 300원","phone":"032-262-9220","updatedAt":"2025-10-30","sido":"인천광역시","sigungu":"부평구","dong":"부개동"},{"name":"시장로","type":"민영","category":"노상","address":"인천광역시 부평구 시장로 67(부평동) 일원","lat":37.4977333,"lng":126.7295656,"totalSpaces":38,"isFree":false,"operatingDays":"평일+토요일","weekdayOpen":"09:00","weekdayClose":"19:00","weekendOpen":"09:00","weekendClose":"17:00","holidayOpen":"00:00","holidayClose":"00:00","feeInfo":"기본 30분 600원 / 추가 15분당 300원","phone":"032-262-9220","updatedAt":"2017-05-29","sido":"인천광역시","sigungu":"부평구","dong":"부평동"},{"name":"삼산5차","type":"공영","category":"노외","address":"인천광역시 부평구 영성동로 36-23(삼산동) 일원","lat":37.5153623,"lng":126.7389306,"totalSpaces":37,"isFree":false,"operatingDays":"평일+토요일","weekdayOpen":"09:00","weekdayClose":"19:00","weekendOpen":"09:00","weekendClose":"17:00","holidayOpen":"00:00","holidayClose":"00:00","feeInfo":"기본 30분 400원 / 추가 15분당 200원","phone":"032-262-9229","updatedAt":"2017-05-29","sido":"인천광역시","sigungu":"부평구","dong":"삼산동"},{"name":"삼산5차","type":"공영","category":"노외","address":"인천광역시 부평구 영성동로 36-23(삼산동) 일원","lat":37.5202111,"lng":126.7483837,"totalSpaces":37,"isFree":false,"operatingDays":"평일+토요일","weekdayOpen":"09:00","weekdayClose":"19:00","weekendOpen":"09:00","weekendClose":"17:00","holidayOpen":"00:00","holidayClose":"00:00","feeInfo":"기본 30분 400원 / 추가 15분당 200원","phone":"032-262-9220","updatedAt":"2025-10-30","sido":"인천광역시","sigungu":"부평구","dong":"삼산동"},{"name":"부평시장로터리","type":"공영","category":"노상","address":"인천광역시 부평구 시장로 45 (부평동) 일원","lat":37.49473428,"lng":126.7266282,"totalSpaces":36,"isFree":false,"operatingDays":"평일+토요일","weekdayOpen":"09:00","weekdayClose":"18:00","weekendOpen":"09:00","weekendClose":"17:00","holidayOpen":"00:00","holidayClose":"00:00","feeInfo":"기본 30분 600원 / 추가 15분당 300원","phone":"032-262-9220","updatedAt":"2025-10-30","sido":"인천광역시","sigungu":"부평구","dong":"부평동"},{"name":"부흥로","type":"공영","category":"노상","address":"인천광역시 부평구 부흥로323(부평동) 일원","lat":37.4981289,"lng":126.7252265,"totalSpaces":35,"isFree":false,"operatingDays":"평일+토요일","weekdayOpen":"09:00","weekdayClose":"19:00","weekendOpen":"09:00","weekendClose":"17:00","holidayOpen":"00:00","holidayClose":"00:00","feeInfo":"기본 30분 600원 / 추가 15분당 300원","phone":"032-262-9220","updatedAt":"2017-05-29","sido":"인천광역시","sigungu":"부평구","dong":"부평동"},{"name":"부평시장로터리","type":"민영","category":"노상","address":"인천광역시 부평구 시장로 45 (부평동) 일원","lat":37.4906489,"lng":126.7223333,"totalSpaces":35,"isFree":false,"operatingDays":"평일+토요일","weekdayOpen":"10:00","weekdayClose":"23:00","weekendOpen":"10:00","weekendClose":"23:00","holidayOpen":"00:00","holidayClose":"00:00","feeInfo":"기본 30분 600원 / 추가 15분당 300원","phone":"032-262-9220","updatedAt":"2017-05-29","sido":"인천광역시","sigungu":"부평구","dong":"부평동"},{"name":"삼산3차","type":"민영","category":"노외","address":"인천광역시 부평구 부평북로 451(삼산동) 일원","lat":37.522144,"lng":126.7435617,"totalSpaces":34,"isFree":false,"operatingDays":"평일+토요일","weekdayOpen":"09:00","weekdayClose":"19:00","weekendOpen":"09:00","weekendClose":"17:00","holidayOpen":"00:00","holidayClose":"00:00","feeInfo":"기본 30분 600원 / 추가 15분당 300원","phone":"032-262-9220","updatedAt":"2017-05-29","sido":"인천광역시","sigungu":"부평구","dong":"삼산동"},{"name":"대정로","type":"민영","category":"노상","address":"인천광역시 부평구 대정로 43(부평동) 일원","lat":37.493491,"lng":126.7266985,"totalSpaces":33,"isFree":false,"operatingDays":"평일+토요일","weekdayOpen":"09:00","weekdayClose":"19:00","weekendOpen":"09:00","weekendClose":"17:00","holidayOpen":"00:00","holidayClose":"00:00","feeInfo":"기본 30분 600원 / 추가 15분당 300원","phone":"032-262-9220","updatedAt":"2017-05-29","sido":"인천광역시","sigungu":"부평구","dong":"부평동"},{"name":"백운북광장","type":"공영","category":"노외","address":"인천광역시 부평구 이규보로 137-1(부평동) 일원","lat":37.4846791,"lng":126.7087774,"totalSpaces":33,"isFree":false,"operatingDays":"평일+토요일","weekdayOpen":"09:00","weekdayClose":"19:00","weekendOpen":"09:00","weekendClose":"17:00","holidayOpen":"00:00","holidayClose":"00:00","feeInfo":"기본 30분 600원 / 추가 15분당 300원","phone":"032-262-9220","updatedAt":"2017-05-29","sido":"인천광역시","sigungu":"부평구","dong":"십정동"},{"name":"삼산2차","type":"민영","category":"노외","address":"인천광역시 부평구 영성서로 448(삼산동) 일원","lat":37.5213695,"lng":126.7434299,"totalSpaces":33,"isFree":false,"operatingDays":"평일+토요일","weekdayOpen":"09:00","weekdayClose":"19:00","weekendOpen":"09:00","weekendClose":"17:00","holidayOpen":"00:00","holidayClose":"00:00","feeInfo":"기본 30분 600원 / 추가 15분당 300원","phone":"032-262-9220","updatedAt":"2017-05-29","sido":"인천광역시","sigungu":"부평구","dong":"삼산동"},{"name":"희망천2지구","type":"공영","category":"노외","address":"인천광역시 부평구 경인로818번길(부평동) 일원","lat":37.4820802,"lng":126.7135437,"totalSpaces":32,"isFree":false,"operatingDays":"평일+토요일+공휴일","weekdayOpen":"00:00","weekdayClose":"00:00","weekendOpen":"00:00","weekendClose":"00:00","holidayOpen":"00:00","holidayClose":"00:00","feeInfo":"기본 0분 0원","phone":"032-262-9229","updatedAt":"2017-05-29","sido":"인천광역시","sigungu":"부평구","dong":"부평2동"},{"name":"희망천2지구","type":"공영","category":"노외","address":"인천광역시 부평구 경인로818번길 15(부평동) 인근","lat":37.48201366,"lng":126.7136039,"totalSpaces":32,"isFree":false,"operatingDays":"평일+토요일+공휴일","weekdayOpen":"00:00","weekdayClose":"23:59","weekendOpen":"00:00","weekendClose":"23:59","holidayOpen":"00:00","holidayClose":"23:59","feeInfo":"기본 0분 0원 / 추가 0분당 0원","phone":"032-262-9220","updatedAt":"2025-10-30","sido":"인천광역시","sigungu":"부평구","dong":"부평동"},{"name":"삼산2차","type":"공영","category":"노외","address":"인천광역시 부평구 영성서로 38(삼산동) 인근","lat":37.5214603,"lng":126.7429895,"totalSpaces":31,"isFree":false,"operatingDays":"평일+토요일","weekdayOpen":"09:00","weekdayClose":"19:00","weekendOpen":"09:00","weekendClose":"17:00","holidayOpen":"00:00","holidayClose":"00:00","feeInfo":"기본 30분 600원 / 추가 15분당 300원","phone":"032-262-9220","updatedAt":"2025-10-30","sido":"인천광역시","sigungu":"부평구","dong":"삼산동"},{"name":"남부고가","type":"공영","category":"노외","address":"인천광역시 부평구 동수북로102(부평동) 일원","lat":37.4894389,"lng":126.7178501,"totalSpaces":30,"isFree":false,"operatingDays":"평일+토요일+공휴일","weekdayOpen":"00:00","weekdayClose":"00:00","weekendOpen":"00:00","weekendClose":"00:00","holidayOpen":"00:00","holidayClose":"00:00","feeInfo":"기본 0분 0원","phone":"032-262-9229","updatedAt":"2017-05-29","sido":"인천광역시","sigungu":"부평구","dong":"부평동"},{"name":"남부고가","type":"공영","category":"노외","address":"인천광역시 부평구 동수북로102(부평동) 일원","lat":37.4890468,"lng":126.717625,"totalSpaces":30,"isFree":false,"operatingDays":"평일+토요일+공휴일","weekdayOpen":"00:00","weekdayClose":"23:59","weekendOpen":"00:00","weekendClose":"23:59","holidayOpen":"00:00","holidayClose":"23:59","feeInfo":"기본 0분 0원 / 추가 0분당 0원","phone":"032-262-9220","updatedAt":"2025-10-30","sido":"인천광역시","sigungu":"부평구","dong":"부평동"},{"name":"부평동 965번지(임시)","type":"공영","category":"노외","address":"인천광역시 부평구 부평동 965","lat":37.4922872418,"lng":126.7331157004,"totalSpaces":30,"isFree":false,"operatingDays":"평일+토요일+공휴일","weekdayOpen":"00:00","weekdayClose":"23:59","weekendOpen":"00:00","weekendClose":"23:59","holidayOpen":"00:00","holidayClose":"23:59","feeInfo":"기본 0분 0원 / 추가 0분당 0원","phone":"032-262-9220","updatedAt":"2025-10-30","sido":"인천광역시","sigungu":"부평구","dong":"부평동"},{"name":"수변로 85번길","type":"공영","category":"노외","address":"인천광역시 부평구 수변로85번길 34-29(부개동) 일원","lat":37.4945845,"lng":126.739602,"totalSpaces":29,"isFree":false,"operatingDays":"평일+토요일+공휴일","weekdayOpen":"00:00","weekdayClose":"00:00","weekendOpen":"00:00","weekendClose":"00:00","holidayOpen":"00:00","holidayClose":"00:00","feeInfo":"기본 0분 0원","phone":"032-262-9229","updatedAt":"2017-05-29","sido":"인천광역시","sigungu":"부평구","dong":"부개동"},{"name":"수변로85번길","type":"공영","category":"노외","address":"인천광역시 부평구 수변로85번길 34-29(부개동) 일원","lat":37.49463026,"lng":126.739602,"totalSpaces":29,"isFree":false,"operatingDays":"평일+토요일+공휴일","weekdayOpen":"00:00","weekdayClose":"23:59","weekendOpen":"00:00","weekendClose":"23:59","holidayOpen":"00:00","holidayClose":"23:59","feeInfo":"기본 0분 0원 / 추가 0분당 0원","phone":"032-262-9220","updatedAt":"2025-10-30","sido":"인천광역시","sigungu":"부평구","dong":"부개동"},{"name":"백운역북광장","type":"공영","category":"노외","address":"인천광역시 부평구 이규보로 137-1(부평동) 일원","lat":37.4839258,"lng":126.7073091,"totalSpaces":28,"isFree":false,"operatingDays":"평일+토요일","weekdayOpen":"09:00","weekdayClose":"19:00","weekendOpen":"09:00","weekendClose":"17:00","holidayOpen":"00:00","holidayClose":"00:00","feeInfo":"기본 30분 600원 / 추가 15분당 300원","phone":"032-262-9220","updatedAt":"2025-10-30","sido":"인천광역시","sigungu":"부평구","dong":"십정동"},{"name":"부평2동행정복지센터","type":"공영","category":"노외","address":"인천광역시 부평구 영성동로 36-23(삼산동) 일원","lat":37.52025272,"lng":126.7483947,"totalSpaces":28,"isFree":false,"operatingDays":"평일","weekdayOpen":"09:00","weekdayClose":"19:00","weekendOpen":"00:00","weekendClose":"00:00","holidayOpen":"00:00","holidayClose":"00:00","feeInfo":"기본 30분 400원 / 추가 15분당 200원","phone":"032-262-9220","updatedAt":"2025-10-30","sido":"인천광역시","sigungu":"부평구","dong":"삼산동"},{"name":"롯데백화점 입구","type":"공영","category":"노상","address":"인천광역시 부평구 부평문화로39번길 4(부평동) 일원","lat":37.4941614,"lng":126.7219466,"totalSpaces":24,"isFree":false,"operatingDays":"평일+토요일","weekdayOpen":"09:00","weekdayClose":"19:00","weekendOpen":"09:00","weekendClose":"17:00","holidayOpen":"00:00","holidayClose":"00:00","feeInfo":"기본 30분 1,000원 / 추가 15분당 500원","phone":"032-262-9220","updatedAt":"2017-05-29","sido":"인천광역시","sigungu":"부평구","dong":"부평동"},{"name":"주부토로","type":"민영","category":"노상","address":"인천광역시 부평구 주부토로 30(부평동) 일원","lat":37.5008166,"lng":126.7248848,"totalSpaces":23,"isFree":false,"operatingDays":"평일+토요일","weekdayOpen":"09:00","weekdayClose":"19:00","weekendOpen":"09:00","weekendClose":"17:00","holidayOpen":"00:00","holidayClose":"00:00","feeInfo":"기본 30분 600원 / 추가 15분당 300원","phone":"032-262-9220","updatedAt":"2017-05-29","sido":"인천광역시","sigungu":"부평구","dong":"부평4동"},{"name":"주부토로","type":"공영","category":"노상","address":"인천광역시 부평구 주부토로 30(부평동) 일원","lat":37.49751676,"lng":126.7251437,"totalSpaces":21,"isFree":false,"operatingDays":"평일+토요일","weekdayOpen":"09:00","weekdayClose":"18:00","weekendOpen":"09:00","weekendClose":"17:00","holidayOpen":"00:00","holidayClose":"00:00","feeInfo":"기본 30분 600원 / 추가 15분당 300원","phone":"032-262-9220","updatedAt":"2025-10-30","sido":"인천광역시","sigungu":"부평구","dong":"부평동"},{"name":"경인로1024번길","type":"공영","category":"노외","address":"인천광역시 부평구 경인로1024번길 12-13번길(부개동) 일원","lat":37.4860513,"lng":126.7329939,"totalSpaces":20,"isFree":false,"operatingDays":"평일+토요일+공휴일","weekdayOpen":"00:00","weekdayClose":"00:00","weekendOpen":"00:00","weekendClose":"00:00","holidayOpen":"00:00","holidayClose":"00:00","feeInfo":"기본 0분 0원","phone":"032-262-9229","updatedAt":"2017-05-29","sido":"인천광역시","sigungu":"부평구","dong":"부개1동"},{"name":"경인로1024번길","type":"공영","category":"노외","address":"인천광역시 부평구 경인로1024번길 12-13(부개동) 일원","lat":37.486148,"lng":126.7330149,"totalSpaces":20,"isFree":false,"operatingDays":"평일+토요일+공휴일","weekdayOpen":"00:00","weekdayClose":"23:59","weekendOpen":"00:00","weekendClose":"23:59","holidayOpen":"00:00","holidayClose":"23:59","feeInfo":"기본 0분 0원 / 추가 0분당 0원","phone":"032-262-9220","updatedAt":"2025-10-30","sido":"인천광역시","sigungu":"부평구","dong":"부개동"},{"name":"고니샘","type":"공영","category":"노외","address":"인천광역시 부평구 길주남로 89번길 12-12(부평동) 일원","lat":37.5044525,"lng":126.7323629,"totalSpaces":19,"isFree":false,"operatingDays":"평일+토요일+공휴일","weekdayOpen":"00:00","weekdayClose":"00:00","weekendOpen":"00:00","weekendClose":"00:00","holidayOpen":"00:00","holidayClose":"00:00","feeInfo":"기본 0분 0원","phone":"032-262-9229","updatedAt":"2017-05-29","sido":"인천광역시","sigungu":"부평구","dong":"부평5동"},{"name":"세월천골","type":"공영","category":"노외","address":"인천광역시 부평구 세월천로87번길 11(산곡동) 일원","lat":37.5140228,"lng":126.6990182,"totalSpaces":19,"isFree":false,"operatingDays":"평일+토요일+공휴일","weekdayOpen":"00:00","weekdayClose":"00:00","weekendOpen":"00:00","weekendClose":"00:00","holidayOpen":"00:00","holidayClose":"00:00","feeInfo":"기본 0분 0원","phone":"032-262-9229","updatedAt":"2017-05-29","sido":"인천광역시","sigungu":"부평구","dong":"청천동"},{"name":"세월천골","type":"공영","category":"노외","address":"인천광역시 부평구 세월천로87번길 17(산곡동)","lat":37.51399553,"lng":126.6987652,"totalSpaces":19,"isFree":false,"operatingDays":"평일+토요일","weekdayOpen":"09:00","weekdayClose":"19:00","weekendOpen":"09:00","weekendClose":"17:00","holidayOpen":"00:00","holidayClose":"00:00","feeInfo":"기본 30분 300원 / 추가 15분당 150원","phone":"032-262-9220","updatedAt":"2025-10-30","sido":"인천광역시","sigungu":"부평구","dong":"산곡동"},{"name":"화랑남로5번길","type":"공영","category":"노외","address":"인천광역시 부평구 화랑남로5번길(산곡동) 일원","lat":37.492953,"lng":126.7052256,"totalSpaces":18,"isFree":false,"operatingDays":"평일+토요일+공휴일","weekdayOpen":"00:00","weekdayClose":"00:00","weekendOpen":"00:00","weekendClose":"00:00","holidayOpen":"00:00","holidayClose":"00:00","feeInfo":"기본 0분 0원","phone":"032-262-9229","updatedAt":"2017-05-29","sido":"인천광역시","sigungu":"부평구","dong":"산곡3동"},{"name":"화랑남로5번길","type":"공영","category":"노외","address":"인천광역시 부평구 화랑남로5번길 6(산곡동) 인근","lat":37.49272593,"lng":126.7052534,"totalSpaces":18,"isFree":false,"operatingDays":"평일+토요일+공휴일","weekdayOpen":"00:00","weekdayClose":"23:59","weekendOpen":"00:00","weekendClose":"23:59","holidayOpen":"00:00","holidayClose":"23:59","feeInfo":"기본 0분 0원 / 추가 0분당 0원","phone":"032-262-9220","updatedAt":"2025-10-30","sido":"인천광역시","sigungu":"부평구","dong":"산곡동"},{"name":"삼산1차","type":"민영","category":"노외","address":"인천광역시 부평구 영성서로 35-10(삼산동) 일원","lat":37.5213594,"lng":126.7422287,"totalSpaces":17,"isFree":false,"operatingDays":"평일+토요일","weekdayOpen":"09:00","weekdayClose":"19:00","weekendOpen":"09:00","weekendClose":"17:00","holidayOpen":"00:00","holidayClose":"00:00","feeInfo":"기본 30분 600원 / 추가 15분당 300원","phone":"032-262-9220","updatedAt":"2017-05-29","sido":"인천광역시","sigungu":"부평구","dong":"삼산동"},{"name":"삼산4차","type":"공영","category":"노외","address":"인천광역시 부평구 영성로 76-7(삼산동) 일원","lat":37.5201604,"lng":126.747595,"totalSpaces":17,"isFree":false,"operatingDays":"평일+토요일+공휴일","weekdayOpen":"00:00","weekdayClose":"00:00","weekendOpen":"00:00","weekendClose":"00:00","holidayOpen":"00:00","holidayClose":"00:00","feeInfo":"기본 0분 0원","phone":"032-262-9229","updatedAt":"2017-05-29","sido":"인천광역시","sigungu":"부평구","dong":"삼산동"},{"name":"고니샘","type":"공영","category":"노외","address":"인천광역시 부평구 길주남로 89번길 12-12(부평동) 일원","lat":37.50464062,"lng":126.7324419,"totalSpaces":17,"isFree":false,"operatingDays":"평일+토요일+공휴일","weekdayOpen":"00:00","weekdayClose":"23:59","weekendOpen":"00:00","weekendClose":"23:59","holidayOpen":"00:00","holidayClose":"23:59","feeInfo":"기본 0분 0원 / 추가 0분당 0원","phone":"032-262-9220","updatedAt":"2025-10-30","sido":"인천광역시","sigungu":"부평구","dong":"부평동"},{"name":"삼산4차","type":"공영","category":"노외","address":"인천광역시 부평구 영성로 76-7(삼산동) 일원","lat":37.52041611,"lng":126.7475145,"totalSpaces":17,"isFree":false,"operatingDays":"평일+토요일","weekdayOpen":"09:00","weekdayClose":"19:00","weekendOpen":"09:00","weekendClose":"17:00","holidayOpen":"00:00","holidayClose":"00:00","feeInfo":"기본 30분 400원 / 추가 15분당 200원","phone":"032-262-9220","updatedAt":"2025-10-30","sido":"인천광역시","sigungu":"부평구","dong":"삼산동"},{"name":"부평동 964번지","type":"공영","category":"노외","address":"인천광역시 부평구 부평동 964","lat":37.49236889,"lng":126.7333663,"totalSpaces":17,"isFree":false,"operatingDays":"평일+토요일+공휴일","weekdayOpen":"00:00","weekdayClose":"23:59","weekendOpen":"00:00","weekendClose":"23:59","holidayOpen":"00:00","holidayClose":"23:59","feeInfo":"기본 0분 0원 / 추가 0분당 0원","phone":"032-262-9220","updatedAt":"2025-10-30","sido":"인천광역시","sigungu":"부평구","dong":"부평동"},{"name":"청천화물(일반)","type":"공영","category":"노외","address":"인천광역시 부평구 평천로 266(청천동) 일원","lat":37.51639839,"lng":126.719921,"totalSpaces":16,"isFree":false,"operatingDays":"평일+토요일+공휴일","weekdayOpen":"00:00","weekdayClose":"23:59","weekendOpen":"00:00","weekendClose":"23:59","holidayOpen":"00:00","holidayClose":"23:59","feeInfo":"기본 0분 0원 / 추가 0분당 0원","phone":"032-262-9220","updatedAt":"2025-10-30","sido":"인천광역시","sigungu":"부평구","dong":"청천동"},{"name":"삼산1차","type":"공영","category":"노외","address":"인천광역시 부평구 영성서로 35-10(삼산동) 일원","lat":37.52120873,"lng":126.7423857,"totalSpaces":15,"isFree":false,"operatingDays":"평일+토요일","weekdayOpen":"09:00","weekdayClose":"19:00","weekendOpen":"09:00","weekendClose":"17:00","holidayOpen":"00:00","holidayClose":"00:00","feeInfo":"기본 30분 600원 / 추가 15분당 300원","phone":"032-262-9220","updatedAt":"2025-10-30","sido":"인천광역시","sigungu":"부평구","dong":"삼산동"},{"name":"열우물시장","type":"공영","category":"노외","address":"인천광역시 부평구 이규보로 137-1(부평동) 일원","lat":37.48398324,"lng":126.7073091,"totalSpaces":14,"isFree":false,"operatingDays":"평일+토요일+공휴일","weekdayOpen":"09:00","weekdayClose":"19:00","weekendOpen":"09:00","weekendClose":"17:00","holidayOpen":"09:00","holidayClose":"17:00","feeInfo":"기본 30분 600원 / 추가 15분당 300원","phone":"032-262-9220","updatedAt":"2025-10-30","sido":"인천광역시","sigungu":"부평구","dong":"십정동"},{"name":"시장로","type":"공영","category":"노상","address":"인천광역시 부평구 시장로 67(부평동) 일원","lat":37.49642821,"lng":126.7282033,"totalSpaces":14,"isFree":false,"operatingDays":"평일+토요일","weekdayOpen":"09:00","weekdayClose":"18:00","weekendOpen":"09:00","weekendClose":"17:00","holidayOpen":"00:00","holidayClose":"00:00","feeInfo":"기본 30분 600원 / 추가 15분당 300원","phone":"032-262-9220","updatedAt":"2025-10-30","sido":"인천광역시","sigungu":"부평구","dong":"부평동"},{"name":"부흥로","type":"공영","category":"노상","address":"인천광역시 부평구 부흥로 323(부평동) 일원","lat":37.49878151,"lng":126.7273663,"totalSpaces":13,"isFree":false,"operatingDays":"평일","weekdayOpen":"09:00","weekdayClose":"18:00","weekendOpen":"00:00","weekendClose":"00:00","holidayOpen":"00:00","holidayClose":"00:00","feeInfo":"기본 30분 600원 / 추가 15분당 300원","phone":"032-262-9220","updatedAt":"2025-10-30","sido":"인천광역시","sigungu":"부평구","dong":"부평동"},{"name":"주부토로90번길","type":"공영","category":"노외","address":"인천광역시 부평구 주부토로90번길43(부평동) 일원","lat":37.5028946,"lng":126.7283336,"totalSpaces":12,"isFree":false,"operatingDays":"평일+토요일+공휴일","weekdayOpen":"00:00","weekdayClose":"00:00","weekendOpen":"00:00","weekendClose":"00:00","holidayOpen":"00:00","holidayClose":"00:00","feeInfo":"기본 0분 0원","phone":"032-262-9229","updatedAt":"2017-05-29","sido":"인천광역시","sigungu":"부평구","dong":"부평4동"},{"name":"코아타운","type":"공영","category":"노외","address":"인천광역시 부평구 부평대로 69","lat":37.49461123,"lng":126.7266045,"totalSpaces":12,"isFree":false,"operatingDays":"평일+토요일+공휴일","weekdayOpen":"00:00","weekdayClose":"23:59","weekendOpen":"00:00","weekendClose":"23:59","holidayOpen":"00:00","holidayClose":"23:59","feeInfo":"기본 30분 1,000원 / 추가 15분당 500원","phone":"032-579-2701","updatedAt":"2025-06-26","sido":"인천광역시","sigungu":"부평구","dong":"부평동"},{"name":"코아타운","type":"공영","category":"노외","address":"인천광역시 부평구 부평대로 69","lat":37.49461123,"lng":126.7266045,"totalSpaces":12,"isFree":false,"operatingDays":"평일+토요일+공휴일","weekdayOpen":"00:01","weekdayClose":"12:00","weekendOpen":"00:01","weekendClose":"12:00","holidayOpen":"00:01","holidayClose":"12:00","feeInfo":"기본 30분 1,000원 / 추가 15분당 500원","phone":"032-579-2701","updatedAt":"2025-06-25","sido":"인천광역시","sigungu":"부평구","dong":"부평동"},{"name":"주부토로90번길","type":"공영","category":"노외","address":"인천광역시 부평구 주부토로90번길43(부평동) 일원","lat":37.5029135,"lng":126.7280045,"totalSpaces":12,"isFree":false,"operatingDays":"평일+토요일+공휴일","weekdayOpen":"00:00","weekdayClose":"23:59","weekendOpen":"00:00","weekendClose":"23:59","holidayOpen":"00:00","holidayClose":"23:59","feeInfo":"기본 0분 0원 / 추가 0분당 0원","phone":"032-262-9220","updatedAt":"2025-10-30","sido":"인천광역시","sigungu":"부평구","dong":"부평동"},{"name":"부평문화로153번길","type":"공영","category":"노외","address":"인천광역시 부평구 부평문화로153번길 17-10(부개동) 일원","lat":37.4948343,"lng":126.7329008,"totalSpaces":12,"isFree":false,"operatingDays":"평일+토요일+공휴일","weekdayOpen":"00:00","weekdayClose":"23:59","weekendOpen":"00:00","weekendClose":"23:59","holidayOpen":"00:00","holidayClose":"23:59","feeInfo":"기본 0분 0원 / 추가 0분당 0원","phone":"032-262-9220","updatedAt":"2025-10-30","sido":"인천광역시","sigungu":"부평구","dong":"부평동"},{"name":"갈월산","type":"공영","category":"노외","address":"인천광역시 부평구 평천로317번길 11-6(갈산동) 일원","lat":37.51816358,"lng":126.7249223,"totalSpaces":12,"isFree":false,"operatingDays":"평일+토요일+공휴일","weekdayOpen":"00:00","weekdayClose":"23:59","weekendOpen":"00:00","weekendClose":"23:59","holidayOpen":"00:00","holidayClose":"23:59","feeInfo":"기본 0분 0원 / 추가 0분당 0원","phone":"032-262-9220","updatedAt":"2025-10-30","sido":"인천광역시","sigungu":"부평구","dong":"갈산동"},{"name":"장제로357번길","type":"공영","category":"노외","address":"인천광역시 부평구 평천로357번길 11(갈산동) 일원","lat":37.5180486,"lng":126.730564,"totalSpaces":10,"isFree":false,"operatingDays":"평일+토요일+공휴일","weekdayOpen":"00:00","weekdayClose":"00:00","weekendOpen":"00:00","weekendClose":"00:00","holidayOpen":"00:00","holidayClose":"00:00","feeInfo":"기본 0분 0원","phone":"032-262-9229","updatedAt":"2017-05-29","sido":"인천광역시","sigungu":"부평구","dong":"갈산1동"},{"name":"동수천로53번길","type":"공영","category":"노외","address":"인천광역시 부평구 동수천로 53번길 12(부개동) 일원","lat":37.4909186,"lng":126.7345005,"totalSpaces":10,"isFree":false,"operatingDays":"평일+토요일+공휴일","weekdayOpen":"00:00","weekdayClose":"00:00","weekendOpen":"00:00","weekendClose":"00:00","holidayOpen":"00:00","holidayClose":"00:00","feeInfo":"기본 0분 0원","phone":"032-262-9229","updatedAt":"2017-05-29","sido":"인천광역시","sigungu":"부평구","dong":"부개2동"},{"name":"부평문화로153번길","type":"공영","category":"노외","address":"인천광역시 부평구 부평문화로153번길 17-10(부개동) 일원","lat":37.4947499,"lng":126.7340886,"totalSpaces":10,"isFree":false,"operatingDays":"평일+토요일+공휴일","weekdayOpen":"00:00","weekdayClose":"00:00","weekendOpen":"00:00","weekendClose":"00:00","holidayOpen":"00:00","holidayClose":"00:00","feeInfo":"기본 0분 0원","phone":"032-262-9229","updatedAt":"2017-05-29","sido":"인천광역시","sigungu":"부평구","dong":"부개2동"},{"name":"갈월산","type":"공영","category":"노외","address":"인천광역시 부평구 평천로317번길 11-6(갈산동) 일원","lat":37.5182182,"lng":126.7250669,"totalSpaces":10,"isFree":false,"operatingDays":"평일+토요일+공휴일","weekdayOpen":"00:00","weekdayClose":"00:00","weekendOpen":"00:00","weekendClose":"00:00","holidayOpen":"00:00","holidayClose":"00:00","feeInfo":"기본 0분 0원","phone":"032-262-9229","updatedAt":"2017-05-29","sido":"인천광역시","sigungu":"부평구","dong":"갈산1동"},{"name":"평천로 357번길","type":"공영","category":"노외","address":"인천광역시 부평구 평천로357번길 11(갈산동)","lat":37.51805671,"lng":126.7305657,"totalSpaces":10,"isFree":false,"operatingDays":"평일+토요일+공휴일","weekdayOpen":"00:00","weekdayClose":"23:59","weekendOpen":"00:00","weekendClose":"23:59","holidayOpen":"00:00","holidayClose":"23:59","feeInfo":"기본 0분 0원 / 추가 0분당 0원","phone":"032-262-9220","updatedAt":"2025-10-30","sido":"인천광역시","sigungu":"부평구","dong":"갈산동"},{"name":"대정로","type":"공영","category":"노상","address":"인천광역시 부평구 대정로 43(부평동) 일원","lat":37.4955086,"lng":126.725712,"totalSpaces":9,"isFree":false,"operatingDays":"평일","weekdayOpen":"09:00","weekdayClose":"18:00","weekendOpen":"00:00","weekendClose":"00:00","holidayOpen":"00:00","holidayClose":"00:00","feeInfo":"기본 30분 600원 / 추가 15분당 300원","phone":"032-262-9220","updatedAt":"2025-10-30","sido":"인천광역시","sigungu":"부평구","dong":"부평동"}]}